     3.04           OBSERVATION DATA    C: BDS              RINEX VERSION / TYPE
DataSimulator       BUPT-GNSS           20260518 115324     PGM / RUN BY / DATE
BDS SPP Simulated Observation Data                          COMMENT
BUPT_Shahe                                                  MARKER NAME
 -2161962.4351  4376609.9016  4091389.4091                  APPROX POSITION XYZ
0.0000        0.0000        0.0000                          ANTENNA: DELTA H/E/N
C    2 C2I S2I                                              SYS / # / OBS TYPES
                                                         BDTTIME OF FIRST OBS
    30.000                                                  INTERVAL
                                                            END OF HEADER
> 2026 05 10 00 00  0.0000000  0 11
C01  38491979.580          37.936  
C02  39630683.002          24.815  
C03  38557513.958          37.809  
C04  39520177.485          25.802  
C07  37446423.182          40.202  
C08  36158140.309          44.087  
C24  23815950.023          36.187  
C26  21786258.968          46.256  
C31  22833229.500          39.465  
C35  21652038.224          49.080  
C39  24199189.143          32.717  
> 2026 05 10 00 00 30.0000000  0 10
C01  38490393.118          31.131  
C03  38556765.546          35.654  
C04  39518239.059          27.224  
C07  37454453.849          38.170  
C08  36157948.025          43.717  
C10  36920740.431          38.105  
C26  21786285.509          46.490  
C29  24441084.835          29.197  
C31  22820268.967          39.464  
C39  24215212.542          33.370  
> 2026 05 10 00 01  0.0000000  0 12
C01  38488800.700          38.255  
C02  39631302.768          31.322  
C03  38556006.078          33.240  
C04  39516294.525          32.064  
C08  36157758.599          42.317  
C10  36926620.664          40.864  
C24  23787478.984          36.473  
C26  21786391.225          44.557  
C29  24457253.705          28.959  
C31  22807360.812          34.293  
C35  21655893.478          42.479  
C39  24231275.088          36.850  
> 2026 05 10 00 01 30.0000000  0  9
C02  39631578.041          32.700  
C04  39514321.042          31.018  
C07  37470541.186          37.175  
C08  36157547.801          49.201  
C10  36932500.285          40.516  
C29  24473411.223          30.255  
C31  22794480.771          39.137  
C35  21657904.922          45.261  
C39  24247355.951          33.933  
> 2026 05 10 00 02  0.0000000  0 11
C01  38485601.700          38.068  
C02  39631887.783          28.615  
C03  38554464.137          36.624  
C07  37478650.646          37.493  
C08  36157390.207          43.659  
C10  36938450.586          40.997  
C24  23759168.984          33.459  
C29  24489641.666          28.576  
C31  22781703.285          38.605  
C35  21660034.654          45.860  
C39  24263526.725          33.399  
> 2026 05 10 00 02 30.0000000  0 10
C01  38484022.771          33.920  
C02  39632205.154          32.900  
C04  39510461.465          30.809  
C07  37486782.790          37.082  
C10  36944431.251          37.367  
C24  23745104.182          37.554  
C26  21787223.833          44.025  
C29  24505894.607          22.225  
C31  22768983.711          38.420  
C39  24279746.455          36.244  
> 2026 05 10 00 03  0.0000000  0 12
C01  38482391.263          33.241  
C02  39632466.445          28.010  
C03  38552900.516          33.863  
C04  39508460.242          28.382  
C07  37494883.400          35.843  
C08  36157046.570          43.939  
C10  36950381.469          41.239  
C26  21787632.958          45.728  
C29  24522107.190          21.387  
C31  22756267.083          37.947  
C35  21664466.814          43.261  
C39  24295954.199          34.434  
> 2026 05 10 00 03 30.0000000  0 12
C01  38480777.109          33.757  
C02  39632738.616          26.037  
C03  38552107.157          35.192  
C04  39506494.331          22.278  
C08  36156877.689          42.933  
C10  36956383.154          41.297  
C24  23717025.565          36.553  
C26  21788149.989          42.233  
C29  24538364.188          22.158  
C31  22743630.395          42.318  
C35  21666787.638          44.216  
C39  24312230.213          37.898  
> 2026 05 10 00 04  0.0000000  0  9
C01  38479216.399          37.776  
C02  39633051.844          27.589  
C03  38551361.133          34.604  
C04  39504575.595          29.293  
C08  36156770.448          43.889  
C24  23703115.823          40.713  
C29  24554686.151          22.448  
C35  21669236.244          43.504  
C39  24328602.821          34.802  
> 2026 05 10 00 04 30.0000000  0 13
C01  38477592.452          35.992  
C02  39633313.196          24.611  
C03  38550551.847          36.836  
C04  39502593.157          22.027  
C07  37519424.710          39.963  
C08  36156606.635          45.178  
C10  36968502.367          38.350  
C24  23689193.526          38.074  
C26  21789481.810          43.598  
C29  24570969.961          25.017  
C31  22718572.098          40.364  
C35  21671697.321          47.024  
C39  24344956.833          35.589  
> 2026 05 10 00 05  0.0000000  0 11
C01  38475972.847          36.685  
C02  39633567.312          21.429  
C03  38549743.970          35.992  
C04  39500628.235          29.340  
C07  37527631.151          33.196  
C08  36156457.173          47.208  
C10  36974581.905          39.117  
C24  23675321.813          37.135  
C29  24587276.868          25.836  
C31  22706108.656          39.179  
C39  24361365.661          35.753  
> 2026 05 10 00 05 30.0000000  0 11
C01  38474385.628          34.382  
C02  39633845.829          17.347  
C03  38548962.586          36.278  
C04  39498691.131          32.764  
C07  37535895.252          36.940  
C08  36156345.926          41.834  
C10  36980716.989          39.820  
C26  21791140.001          44.856  
C29  24603636.905          29.443  
C35  21676886.001          42.631  
C39  24377847.522          34.631  
> 2026 05 10 00 06  0.0000000  0 11
C01  38472756.196          39.819  
C03  38548138.564          31.635  
C04  39496707.679          29.656  
C07  37544138.389          38.710  
C08  36156200.835          50.303  
C10  36986838.884          37.645  
C24  23647749.806          33.825  
C26  21792075.027          44.610  
C29  24619975.163          30.851  
C31  22681374.541          36.604  
C35  21679564.734          42.654  
> 2026 05 10 00 06 30.0000000  0 13
C01  38471153.417          33.761  
C02  39634348.188          17.436  
C03  38547334.605          34.464  
C04  39494744.968          29.347  
C07  37552429.425          40.439  
C08  36156089.833          45.674  
C10  36993011.175          41.280  
C24  23634037.963          35.231  
C26  21793118.113          45.733  
C29  24636355.071          33.904  
C31  22669101.467          43.647  
C35  21682343.539          47.348  
C39  24410888.881          37.182  
> 2026 05 10 00 07  0.0000000  0 12
C01  38469518.224          36.846  
C02  39634572.521          20.237  
C03  38546500.297          39.066  
C04  39492751.591          32.403  
C07  37560712.607          36.342  
C08  36155955.823          45.375  
C10  36999181.668          37.650  
C24  23620346.031          41.827  
C26  21794221.618          47.849  
C29  24652723.988          29.538  
C31  22656856.821          41.637  
C35  21685165.253          48.102  
> 2026 05 10 00 07 30.0000000  0 10
C01  38467888.932          35.312  
C02  39634799.303          15.829  
C03  38545668.028          36.880  
C04  39490767.825          33.458  
C08  36155836.444          38.768  
C10  37005387.622          41.143  
C26  21795415.641          47.492  
C29  24669122.211          30.919  
C35  21688067.884          44.100  
C39  24444080.541          28.561  
> 2026 05 10 00 08  0.0000000  0 11
C01  38466290.429          36.135  
C03  38544863.290          32.858  
C04  39488813.940          34.533  
C08  36155754.355          41.947  
C10  37011651.114          42.812  
C24  23593156.561          38.949  
C26  21796729.418          45.180  
C29  24685576.876          31.622  
C31  22632591.420          39.367  
C35  21691076.334          43.373  
C39  24460775.351          27.982  
> 2026 05 10 00 08 30.0000000  0 12
C01  38464653.873          32.888  
C03  38544017.582          36.537  
C04  39486825.689          27.389  
C07  37585743.050          39.759  
C08  36155641.874          41.314  
C10  37017903.996          38.324  
C24  23579618.187          40.729  
C26  21798094.159          44.715  
C29  24702003.660          33.570  
C31  22620525.619          43.438  
C35  21694117.601          42.301  
C39  24477477.654          36.056  
> 2026 05 10 00 09  0.0000000  0 12
C01  38462994.947          34.364  
C02  39635458.013          11.611  
C03  38543142.090          32.679  
C04  39484807.741          31.446  
C07  37594092.551          37.002  
C08  36155511.963          44.275  
C24  23566100.328          36.578  
C26  21799518.944          43.217  
C29  24718424.534          33.786  
C31  22608494.901          39.328  
C35  21697207.453          42.370  
C39  24494196.269          31.100  
> 2026 05 10 00 09 30.0000000  0 11
C01  38461400.324          34.368  
C02  39635702.763          13.093  
C03  38542332.267          33.528  
C04  39482843.976          23.207  
C07  37602527.605          33.364  
C08  36155454.390          42.830  
C24  23552700.101          38.954  
C29  24734921.993          27.761  
C31  22596589.133          38.831  
C35  21700435.350          43.032  
C39  24511019.040          36.740  
> 2026 05 10 00 10  0.0000000  0 12
C01  38459761.946          37.197  
C02  39635899.924          14.043  
C03  38541479.744          34.034  
C04  39480855.332          24.343  
C08  36155363.310          42.219  
C10  37036841.853          41.169  
C24  23539309.314          38.756  
C26  21802720.564          43.625  
C29  24751399.349          27.253  
C31  22584702.357          42.393  
C35  21703695.023          46.066  
C39  24527855.159          27.887  
> 2026 05 10 00 10 30.0000000  0 11
C01  38458127.039          34.077  
C03  38540621.682          35.741  
C04  39478855.339          20.364  
C08  36155280.332          47.645  
C10  37043205.413          38.265  
C24  23525975.086          40.092  
C26  21804435.017          45.352  
C29  24767905.757          31.118  
C31  22572878.180          41.612  
C35  21707030.535          46.044  
C39  24544727.422          29.191  
> 2026 05 10 00 11  0.0000000  0 10
C01  38456466.464          33.830  
C02  39636264.085          22.211  
C03  38539737.138          31.970  
C04  39476836.467          19.645  
C07  37627825.368          38.081  
C24  23512663.529          36.843  
C29  24784393.398          27.997  
C31  22561087.864          43.877  
C35  21710407.557          43.486  
C39  24561616.956          29.713  
> 2026 05 10 00 11 30.0000000  0 12
C01  38454854.663          32.787  
C02  39636477.607          21.612  
C03  38538897.612          34.371  
C04  39474860.575          10.272  
C07  37636336.199          39.363  
C08  36155134.936          47.349  
C10  37056012.699          40.894  
C24  23499455.722          41.194  
C26  21808123.540          46.949  
C29  24800949.638          27.974  
C31  22549408.270          40.852  
C35  21713913.701          48.896  
> 2026 05 10 00 12  0.0000000  0  9
C01  38453216.126          33.807  
C03  38538029.233          37.396  
C04  39472867.213          12.977  
C07  37644841.396          34.959  
C10  37062454.222          42.420  
C24  23486271.277          33.964  
C26  21810097.112          47.160  
C35  21717456.814          44.304  
C39  24595593.673          34.478  
> 2026 05 10 00 12 30.0000000  0 10
C01  38451564.912          36.322  
C03  38537146.652          33.475  
C04  39470855.595          10.000  
C07  37653356.823          40.603  
C08  36155000.957          43.708  
C10  37068910.880          39.068  
C24  23473132.984          39.407  
C26  21812149.466          49.712  
C31  22526167.156          37.675  
C35  21721064.442          45.983  
> 2026 05 10 00 13  0.0000000  0 12
C01  38449913.898          33.270  
C02  39636989.313          26.945  
C03  38536259.277          32.610  
C04  39468847.072          13.316  
C07  37661892.348          40.224  
C08  36154933.563          40.886  
C10  37075390.080          39.445  
C24  23460044.179          39.498  
C29  24850606.040          29.962  
C31  22514627.882          40.896  
C35  21724740.899          39.898  
C39  24629679.810          38.851  
> 2026 05 10 00 13 30.0000000  0 11
C01  38448249.129          37.216  
C02  39637140.051          31.002  
C03  38535357.770          38.016  
C04  39466827.316          15.540  
C07  37670439.508          36.473  
C08  36154865.535          44.287  
C24  23446995.503          37.952  
C26  21816496.510          42.541  
C29  24867169.658          27.844  
C31  22503139.313          40.518  
C39  24646768.274          32.799  
> 2026 05 10 00 14  0.0000000  0 12
C01  38446618.189          36.305  
C02  39637321.519          27.671  
C03  38534482.467          37.754  
C04  39464843.028          19.304  
C07  37679037.929          41.325  
C08  36154833.020          42.913  
C10  37088446.117          38.255  
C24  23434032.556          42.452  
C26  21818828.635          43.512  
C31  22491741.902          41.890  
C35  21732311.691          46.329  
C39  24663936.652          32.108  
> 2026 05 10 00 14 30.0000000  0 12
C01  38444959.545          34.257  
C02  39637482.530          20.415  
C03  38533580.386          36.372  
C07  37687635.367          35.760  
C08  36154781.737          40.832  
C10  37095005.880          38.127  
C24  23421101.733          35.697  
C26  21821224.692          46.882  
C29  24900384.486          30.567  
C31  22480378.767          41.551  
C35  21736194.619          44.853  
C39  24681115.077          21.357  
> 2026 05 10 00 15  0.0000000  0  9
C01  38443301.802          36.002  
C02  39637618.836          25.857  
C07  37696252.767          37.091  
C08  36154738.734          44.598  
C10  37101588.020          36.940  
C24  23408222.936          38.503  
C26  21823704.848          43.404  
C31  22469079.674          38.949  
C35  21740146.453          40.585  
> 2026 05 10 00 15 30.0000000  0  9
C01  38441656.172          33.776  
C02  39637762.053          27.005  
C04  39458817.133          22.372  
C10  37108213.376          38.734  
C24  23395415.131          37.863  
C26  21826288.076          44.670  
C29  24933639.102          23.052  
C31  22457854.662          37.681  
C35  21744179.992          44.240  
> 2026 05 10 00 16  0.0000000  0 11
C01  38440014.400          34.063  
C02  39637916.715          33.003  
C03  38530885.517          32.762  
C04  39456815.844          19.942  
C07  37713581.470          37.143  
C08  36154697.294          43.220  
C10  37114865.619          43.099  
C26  21828963.971          47.580  
C29  24950303.364          31.121  
C31  22446691.791          43.280  
C35  21748288.338          43.047  
> 2026 05 10 00 16 30.0000000  0 13
C01  38438346.546          35.184  
C02  39638045.614          27.766  
C03  38529961.860          35.668  
C04  39454804.687          25.925  
C07  37722256.055          38.708  
C08  36154664.433          43.193  
C10  37121522.177          33.831  
C24  23369943.269          35.622  
C26  21831703.184          47.401  
C29  24966946.346          21.382  
C31  22435565.795          41.978  
C35  21752440.971          44.839  
C39  24750259.608          26.510  
> 2026 05 10 00 17  0.0000000  0 13
C01  38436671.404          37.583  
C02  39638157.864          31.954  
C03  38529025.892          35.904  
C04  39452765.072          27.532  
C07  37730941.003          41.887  
C08  36154625.718          44.487  
C10  37128197.344          40.024  
C24  23357271.653          42.231  
C26  21834518.000          44.423  
C29  24983591.906          16.175  
C31  22424492.015          41.491  
C35  21756652.956          42.174  
C39  24767616.279          25.426  
> 2026 05 10 00 17 30.0000000  0 12
C01  38434990.503          37.308  
C02  39638263.464          28.551  
C03  38528084.101          35.204  
C07  37739645.154          38.412  
C08  36154592.585          43.386  
C10  37134895.180          40.953  
C24  23344653.586          39.755  
C26  21837421.508          44.867  
C29  25000251.106          12.711  
C31  22413476.157          36.926  
C35  21760933.131          43.351  
C39  24785016.002          25.935  
> 2026 05 10 00 18  0.0000000  0 10
C02  39638383.202          25.534  
C03  38527154.112          36.549  
C04  39448697.391          16.340  
C07  37748385.021          38.991  
C08  36154577.904          48.263  
C24  23332106.457          40.150  
C26  21840426.490          47.444  
C29  25016957.099          29.849  
C31  22402537.308          41.248  
C39  24802464.642          21.670  
> 2026 05 10 00 18 30.0000000  0  9
C01  38431661.917          36.292  
C03  38526222.674          34.780  
C04  39446668.755          18.246  
C08  36154570.412          47.031  
C10  37148399.460          41.497  
C24  23319616.127          38.404  
C26  21843521.505          45.014  
C35  21769725.209          46.115  
C39  24819948.131          22.273  
> 2026 05 10 00 19  0.0000000  0 10
C02  39638600.401          23.823  
C03  38525283.043          34.012  
C04  39444636.739          10.344  
C07  37765923.385          37.962  
C08  36154563.628          44.768  
C10  37155186.055          42.069  
C26  21846696.935          42.609  
C29  25050370.920          30.550  
C31  22380837.542          38.564  
C35  21774217.433          46.107  
> 2026 05 10 00 19 30.0000000  0 12
C01  38428313.120          37.900  
C02  39638690.448          26.700  
C03  38524331.018          33.252  
C04  39442605.991          12.563  
C07  37774714.932          34.268  
C08  36154555.042          42.316  
C10  37161990.263          45.558  
C24  23294791.228          38.393  
C26  21849954.564          44.164  
C29  25067083.473          30.181  
C35  21778773.292          44.847  
C39  24855025.636          25.204  
> 2026 05 10 00 20  0.0000000  0  8
C02  39638788.011          19.606  
C03  38523379.511          35.928  
C04  39440561.590          10.000  
C10  37168825.590          41.776  
C24  23282467.980          39.876  
C26  21853302.111          48.442  
C31  22359368.531          36.963  
C35  21783397.956          45.139  
> 2026 05 10 00 20 30.0000000  0  9
C01  38424973.405          33.951  
C02  39638884.288          24.039  
C04  39438542.287          10.000  
C07  37792373.877          37.051  
C08  36154567.863          42.845  
C24  23270210.566          41.111  
C26  21856750.582          45.502  
C35  21788099.153          43.314  
C39  24890254.072          25.829  
> 2026 05 10 00 21  0.0000000  0 11
C01  38423295.854          34.803  
C02  39638965.050          25.245  
C04  39436502.854          10.000  
C07  37801228.307          39.310  
C08  36154575.025          45.026  
C10  37182581.783          39.734  
C24  23258001.342          38.140  
C26  21860274.296          42.607  
C29  25117308.246          29.537  
C31  22338155.585          42.896  
C39  24907920.771          28.611  
> 2026 05 10 00 21 30.0000000  0 10
C01  38421613.342          36.504  
C03  38520505.556          34.388  
C04  39434467.013          10.000  
C08  36154585.851          43.330  
C10  37189488.340          35.869  
C24  23245843.368          37.404  
C26  21863880.293          43.469  
C29  25134063.836          29.005  
C31  22327633.768          44.584  
C39  24925614.123          23.968  
> 2026 05 10 00 22  0.0000000  0 10
C01  38419921.238          39.588  
C02  39639103.162          22.494  
C03  38519524.922          36.397  
C08  36154589.334          41.474  
C10  37196413.028          42.529  
C24  23233740.404          38.257  
C26  21867567.144          42.627  
C29  25150813.392          26.893  
C35  21802552.289          44.748  
C39  24943331.630          22.191  
> 2026 05 10 00 22 30.0000000  0 11
C01  38418245.224          32.842  
C02  39639169.476          25.889  
C03  38518558.282          32.484  
C04  39430381.359          10.000  
C07  37827896.837          35.202  
C08  36154617.893          42.072  
C26  21871355.517          44.335  
C29  25167588.972          22.927  
C31  22306766.062          40.094  
C35  21807511.976          43.963  
C39  24961105.301          22.765  
> 2026 05 10 00 23  0.0000000  0 10
C01  38416553.094          32.127  
C02  39639219.869          26.986  
C03  38517569.955          36.369  
C04  39428330.676          10.000  
C07  37836815.120          35.942  
C26  21875218.003          42.613  
C29  25184364.559          27.098  
C31  22296416.724          40.554  
C35  21812519.204          45.271  
C39  24978897.828          22.691  
> 2026 05 10 00 23 30.0000000  0 11
C01  38414846.008          40.008  
C02  39639252.127          26.232  
C03  38516564.700          35.586  
C04  39426276.646          13.565  
C07  37845746.631          36.940  
C08  36154633.649          42.159  
C24  23197789.204          37.198  
C26  21879152.298          46.243  
C29  25201132.492          22.941  
C35  21817578.650          46.477  
C39  24996712.814          25.146  
> 2026 05 10 00 24  0.0000000  0 11
C01  38413168.360          35.724  
C02  39639317.817          24.341  
C03  38515588.937          38.766  
C04  39424240.797          14.366  
C08  36154677.655          43.262  
C24  23185940.854          36.062  
C26  21883206.755          43.975  
C29  25217941.823          23.961  
C31  22275908.739          40.283  
C35  21822736.476          45.140  
C39  25014594.700          28.469  
> 2026 05 10 00 24 30.0000000  0 11
C01  38411472.577          34.703  
C02  39639358.136          21.429  
C03  38514590.164          33.473  
C04  39422185.912          16.058  
C08  36154704.089          44.461  
C10  37231435.813          40.045  
C24  23174136.441          37.676  
C26  21887332.517          47.534  
C29  25234742.505          27.083  
C35  21827937.701          46.065  
C39  25032482.017          23.454  
> 2026 05 10 00 25  0.0000000  0 11
C01  38409790.991          33.215  
C02  39639409.368          15.530  
C03  38513601.253          36.834  
C07  37872714.030          37.710  
C08  36154749.042          43.788  
C24  23162406.210          38.542  
C26  21891557.001          46.351  
C29  25251559.171          24.240  
C31  22255652.624          44.228  
C35  21833218.242          44.632  
C39  25050434.234          30.292  
> 2026 05 10 00 25 30.0000000  0 13
C01  38408064.189          37.310  
C02  39639405.367          17.044  
C03  38512565.054          39.984  
C04  39418062.889          12.947  
C07  37881703.393          36.267  
C08  36154755.721          44.104  
C10  37245596.131          40.478  
C24  23150696.341          39.638  
C26  21895828.443          43.653  
C29  25268347.778          20.684  
C31  22245583.697          45.904  
C35  21838520.295          42.771  
C39  25068373.228          32.582  
> 2026 05 10 00 26  0.0000000  0  9
C01  38406411.457          35.404  
C03  38511599.354          34.637  
C07  37890788.313          36.464  
C10  37252770.994          38.720  
C24  23139125.456          40.601  
C26  21900259.395          46.403  
C29  25285223.738          31.020  
C31  22235648.445          41.118  
C35  21843962.369          41.380  
> 2026 05 10 00 26 30.0000000  0 12
C01  38404684.532          35.325  
C02  39639469.583          18.563  
C03  38510556.992          37.634  
C04  39413968.613          16.220  
C07  37899817.129          36.758  
C08  36154854.160          41.709  
C10  37259893.455          38.340  
C24  23127538.895          37.842  
C26  21904705.420          47.597  
C31  22225702.452          42.761  
C35  21849392.417          44.822  
C39  25104410.093          32.767  
> 2026 05 10 00 27  0.0000000  0 11
C01  38402967.502          36.732  
C03  38509521.412          36.181  
C04  39411890.839          16.359  
C07  37908876.037          34.688  
C08  36154884.654          39.836  
C10  37267052.116          42.297  
C24  23116025.004          40.517  
C26  21909249.252          46.232  
C29  25318856.421          17.643  
C31  22215826.587          44.270  
C39  25122452.467          30.975  
> 2026 05 10 00 27 30.0000000  0 12
C01  38401281.910          33.539  
C02  39639488.479          17.893  
C03  38508515.214          34.040  
C04  39409848.081          16.014  
C07  37917984.325          38.582  
C08  36154951.760          45.685  
C10  37274267.322          39.487  
C24  23104610.457          42.484  
C26  21913914.784          44.306  
C29  25335725.757          10.000  
C31  22206047.719          42.996  
C35  21860495.918          45.806  
> 2026 05 10 00 28  0.0000000  0 12
C01  38399578.830          39.553  
C02  39639492.595          22.425  
C03  38507488.321          34.373  
C04  39407787.489          12.376  
C07  37927098.393          37.757  
C08  36155005.063          48.389  
C10  37281496.534          39.735  
C24  23093240.808          34.682  
C26  21918651.594          45.262  
C29  25352574.349          10.807  
C31  22196312.942          38.883  
C35  21866144.798          43.851  
> 2026 05 10 00 28 30.0000000  0  9
C01  38397854.109          35.301  
C03  38506433.912          37.281  
C04  39405707.901          18.960  
C07  37936206.147          35.202  
C08  36155040.322          44.305  
C24  23081912.299          38.961  
C26  21923453.257          43.779  
C29  25369399.856          20.028  
C31  22186617.459          42.011  
> 2026 05 10 00 29  0.0000000  0 11
C01  38396151.918          35.823  
C02  39639471.115          16.231  
C03  38505404.430          35.661  
C04  39403649.608          18.161  
C07  37945360.047          35.842  
C08  36155102.485          45.406  
C10  37296000.257          42.083  
C24  23070674.831          42.259  
C26  21928366.902          42.210  
C31  22177009.841          45.884  
C39  25195007.677          34.090  
> 2026 05 10 00 29 30.0000000  0  8
C02  39639448.569          25.194  
C03  38504365.237          33.502  
C04  39401578.138          14.053  
C08  36155167.246          41.821  
C10  37303299.475          39.107  
C31  22167459.928          41.439  
C35  21883439.277          45.464  
C39  25213226.694          32.802  
> 2026 05 10 00 30  0.0000000  0  9
C01  38392722.492          33.682  
C02  39639412.957          29.394  
C03  38503304.337          36.793  
C04  39399499.872          14.684  
C08  36155215.318          45.324  
C10  37310606.964          38.007  
C24  23048362.099          37.113  
C26  21938429.210          44.098  
C35  21889314.753          45.625  
> 2026 05 10 00 30 30.0000000  0 11
C01  38567205.544          34.710  
C02  39616304.587          28.834  
C03  38593375.809          36.950  
C04  39609107.548          14.994  
C07  37972892.551          38.941  
C08  36155277.295          43.825  
C10  37317941.889          37.405  
C24  23037303.143          41.894  
C31  22148516.615          38.018  
C35  21895259.977          44.855  
C39  25249728.114          29.633  
> 2026 05 10 00 31  0.0000000  0 12
C01  38565807.581          35.047  
C02  39616824.105          28.714  
C03  38592830.055          36.835  
C04  39607210.167          18.893  
C07  37982117.871          37.500  
C08  36155352.011          45.705  
C10  37325320.016          40.858  
C24  23026323.908          39.949  
C26  21948852.714          42.339  
C31  22139155.120          40.904  
C35  21901278.820          46.644  
C39  25268041.766          22.598  
> 2026 05 10 00 31 30.0000000  0  9
C01  38564391.999          35.014  
C02  39617315.993          26.420  
C04  39605302.622          21.246  
C07  37991345.614          37.694  
C10  37332703.072          40.303  
C24  23015390.472          38.410  
C26  21954185.997          44.430  
C31  22129839.381          40.145  
C39  25286384.019          15.692  
> 2026 05 10 00 32  0.0000000  0  9
C01  38562950.510          34.033  
C02  39617778.249          25.265  
C04  39603367.546          32.693  
C07  38000566.127          35.403  
C10  37340085.861          39.029  
C24  23004500.224          40.073  
C26  21959580.135          43.719  
C35  21913445.256          42.632  
C39  25304706.673          13.898  
> 2026 05 10 00 32 30.0000000  0  8
C03  38591113.816          35.219  
C04  39601482.773          30.383  
C07  38009859.510          36.688  
C10  37347546.232          43.208  
C24  22993730.710          37.621  
C26  21965116.678          47.590  
C35  21919661.558          43.735  
C39  25323111.409          23.017  
> 2026 05 10 00 33  0.0000000  0  9
C01  38560125.135          34.106  
C02  39618742.507          31.790  
C04  39599552.274          27.922  
C07  38019131.388          36.735  
C10  37354989.109          35.888  
C24  22982983.675          38.341  
C26  21970696.499          44.355  
C31  22102250.943          40.093  
C35  21925891.312          41.400  
> 2026 05 10 00 33 30.0000000  0 11
C01  38558688.480          30.200  
C02  39619201.511          25.093  
C03  38589917.347          30.375  
C04  39597623.838          20.429  
C07  38028418.352          36.655  
C10  37362457.830          38.159  
C24  22972307.134          38.638  
C26  21976364.260          44.911  
C31  22093171.743          44.271  
C35  21932184.569          42.824  
C39  25359926.421          30.535  
> 2026 05 10 00 34  0.0000000  0 11
C01  38557272.187          34.704  
C02  39619686.516          32.079  
C03  38589333.620          39.398  
C04  39595689.971          27.503  
C07  38037747.213          37.016  
C10  37369973.481          40.652  
C24  22961717.811          39.272  
C26  21982141.463          44.323  
C31  22084173.279          47.611  
C35  21938559.424          41.362  
C39  25378402.263          28.661  
> 2026 05 10 00 34 30.0000000  0  9
C01  38555834.451          34.695  
C03  38588728.382          31.891  
C04  39593753.481          31.628  
C07  38047072.209          36.525  
C08  36155835.371          43.308  
C10  37377490.790          41.154  
C26  21987984.295          44.106  
C35  21944971.694          45.314  
C39  25396889.309          32.581  
> 2026 05 10 00 35  0.0000000  0 11
C01  38554400.609          33.740  
C02  39620589.384          30.631  
C03  38588122.033          33.946  
C04  39591816.469          28.740  
C07  38056420.563          36.037  
C08  36155913.288          40.191  
C10  37385039.700          40.392  
C26  21993919.034          41.811  
C31  22066329.834          45.104  
C35  21951449.265          42.699  
C39  25415404.681          28.852  
> 2026 05 10 00 35 30.0000000  0 11
C01  38552986.806          37.534  
C02  39621062.907          28.128  
C04  39589904.085          32.976  
C07  38065807.506          39.369  
C08  36156014.368          44.931  
C10  37392632.476          41.611  
C24  22930328.247          39.479  
C26  21999963.034          46.919  
C31  22057527.809          40.208  
C35  21958006.608          44.855  
C39  25433973.302          28.118  
> 2026 05 10 00 36  0.0000000  0 11
C01  38551528.521          34.210  
C02  39621474.875          17.921  
C03  38586899.691          35.508  
C04  39587946.478          28.197  
C07  38075174.164          38.797  
C08  36156081.567          44.021  
C10  37400211.729          41.799  
C24  22919979.751          38.581  
C26  22006053.120          42.474  
C31  22048748.697          40.512  
C39  25452519.613          18.813  
> 2026 05 10 00 36 30.0000000  0  8
C03  38586306.091          34.267  
C07  38084602.618          41.212  
C08  36156196.917          47.918  
C10  37407858.935          38.264  
C24  22909742.704          39.593  
C26  22012280.277          44.420  
C31  22040072.012          41.201  
C39  25471153.319          22.941  
> 2026 05 10 00 37  0.0000000  0 11
C01  38548653.305          35.613  
C02  39622356.850          20.878  
C03  38585661.140          38.586  
C04  39584067.966          29.204  
C07  38094001.445          35.358  
C08  36156263.306          43.699  
C10  37415483.003          40.001  
C24  22899529.011          43.180  
C31  22031410.877          42.448  
C35  21977956.437          42.320  
C39  25489758.431          24.897  
> 2026 05 10 00 37 30.0000000  0 12
C01  38547200.360          33.238  
C02  39622780.481          19.165  
C03  38585025.139          32.374  
C04  39582105.299          26.518  
C07  38103430.139          36.095  
C08  36156345.305          43.030  
C10  37423141.893          36.617  
C24  22889399.166          40.165  
C26  22024896.373          46.157  
C31  22022825.375          41.414  
C35  21984718.349          42.253  
C39  25508405.505          22.608  
> 2026 05 10 00 38  0.0000000  0 11
C01  38545745.098          36.823  
C02  39623182.578          10.000  
C03  38584379.492          35.054  
C04  39580147.914          24.632  
C07  38112872.067          37.644  
C08  36156428.637          47.638  
C10  37430820.998          36.554  
C24  22879335.657          39.027  
C26  22031341.818          43.777  
C35  21991533.150          43.697  
C39  25527062.398          12.377  
> 2026 05 10 00 38 30.0000000  0 11
C01  38544317.559          33.576  
C02  39623631.923          17.344  
C03  38583762.189          35.948  
C04  39578214.229          20.071  
C07  38122362.361          34.730  
C08  36156544.060          45.227  
C10  37438557.941          39.211  
C24  22869372.890          37.628  
C26  22037903.785          40.319  
C35  21998436.926          44.009  
C39  25545789.375          15.280  
> 2026 05 10 00 39  0.0000000  0 10
C02  39624041.975          19.042  
C03  38583110.139          33.412  
C04  39576252.079          23.245  
C07  38131838.460          35.264  
C08  36156632.407          43.289  
C10  37446284.741          35.803  
C24  22859450.807          39.380  
C26  22044517.531          43.372  
C31  21997465.917          41.460  
C35  22005365.164          41.695  
> 2026 05 10 00 39 30.0000000  0 12
C01  38541393.100          38.005  
C02  39624448.897          28.724  
C03  38582449.730          34.576  
C04  39574287.406          25.795  
C07  38141331.081          36.645  
C08  36156719.595          42.492  
C10  37454035.725          39.548  
C24  22849596.929          37.169  
C26  22051219.522          45.401  
C31  21989124.865          43.114  
C35  22012350.209          41.454  
C39  25583256.261          17.620  
> 2026 05 10 00 40  0.0000000  0 11
C01  38539911.267          35.925  
C02  39624828.347          27.889  
C03  38581771.729          33.196  
C04  39572307.642          33.666  
C08  36156793.470          45.862  
C10  37461794.725          37.473  
C24  22839801.386          37.770  
C26  22057988.800          45.845  
C31  21980829.282          43.514  
C35  22019375.675          44.378  
C39  25602012.520          23.487  
> 2026 05 10 00 40 30.0000000  0 10
C01  38538477.540          36.872  
C02  39625246.995          25.757  
C03  38581134.150          36.134  
C04  39570372.264          29.410  
C08  36156919.321          45.904  
C10  37469624.017          37.460  
C24  22830121.448          40.198  
C26  22064893.786          42.881  
C31  21972645.872          45.192  
C39  25620835.532          21.134  
> 2026 05 10 00 41  0.0000000  0 11
C01  38536974.238          35.173  
C02  39625598.381          24.654  
C03  38580431.846          35.465  
C04  39568373.456          25.662  
C07  38169894.147          37.537  
C08  36156980.964          45.936  
C24  22820450.456          41.715  
C26  22071821.878          43.089  
C31  21964459.942          39.481  
C35  22033627.611          44.230  
C39  25639618.124          18.868  
> 2026 05 10 00 41 30.0000000  0  9
C01  38535532.127          34.677  
C02  39626022.142          23.346  
C03  38579783.059          36.171  
C04  39566425.228          27.964  
C08  36157108.418          44.485  
C10  37485287.838          39.728  
C24  22810917.314          41.341  
C35  22040865.955          43.795  
C39  25658487.364          19.975  
> 2026 05 10 00 42  0.0000000  0  8
C01  38534069.812          34.108  
C02  39626404.261          26.359  
C03  38579108.215          33.599  
C04  39564451.986          32.274  
C07  38189067.515          35.531  
C08  36157214.769          45.710  
C26  22086032.847          43.536  
C35  22048139.009          43.770  
> 2026 05 10 00 42 30.0000000  0 10
C01  38532584.990          34.218  
C02  39626765.790          25.793  
C04  39562465.971          28.562  
C07  38198649.062          36.520  
C08  36157304.400          43.846  
C10  37501045.813          37.984  
C24  22792001.640          41.831  
C26  22093239.285          47.677  
C31  21940399.465          42.403  
C39  25696233.649          16.927  
> 2026 05 10 00 43  0.0000000  0  9
C01  38531109.487          35.919  
C02  39627124.341          27.324  
C03  38577724.633          35.937  
C04  39560493.692          26.535  
C07  38208261.480          35.356  
C08  36157408.947          44.988  
C10  37508960.599          35.667  
C31  21932495.660          43.651  
C35  22062820.711          42.343  
> 2026 05 10 00 43 30.0000000  0 10
C01  38529618.583          34.389  
C02  39627474.506          31.428  
C03  38577017.932          36.233  
C04  39558503.483          25.136  
C07  38217874.985          33.076  
C08  36157496.934          44.015  
C24  22773370.696          42.689  
C26  22107912.524          45.069  
C35  22070238.378          41.870  
C39  25734071.912          20.771  
> 2026 05 10 00 44  0.0000000  0  7
C03  38576320.570          40.636  
C07  38227519.129          34.459  
C08  36157608.599          44.826  
C10  37524847.775          39.181  
C31  21916864.480          41.452  
C35  22077723.112          40.509  
C39  25753025.762          16.442  
> 2026 05 10 00 44 30.0000000  0 10
C01  38526669.139          32.955  
C02  39628191.121          31.314  
C03  38575627.739          36.186  
C04  39554539.034          25.534  
C08  36157724.749          43.265  
C10  37532840.191          39.546  
C24  22755057.551          43.495  
C26  22122951.967          43.612  
C31  21909152.563          39.662  
C39  25772016.897          25.226  
> 2026 05 10 00 45  0.0000000  0 12
C01  38525196.897          35.570  
C02  39628548.610          28.227  
C03  38574931.754          34.622  
C04  39552566.839          22.592  
C07  38246873.603          38.776  
C08  36157846.117          43.871  
C10  37540862.023          37.248  
C24  22746023.157          36.846  
C26  22130604.675          43.526  
C31  21901510.418          46.049  
C35  22092871.793          39.514  
C39  25791024.918          17.586  
> 2026 05 10 00 45 30.0000000  0 11
C01  38523675.945          34.603  
C02  39628854.662          29.759  
C03  38574182.679          30.192  
C04  39550541.332          25.555  
C07  38256525.012          38.936  
C08  36157919.771          45.597  
C24  22737012.047          44.023  
C26  22138294.262          41.852  
C31  21893879.160          45.242  
C35  22100479.103          41.163  
C39  25810024.127          23.160  
> 2026 05 10 00 46  0.0000000  0 10
C01  38522183.751          38.681  
C02  39629187.590          33.753  
C03  38573461.615          34.853  
C04  39548537.196          27.947  
C07  38266226.197          36.112  
C08  36158027.036          45.304  
C10  37556899.902          38.094  
C24  22728105.982          38.546  
C26  22146100.610          42.049  
C31  21886342.268          40.595  
> 2026 05 10 00 46 30.0000000  0 11
C01  38520700.152          32.822  
C02  39629525.306          31.027  
C03  38572743.365          33.092  
C04  39546547.816          32.166  
C07  38275955.676          33.950  
C08  36158143.436          43.261  
C10  37564981.533          41.685  
C24  22719287.824          39.889  
C26  22153998.445          40.622  
C31  21878874.159          42.025  
C35  22115922.295          42.870  
> 2026 05 10 00 47  0.0000000  0 11
C01  38519197.701          36.814  
C02  39629840.693          28.336  
C03  38572005.903          37.436  
C04  39544545.570          32.276  
C07  38285680.264          34.393  
C08  36158248.502          42.327  
C10  37573068.318          41.045  
C24  22710527.249          40.826  
C26  22161966.272          46.830  
C31  21871456.640          46.378  
C35  22123715.194          42.710  
> 2026 05 10 00 47 30.0000000  0 10
C01  38517707.859          37.463  
C02  39630161.945          27.388  
C03  38571278.688          31.006  
C04  39542546.602          32.639  
C07  38295436.325          33.961  
C08  36158364.584          41.655  
C10  37581191.084          35.808  
C24  22701858.416          42.854  
C31  21864112.364          42.529  
C35  22131572.616          41.859  
> 2026 05 10 00 48  0.0000000  0  9
C01  38516198.001          34.949  
C02  39630468.928          25.388  
C07  38305188.673          37.518  
C08  36158466.428          46.972  
C10  37589317.024          36.256  
C24  22693246.148          38.439  
C26  22178165.424          42.374  
C31  21856813.249          42.824  
C35  22139461.353          44.418  
> 2026 05 10 00 48 30.0000000  0 10
C01  38514680.230          32.716  
C02  39630763.854          27.520  
C04  39538513.694          28.512  
C07  38314950.866          32.938  
C08  36158562.909          43.084  
C10  37597461.330          36.758  
C24  22684706.185          41.243  
C26  22186373.672          43.712  
C31  21849571.885          41.301  
C35  22147399.261          40.789  
> 2026 05 10 00 49  0.0000000  0 10
C01  38513182.610          34.616  
C02  39631076.809          23.667  
C03  38569026.504          35.459  
C04  39536514.025          21.623  
C07  38324751.428          37.371  
C08  36158682.821          43.516  
C10  37605651.105          35.452  
C24  22676265.834          38.950  
C26  22194690.992          40.437  
C31  21842411.906          48.401  
> 2026 05 10 00 49 30.0000000  0  7
C02  39631363.879          24.873  
C04  39534506.542          21.856  
C07  38334553.223          32.736  
C08  36158792.944          43.114  
C10  37613849.869          37.385  
C31  21835303.423          40.169  
C35  22163456.395          40.132  
> 2026 05 10 00 50  0.0000000  0 11
C01  38510126.093          36.822  
C02  39631615.136          22.798  
C03  38567465.326          35.826  
C04  39532450.256          24.782  
C07  38344338.257          34.365  
C08  36158869.307          41.908  
C10  37622037.184          38.326  
C24  22659557.577          41.431  
C26  22211515.410          45.379  
C31  21828219.941          44.043  
C35  22171520.931          43.705  
> 2026 05 10 00 50 30.0000000  0  9
C01  38508623.101          33.723  
C02  39631917.349          17.133  
C03  38566709.373          38.405  
C04  39530437.482          31.340  
C07  38354183.663          40.866  
C08  36158990.392          45.171  
C10  37630293.288          37.729  
C24  22651349.721          39.517  
C26  22220080.370          42.881  
> 2026 05 10 00 51  0.0000000  0 11
C01  38507133.005          33.806  
C02  39632213.773          21.261  
C03  38565960.411          35.300  
C04  39528430.919          26.389  
C07  38364056.210          35.163  
C08  36159125.805          41.932  
C10  37638583.044          39.747  
C24  22643231.972          42.469  
C26  22228742.181          42.372  
C31  21814346.486          42.614  
C35  22187910.747          45.889  
> 2026 05 10 00 51 30.0000000  0 11
C01  38505590.600          37.993  
C02  39632465.175          18.298  
C03  38565159.023          31.998  
C04  39526379.581          23.032  
C07  38373894.405          33.694  
C08  36159214.490          42.768  
C10  37646846.911          36.825  
C24  22635145.527          42.108  
C26  22237437.434          44.040  
C31  21807462.171          38.004  
C35  22196136.198          41.977  
> 2026 05 10 00 52  0.0000000  0  7
C01  38504068.555          35.649  
C03  38564373.595          33.445  
C04  39524351.472          25.496  
C07  38383771.937          36.486  
C10  37655152.959          35.605  
C31  21800661.395          44.203  
C35  22204437.019          42.137  
> 2026 05 10 00 52 30.0000000  0 11
C01  38502534.534          35.468  
C02  39632972.685          20.602  
C03  38563573.498          35.261  
C04  39522307.854          22.346  
C07  38393648.688          36.521  
C08  36159425.261          48.373  
C10  37663470.143          38.592  
C24  22619238.161          44.569  
C26  22255110.801          42.535  
C31  21793906.272          41.197  
C35  22212770.560          42.473  
> 2026 05 10 00 53  0.0000000  0  9
C01  38501001.883          34.723  
C02  39633212.426          33.249  
C04  39520282.052          29.449  
C07  38403549.878          37.255  
C08  36159530.798          45.336  
C24  22611403.069          42.422  
C26  22264069.833          43.235  
C31  21787222.652          44.000  
C35  22221161.622          40.574  
> 2026 05 10 00 53 30.0000000  0 11
C01  38499453.995          33.399  
C02  39633439.289          32.806  
C03  38561956.980          34.552  
C04  39518222.023          26.285  
C07  38413447.356          35.253  
C08  36159623.347          42.848  
C10  37680171.443          37.233  
C24  22603632.632          40.007  
C26  22273100.137          43.010  
C31  21780586.592          42.825  
C35  22229588.705          44.090  
> 2026 05 10 00 54  0.0000000  0  9
C01  38497948.557          38.233  
C02  39633711.482          26.812  
C03  38561176.910          31.748  
C04  39516208.485          28.090  
C07  38423402.161          34.870  
C24  22595986.701          44.868  
C26  22282251.330          39.950  
C31  21774051.754          41.685  
C35  22238105.433          41.299  
> 2026 05 10 00 54 30.0000000  0  8
C01  38496395.694          36.771  
C03  38560346.451          36.407  
C04  39514150.545          30.016  
C07  38433328.431          37.364  
C08  36159848.464          43.966  
C10  37696980.195          35.344  
C24  22588375.994          40.733  
C35  22246624.135          41.804  
> 2026 05 10 00 55  0.0000000  0 10
C01  38494857.317          36.916  
C02  39634143.537          26.871  
C04  39512114.649          31.713  
C07  38443287.441          37.623  
C08  36159956.750          44.877  
C10  37705416.055          37.327  
C24  22580862.821          41.122  
C26  22300730.740          40.932  
C31  21761099.279          43.354  
C35  22255212.411          41.749  
> 2026 05 10 00 55 30.0000000  0 11
C01  38493345.360          36.979  
C02  39634402.714          30.637  
C03  38558737.495          34.069  
C04  39510095.202          26.187  
C07  38453283.563          29.835  
C08  36160094.576          45.478  
C10  37713896.138          38.390  
C24  22573458.116          40.563  
C26  22310128.003          38.074  
C31  21754749.984          41.291  
C35  22263873.361          39.000  
> 2026 05 10 00 56  0.0000000  0  9
C01  38491786.171          37.814  
C02  39634597.460          23.311  
C03  38557893.531          35.990  
C04  39508022.888          28.566  
C07  38463246.096          32.093  
C08  36160183.390          44.630  
C10  37722351.727          34.062  
C26  22319560.877          40.856  
C35  22272535.045          43.870  
> 2026 05 10 00 56 30.0000000  0  9
C01  38490242.255          36.902  
C03  38557062.261          36.352  
C04  39505968.813          24.613  
C08  36160293.246          43.307  
C10  37730849.575          36.876  
C24  22558816.070          45.358  
C26  22329092.549          42.231  
C31  21742162.220          41.825  
C35  22281261.590          42.259  
> 2026 05 10 00 57  0.0000000  0 10
C01  38488673.317          33.150  
C02  39634996.369          22.783  
C03  38556204.154          34.473  
C04  39503902.405          32.072  
C07  38483232.016          29.418  
C08  36160377.828          44.437  
C24  22551606.125          38.126  
C26  22338683.811          41.019  
C31  21735946.317          43.798  
C35  22290014.170          40.317  
> 2026 05 10 00 57 30.0000000  0  9
C01  38487123.815          37.072  
C02  39635210.826          25.747  
C03  38555363.290          35.978  
C04  39501850.035          30.485  
C07  38493256.534          33.643  
C10  37747880.672          37.533  
C24  22544496.054          42.310  
C26  22348377.250          41.501  
C31  21729816.202          44.898  
> 2026 05 10 00 58  0.0000000  0 10
C01  38485580.018          35.476  
C02  39635420.242          23.883  
C03  38554524.741          37.014  
C07  38503305.987          38.509  
C08  36160600.023          43.038  
C10  37756446.428          39.775  
C24  22537479.436          40.511  
C26  22358157.719          38.266  
C31  21723751.325          44.651  
C35  22307708.501          40.338  
> 2026 05 10 00 58 30.0000000  0 10
C01  38484031.777          34.135  
C02  39635612.332          21.496  
C03  38553673.214          34.695  
C04  39497745.588          29.513  
C07  38513349.479          28.058  
C08  36160709.324          42.343  
C10  37765028.696          37.641  
C24  22530533.974          43.512  
C31  21717740.376          44.246  
C35  22316623.010          39.378  
> 2026 05 10 00 59  0.0000000  0  8
C01  38482454.990          35.083  
C02  39635771.151          23.108  
C04  39495661.417          28.295  
C07  38523383.464          22.350  
C08  36160790.594          43.688  
C26  22377921.711          44.301  
C31  21711767.836          46.561  
C35  22325555.114          41.105  
> 2026 05 10 00 59 30.0000000  0  9
C02  39635946.338          31.859  
C03  38551934.478          35.564  
C04  39493586.673          25.264  
C07  38533457.960          21.101  
C08  36160895.068          42.074  
C24  22516865.865          41.463  
C26  22387932.811          41.525  
C31  21705874.725          45.955  
C35  22334557.497          42.372  
> 2026 05 10 01 00  0.0000000  0  9
C01  38479364.959          34.195  
C02  39636149.528          27.345  
C03  38551092.385          31.728  
C04  39491551.606          23.264  
C10  37790887.804          37.604  
C24  22510194.458          41.346  
C26  22398049.814          41.161  
C31  21700073.480          45.054  
C35  22343630.349          40.051  
> 2026 05 10 01 00 30.0000000  0 10
C01  38477779.719          35.605  
C02  39636300.450          22.054  
C03  38550201.553          31.999  
C07  38553653.518          24.952  
C08  36161109.932          42.331  
C10  37799524.866          37.976  
C24  22503560.177          41.058  
C26  22408199.634          41.822  
C31  21694284.091          44.289  
C35  22352700.350          38.498  
> 2026 05 10 01 01  0.0000000  0  7
C02  39636437.714          31.231  
C03  38549301.280          36.520  
C07  38563741.450          22.475  
C08  36161187.252          46.702  
C10  37808182.267          39.834  
C31  21688551.265          44.343  
C35  22361813.648          39.993  
> 2026 05 10 01 01 30.0000000  0  8
C01  38474612.873          34.939  
C02  39636581.412          31.212  
C04  39485285.772          28.717  
C07  38573857.344          27.193  
C08  36161276.263          39.708  
C26  22428741.881          45.508  
C31  21682888.860          43.940  
C35  22370977.874          43.633  
> 2026 05 10 01 02  0.0000000  0 10
C01  38473041.833          37.881  
C02  39636723.972          28.037  
C03  38547514.402          32.597  
C04  39483210.105          32.513  
C07  38583993.530          26.883  
C08  36161375.644          47.170  
C10  37825584.855          37.859  
C26  22439147.155          39.516  
C31  21677298.546          46.800  
C35  22380201.301          38.621  
> 2026 05 10 01 02 30.0000000  0  9
C01  38471487.768          36.132  
C03  38546642.383          33.337  
C04  39481152.562          23.664  
C07  38594157.169          22.316  
C08  36161493.487          44.037  
C24  22477912.709          45.194  
C26  22449648.500          43.607  
C31  21671788.316          45.182  
C35  22389485.620          42.747  
> 2026 05 10 01 03  0.0000000  0  9
C01  38469887.292          37.067  
C03  38545717.893          33.601  
C04  39479049.074          25.782  
C07  38604292.818          29.835  
C08  36161560.819          43.642  
C10  37843072.353          38.338  
C24  22471687.762          42.672  
C26  22460181.362          43.751  
C31  21666292.176          42.557  
> 2026 05 10 01 03 30.0000000  0  8
C01  38468302.359          36.474  
C04  39476951.275          24.878  
C07  38614463.908          29.267  
C08  36161648.400          46.709  
C10  37851841.357          38.434  
C24  22465564.774          44.379  
C26  22470810.779          39.175  
C35  22408108.178          44.914  
> 2026 05 10 01 04  0.0000000  0  9
C02  39637265.465          20.562  
C03  38543918.692          33.836  
C04  39474883.045          28.088  
C07  38624670.205          32.039  
C08  36161767.323          45.373  
C10  37860660.799          35.902  
C24  22459556.664          40.425  
C26  22481551.897          41.409  
C31  21655548.000          42.159  
> 2026 05 10 01 04 30.0000000  0 10
C01  38465139.089          36.980  
C02  39637354.892          14.903  
C04  39472774.641          31.261  
C07  38634850.622          36.996  
C08  36161837.547          47.894  
C10  37869454.454          37.489  
C26  22492321.410          41.359  
C31  21650234.630          45.226  
C34  25264181.192          29.386  
C35  22426939.564          41.236  
> 2026 05 10 01 05  0.0000000  0 11
C01  38463550.141          37.061  
C02  39637470.289          17.855  
C03  38542058.756          33.769  
C07  38645051.427          34.930  
C08  36161923.605          42.472  
C10  37878283.114          38.656  
C24  22447724.415          41.239  
C26  22503185.263          40.399  
C31  21644999.563          42.418  
C34  25248535.339          18.636  
C35  22436411.691          37.768  
> 2026 05 10 01 05 30.0000000  0  9
C02  39637596.351          14.717  
C03  38541154.337          36.291  
C07  38655290.069          36.606  
C08  36162035.837          43.551  
C10  37887158.773          35.246  
C24  22441970.840          42.007  
C31  21639850.196          44.476  
C34  25232926.843          22.742  
C35  22445953.820          44.530  
> 2026 05 10 01 06  0.0000000  0 12
C01  38460402.758          31.382  
C02  39637710.008          12.271  
C03  38540232.008          37.467  
C04  39466511.974          25.028  
C07  38665527.546          32.533  
C08  36162130.670          44.494  
C10  37896039.025          37.283  
C24  22436289.218          45.152  
C26  22525183.548          39.393  
C31  21634746.023          43.161  
C34  25217323.135          31.674  
C35  22455518.585          42.268  
> 2026 05 10 01 06 30.0000000  0  9
C01  38458802.848          36.429  
C02  39637801.886          16.976  
C04  39464408.946          33.575  
C07  38675762.220          30.009  
C08  36162207.661          42.606  
C10  37904922.594          41.382  
C26  22536273.657          39.616  
C34  25201727.488          21.198  
C35  22465113.265          42.280  
> 2026 05 10 01 07  0.0000000  0 11
C01  38457202.661          33.966  
C03  38538341.929          34.065  
C04  39462298.888          27.298  
C07  38686008.128          30.102  
C08  36162288.170          43.896  
C10  37913827.337          32.923  
C24  22425151.441          44.430  
C26  22547442.031          41.229  
C31  21624686.873          43.845  
C34  25186171.265          21.262  
C35  22474749.370          43.664  
> 2026 05 10 01 07 30.0000000  0 11
C02  39637952.770          24.882  
C03  38537365.103          32.804  
C04  39460163.271          27.642  
C07  38696232.974          33.450  
C08  36162338.608          46.026  
C10  37922726.241          38.190  
C24  22419689.164          39.540  
C26  22558660.359          40.806  
C31  21619720.487          42.297  
C34  25170617.552          21.518  
C35  22484401.480          40.523  
> 2026 05 10 01 08  0.0000000  0  9
C01  38454000.935          35.418  
C03  38536438.563          34.727  
C04  39458090.064          31.177  
C10  37931700.805          35.892  
C24  22414370.322          37.743  
C26  22570014.175          45.663  
C31  21614874.505          43.825  
C34  25155149.335          22.884  
C35  22494150.074          44.508  
> 2026 05 10 01 08 30.0000000  0 11
C01  38452382.338          34.448  
C02  39638127.889          29.581  
C03  38535465.555          34.397  
C04  39455967.896          32.139  
C07  38716800.542          29.316  
C08  36162510.075          42.584  
C10  37940650.039          38.337  
C24  22409093.531          44.807  
C26  22581395.099          43.019  
C31  21610043.443          44.210  
C35  22503894.588          43.308  
> 2026 05 10 01 09  0.0000000  0 10
C01  38450765.941          34.401  
C02  39638180.747          33.115  
C04  39453851.242          29.857  
C07  38727080.806          32.343  
C08  36162574.001          45.593  
C10  37949622.698          36.066  
C24  22403908.134          41.061  
C26  22592859.670          37.986  
C31  21605271.952          41.251  
C34  25124215.700          28.213  
> 2026 05 10 01 09 30.0000000  0 10
C01  38449173.015          33.922  
C02  39638252.675          27.245  
C03  38533539.031          31.897  
C07  38737396.005          35.944  
C10  37958642.108          38.167  
C24  22398836.755          43.854  
C26  22604423.923          41.551  
C31  21600589.454          44.651  
C34  25108811.131          27.234  
C35  22523544.626          45.047  
> 2026 05 10 01 10  0.0000000  0 11
C01  38447569.782          38.384  
C02  39638324.947          23.499  
C03  38532571.381          36.526  
C07  38747711.531          33.805  
C08  36162743.823          43.117  
C10  37967669.283          37.327  
C24  22393842.113          44.564  
C26  22616054.073          40.243  
C31  21595954.037          42.477  
C34  25093425.220          20.789  
C35  22533429.452          36.861  
> 2026 05 10 01 10 30.0000000  0 12
C01  38445946.972          32.940  
C02  39638371.356          20.716  
C03  38531583.473          33.665  
C04  39447515.133          22.926  
C07  38758022.240          34.321  
C08  36162802.666          47.132  
C10  37976697.665          36.478  
C24  22388921.095          43.459  
C26  22627740.683          45.826  
C31  21591364.371          44.660  
C34  25078049.826          21.970  
C35  22543338.912          41.131  
> 2026 05 10 01 11  0.0000000  0  8
C01  38444317.731          35.146  
C02  39638404.915          20.060  
C03  38530587.191          33.726  
C04  39445380.763          22.142  
C07  38768349.711          33.824  
C10  37985741.431          38.636  
C24  22384080.959          40.174  
C26  22639498.999          43.346  
> 2026 05 10 01 11 30.0000000  0  9
C01  38442726.881          37.504  
C03  38529623.898          35.329  
C04  39443290.021          22.153  
C07  38778722.176          35.388  
C08  36162951.993          42.848  
C10  37994845.843          37.338  
C24  22379372.164          42.888  
C26  22651371.800          41.476  
C34  25047419.457          20.028  
> 2026 05 10 01 12  0.0000000  0 10
C01  38441103.232          35.035  
C02  39638485.785          24.935  
C03  38528623.287          38.655  
C04  39441168.101          15.322  
C07  38789073.796          29.504  
C08  36163010.068          41.406  
C10  38003933.462          34.143  
C26  22663284.117          42.893  
C34  25032134.982          19.109  
C35  22573336.085          40.623  
> 2026 05 10 01 12 30.0000000  0  9
C01  38439495.826          40.404  
C02  39638525.134          25.372  
C03  38527639.638          34.743  
C04  39439054.177          19.625  
C07  38799455.566          29.020  
C26  22675292.644          39.755  
C31  21573653.208          45.811  
C34  25016888.098          18.286  
C35  22583425.102          43.939  
> 2026 05 10 01 13  0.0000000  0 11
C02  39638565.268          19.288  
