     3.04           OBSERVATION DATA    C: BDS              RINEX VERSION / TYPE
DataSimulator       BUPT-GNSS           20260515 050007     PGM / RUN BY / DATE
BDS SPP Simulated Observation Data                          COMMENT
BUPT_Shahe                                                  MARKER NAME
 -2161962.4351  4376609.9016  4091389.4091                  APPROX POSITION XYZ
0.0000        0.0000        0.0000                          ANTENNA: DELTA H/E/N
C    2 C2I S2I                                              SYS / # / OBS TYPES
                                                         BDTTIME OF FIRST OBS
    30.000                                                  INTERVAL
                                                            END OF HEADER
> 2026 05 10 00 00  0.0000000  0  8
C01  38491962.795          36.964  
C07  37446402.194          35.563  
C08  36158115.938          45.101  
C10  36914857.635          41.077  
C24  23815928.874          35.129  
C26  21786236.898          45.132  
C31  22833212.212          38.722  
C35  21652018.125          45.906  
> 2026 05 10 00 00 30.0000000  0  8
C03  38556769.498          33.978  
C04  39518247.784          30.238  
C10  36920747.211          43.633  
C24  23801702.510          37.961  
C29  24441086.059          25.617  
C31  22820276.079          38.987  
C35  21653938.015          46.835  
C39  24215216.345          34.044  
> 2026 05 10 00 01  0.0000000  0  9
C03  38555983.476          28.442  
C04  39516281.349          34.300  
C07  37462484.570          36.323  
C08  36157742.462          46.958  
C10  36926605.104          42.539  
C24  23787461.988          36.532  
C26  21786372.907          47.658  
C31  22807345.308          37.371  
C39  24231250.198          30.334  
> 2026 05 10 00 01 30.0000000  0  7
C01  38487200.397          35.693  
C07  37470561.973          38.964  
C08  36157571.318          45.029  
C10  36932520.821          41.196  
C26  21786576.782          40.272  
C31  22794501.840          40.246  
C35  21657924.236          42.924  
> 2026 05 10 00 02  0.0000000  0  8
C01  38485618.498          28.925  
C04  39512414.342          30.528  
C07  37478670.797          37.468  
C08  36157410.902          46.404  
C10  36938473.266          44.258  
C24  23759190.355          34.872  
C35  21660055.270          43.203  
C39  24263536.963          26.229  
> 2026 05 10 00 02 30.0000000  0  9
C03  38553682.758          21.897  
C04  39510448.579          29.590  
C07  37486766.617          34.663  
C08  36157225.813          43.004  
C10  36944415.051          39.471  
C24  23745088.475          31.274  
C26  21787207.668          43.520  
C29  24505854.794          26.943  
C35  21662222.901          47.008  
> 2026 05 10 00 03  0.0000000  0  8
C01  38482425.088          32.838  
C03  38552923.694          19.865  
C04  39508516.856          23.608  
C24  23731070.284          38.906  
C26  21787671.142          46.731  
C31  22756305.751          34.388  
C35  21664504.546          43.033  
C39  24295984.586          28.852  
> 2026 05 10 00 03 30.0000000  0  9
C03  38552131.607          18.667  
C07  37503067.878          41.824  
C08  36156918.764          40.308  
C10  36956422.263          39.347  
C24  23717067.209          38.783  
C26  21788191.248          44.581  
C29  24538377.008          22.212  
C31  22743672.342          36.741  
C35  21666829.528          44.850  
> 2026 05 10 00 04  0.0000000  0  9
C01  38479198.040          31.696  
C03  38551328.246          20.410  
C04  39504567.756          30.743  
C10  36962446.676          40.244  
C24  23703102.994          36.287  
C26  21788789.978          43.219  
C29  24554654.662          29.439  
C35  21669219.112          44.159  
C39  24328588.410          38.996  
> 2026 05 10 00 04 30.0000000  0 10
C01  38477615.866          30.471  
C03  38550559.438          19.337  
C04  39502632.979          26.970  
C07  37519456.845          40.005  
C10  36968531.678          41.002  
C26  21789508.646          47.184  
C29  24570971.851          20.982  
C31  22718601.285          34.919  
C35  21671723.632          45.805  
C39  24344983.293          29.980  
> 2026 05 10 00 05  0.0000000  0 10
C01  38475950.700          28.926  
C03  38549703.011          19.432  
C07  37527613.363          39.137  
C08  36156437.116          45.007  
C10  36974561.921          39.883  
C24  23675305.100          35.782  
C26  21790232.448          43.857  
C31  22706087.514          40.581  
C35  21674219.073          43.664  
C39  24361343.474          33.722  
> 2026 05 10 00 05 30.0000000  0 11
C01  38474376.373          33.282  
C03  38548939.770          21.772  
C04  39498679.607          31.345  
C07  37535888.179          41.032  
C08  36156337.379          43.997  
C10  36980708.835          40.224  
C24  23661526.103          36.857  
C29  24603603.994          15.376  
C31  22693723.389          39.791  
C35  21676877.646          45.844  
C39  24377840.013          36.640  
> 2026 05 10 00 06  0.0000000  0  7
C01  38472740.591          28.217  
C03  38548116.208          26.895  
C04  39496700.475          28.016  
C08  36156189.858          48.022  
C24  23647740.079          33.938  
C29  24619942.954          13.164  
C35  21679553.762          47.318  
> 2026 05 10 00 06 30.0000000  0 12
C01  38471126.570          28.525  
C03  38547311.971          33.483  
C04  39494739.931          21.856  
C07  37552411.597          43.108  
C08  36156074.011          45.926  
C10  36992995.362          38.818  
C24  23634021.514          36.122  
C26  21793100.091          41.235  
C29  24636324.232          19.850  
C31  22669084.612          41.535  
C35  21682324.971          42.906  
C39  24410876.807          33.983  
> 2026 05 10 00 07  0.0000000  0  9
C01  38469507.458          36.220  
C04  39492758.597          20.216  
C07  37560702.168          37.832  
C08  36155946.987          46.146  
C24  23620339.669          37.284  
C26  21794209.813          45.895  
C29  24652702.703          16.268  
C31  22656845.257          39.059  
C39  24427444.827          34.012  
> 2026 05 10 00 07 30.0000000  0  9
C01  38467913.027          34.941  
C03  38545682.967          21.893  
C04  39490813.704          13.162  
C07  37569051.952          39.216  
C24  23606739.019          37.714  
C29  24669142.378          20.364  
C31  22644703.478          38.809  
C35  21688092.519          46.968  
C39  24444102.636          33.098  
> 2026 05 10 00 08  0.0000000  0  8
C07  37577356.559          39.535  
C08  36155714.873          42.906  
C24  23593121.640          38.211  
C26  21796692.461          43.794  
C29  24685521.835          19.056  
C31  22632552.438          43.056  
C35  21691038.512          48.521  
C39  24460737.813          34.090  
> 2026 05 10 00 08 30.0000000  0  8
C01  38464655.649          35.715  
C04  39486841.960          20.618  
C07  37585741.599          37.686  
C08  36155642.677          44.848  
C10  37017906.071          40.541  
C26  21798093.793          45.929  
C29  24701988.232          18.438  
C31  22620526.083          41.313  
> 2026 05 10 00 09  0.0000000  0  8
C01  38463006.483          32.622  
C03  38543145.874          24.075  
C04  39484837.594          23.017  
C08  36155525.159          43.191  
C24  23566112.773          34.571  
C26  21799531.287          43.363  
C31  22608507.347          42.360  
C39  24494203.668          34.687  
> 2026 05 10 00 09 30.0000000  0 10
C01  38461402.971          37.506  
C03  38542327.013          25.051  
C04  39482873.257          20.652  
C07  37602533.091          37.180  
C08  36155454.998          39.900  
C10  37030508.487          39.102  
C26  21801099.984          46.755  
C31  22596591.428          39.106  
C35  21700439.213          43.955  
C39  24511022.875          32.792  
> 2026 05 10 00 10  0.0000000  0  8
C01  38459752.381          31.699  
C03  38541460.668          32.843  
C04  39480863.533          18.480  
C07  37610933.304          39.779  
C10  37036827.685          41.010  
C24  23539295.128          39.911  
C29  24751381.899          20.514  
C31  22584689.483          37.043  
> 2026 05 10 00 10 30.0000000  0 10
C03  38540618.502          31.477  
C04  39478889.120          25.345  
C07  37619392.854          38.059  
C08  36155285.491          44.940  
C10  37043208.889          37.662  
C24  23525981.708          39.442  
C26  21804440.170          42.359  
C31  22572883.428          43.810  
C35  21707035.080          42.662  
C39  24544730.306          34.701  
> 2026 05 10 00 11  0.0000000  0 10
C01  38456483.249          34.375  
C03  38539748.208          29.873  
C04  39476878.982          25.231  
C07  37627844.812          35.341  
C08  36155196.237          42.738  
C10  37049588.065          41.709  
C26  21806229.273          43.044  
C29  24784405.244          21.101  
C31  22561105.159          41.986  
C35  21710427.367          46.671  
> 2026 05 10 00 11 30.0000000  0  8
C01  38454875.416          34.283  
C03  38538908.123          32.641  
C07  37636352.063          40.622  
C08  36155147.715          43.160  
C26  21808138.407          47.590  
C29  24800949.531          11.681  
C31  22549424.568          37.978  
C35  21713924.956          43.299  
> 2026 05 10 00 12  0.0000000  0  8
C01  38453210.501          33.121  
C03  38538018.273          31.224  
C07  37644833.372          35.841  
C10  37062444.080          38.650  
C24  23486265.474          37.938  
C29  24817467.138          15.313  
C31  22537755.234          36.039  
C35  21717449.477          43.129  
> 2026 05 10 00 12 30.0000000  0  9
C01  38451557.881          33.855  
C03  38537126.767          29.682  
C04  39470883.626          21.466  
C07  37653342.498          41.667  
C08  36154984.978          41.620  
C10  37068895.669          40.944  
C24  23473118.473          37.543  
C29  24834009.221          11.156  
C39  24612602.100          33.692  
> 2026 05 10 00 13  0.0000000  0  9
C04  39468887.582          28.210  
C07  37661901.601          34.812  
C10  37075399.324          41.206  
C24  23460051.350          37.864  
C26  21814290.753          42.196  
C29  24850600.646          18.203  
C31  22514636.714          39.874  
C35  21724748.596          43.308  
C39  24629696.699          25.864  
> 2026 05 10 00 13 30.0000000  0  8
C01  38448261.434          31.088  
C03  38535364.865          28.729  
C04  39466870.512          26.203  
C07  37670454.938          39.063  
C08  36154878.435          43.452  
C10  37081905.347          43.118  
C31  22503152.343          39.259  
C35  21728486.137          43.303  
> 2026 05 10 00 14  0.0000000  0 11
C01  38446632.152          34.279  
C04  39464877.931          31.251  
C07  37679050.478          34.530  
C08  36154843.069          47.602  
C10  37088455.476          45.436  
C24  23434047.778          37.670  
C26  21818837.869          46.699  
C29  24883780.726          17.895  
C31  22491754.801          39.212  
C35  21732321.902          41.842  
C39  24663957.087          30.608  
> 2026 05 10 00 14 30.0000000  0  9
C03  38533578.638          35.258  
C04  39462847.830          29.701  
C07  37687638.720          38.616  
C10  37095004.295          42.978  
C24  23421103.317          39.466  
C26  21821223.923          45.312  
C29  24900373.036          17.906  
C31  22480380.446          39.922  
C39  24681128.254          34.845  
> 2026 05 10 00 15  0.0000000  0  7
C01  38443339.809          35.912  
C03  38532702.799          29.853  
C04  39460866.452          31.058  
C24  23408259.410          38.542  
C26  21823739.693          43.954  
C31  22469114.639          42.841  
C35  21740178.870          46.170  
> 2026 05 10 00 15 30.0000000  0  6
C07  37704906.833          37.781  
C08  36154715.869          42.920  
C24  23395415.447          38.238  
C31  22457853.814          38.246  
C35  21744180.085          42.885  
C39  24715627.826          33.261  
> 2026 05 10 00 16  0.0000000  0  7
C01  38439995.802          33.403  
C04  39456813.649          35.419  
C07  37713571.617          36.945  
C24  23382650.173          39.098  
C26  21828948.973          43.519  
C31  22446675.528          42.752  
C39  24732929.489          29.243  
> 2026 05 10 00 16 30.0000000  0 10
C01  38438347.829          35.020  
C03  38529960.679          30.954  
C04  39454817.502          27.749  
C08  36154663.676          44.951  
C10  37121523.600          43.334  
C24  23369948.159          35.974  
C26  21831703.572          41.170  
C31  22435566.475          34.298  
C35  21752442.681          43.744  
C39  24750278.411          26.948  
> 2026 05 10 00 17  0.0000000  0  8
C01  38436678.765          33.558  
C03  38529023.588          33.278  
C04  39452785.582          25.587  
C08  36154630.815          45.120  
C10  37128204.128          41.076  
C24  23357278.678          41.768  
C26  21834524.312          44.933  
C39  24767648.289          23.452  
> 2026 05 10 00 17 30.0000000  0  9
C03  38528098.958          25.964  
C07  37739671.613          36.235  
C08  36154615.950          44.111  
C10  37134918.790          45.763  
C24  23344679.195          38.546  
C26  21837446.052          45.080  
C31  22413502.216          37.810  
C35  21760957.317          42.871  
C39  24785064.331          23.248  
> 2026 05 10 00 18  0.0000000  0 10
C01  38433338.833          31.092  
C03  38527150.897          27.710  
C04  39448731.193          26.709  
C07  37748393.277          38.061  
C08  36154584.084          41.521  
C24  23332113.258          37.014  
C26  21840433.121          40.654  
C31  22402546.269          40.345  
C35  21765300.130          46.880  
C39  24802493.537          20.552  
> 2026 05 10 00 18 30.0000000  0 10
C01  38431689.920          33.002  
C03  38526228.677          24.755  
C07  37757170.145          40.631  
C08  36154593.975          46.617  
C10  37148418.596          42.652  
C24  23319636.333          37.293  
C26  21843540.786          43.183  
C31  22391682.945          38.875  
C35  21769746.080          43.777  
C39  24819999.665          17.540  
> 2026 05 10 00 19  0.0000000  0  9
C01  38429982.876          31.879  
C04  39444663.288          21.073  
C07  37765906.956          37.527  
C08  36154546.829          43.388  
C10  37155168.972          39.327  
C24  23307162.684          34.872  
C26  21846682.210          42.034  
C35  21774204.100          44.957  
C39  24837474.872          29.872  
> 2026 05 10 00 19 30.0000000  0  8
C01  38428344.959          27.487  
C04  39442664.086          20.580  
C07  37774734.149          37.704  
C08  36154571.635          44.243  
C26  21849973.183          44.852  
C31  22370090.494          38.380  
C35  21778789.351          43.745  
C39  24855069.850          20.210  
> 2026 05 10 00 20  0.0000000  0 10
C01  38426651.980          28.385  
C03  38523365.354          22.666  
C04  39440609.392          22.532  
C07  37783532.477          36.464  
C08  36154555.437          43.889  
C10  37168828.006          43.991  
C26  21853304.953          40.609  
C31  22359371.660          38.794  
C35  21783400.021          40.032  
C39  24872641.731          27.586  
> 2026 05 10 00 20 30.0000000  0 10
C01  38424984.272          24.449  
C03  38522421.195          29.059  
C04  39438580.235          22.198  
C07  37792368.429          35.169  
C08  36154565.373          44.331  
C10  37175691.148          35.822  
C24  23270203.263          36.143  
C26  21856745.292          45.543  
C35  21788095.548          44.790  
C39  24890275.243          25.174  
> 2026 05 10 00 21  0.0000000  0  8
C01  38423307.034          26.049  
C04  39436548.574          23.945  
C07  37801226.495          35.096  
C10  37182578.758          40.542  
C24  23257998.399          39.934  
C31  22338154.853          42.118  
C35  21792852.742          45.449  
C39  24907936.064          27.463  
> 2026 05 10 00 21 30.0000000  0  8
C01  38421630.249          28.781  
C04  39434521.785          20.806  
C07  37810103.983          38.118  
C08  36154592.509          43.530  
C24  23245851.964          36.162  
C31  22327639.129          39.867  
C35  21797683.984          43.858  
C39  24925638.421          27.248  
> 2026 05 10 00 22  0.0000000  0  7
C03  38519542.893          20.112  
C07  37819010.318          41.560  
C08  36154621.674          45.188  
C24  23233772.900          38.672  
C26  21867595.274          43.067  
C31  22317190.466          42.574  
C39  24943379.795          28.636  
> 2026 05 10 00 22 30.0000000  0  7
C04  39430432.652          20.458  
C08  36154616.693          45.408  
C10  37203377.827          39.783  
C24  23221712.712          37.324  
C26  21871356.330          45.335  
C31  22306767.940          38.027  
C35  21807513.438          43.035  
> 2026 05 10 00 23  0.0000000  0 10
C01  38416585.743          26.016  
C03  38517581.222          28.250  
C04  39428395.726          25.829  
C07  37836839.213          38.584  
C10  37210375.649          41.486  
C24  23209746.710          37.343  
C26  21875237.934          42.876  
C31  22296440.840          40.367  
C35  21812541.384          48.226  
C39  24978933.154          30.162  
> 2026 05 10 00 23 30.0000000  0 11
C01  38414876.070          24.707  
C03  38516571.570          25.078  
C04  39426341.449          17.120  
C07  37845766.296          37.332  
C08  36154655.965          45.494  
C10  37217362.127          44.083  
C24  23197809.387          42.730  
C26  21879175.327          41.817  
C31  22286136.174          42.009  
C35  21817598.703          44.457  
C39  24996740.008          27.149  
> 2026 05 10 00 24  0.0000000  0  9
C01  38413187.286          28.208  
C03  38515578.344          20.159  
C08  36154682.369          44.397  
C10  37224390.284          38.005  
C24  23185947.672          38.739  
C26  21883212.655          43.401  
C31  22275915.738          41.690  
C35  21822741.892          44.931  
C39  25014614.928          27.239  
> 2026 05 10 00 24 30.0000000  0  9
C01  38411465.024          31.925  
C04  39422211.161          18.437  
C07  37863687.207          35.902  
C08  36154688.643          45.863  
C24  23174121.155          37.212  
C26  21887317.571          42.926  
C31  22265729.987          39.425  
C35  21827923.535          44.911  
C39  25032484.977          32.163  
> 2026 05 10 00 25  0.0000000  0  7
C03  38513564.434          19.840  
C07  37872695.790          38.741  
C08  36154732.273          48.238  
C10  37238507.802          39.187  
C24  23162388.625          39.041  
C35  21833200.478          42.298  
C39  25050417.573          31.779  
> 2026 05 10 00 25 30.0000000  0  8
C01  38408080.607          33.347  
C04  39418109.446          22.607  
C07  37881714.245          37.712  
C08  36154765.144          43.937  
C24  23150707.236          39.133  
C31  22245593.440          40.917  
C35  21838528.933          45.683  
C39  25068374.518          28.620  
> 2026 05 10 00 26  0.0000000  0  8
C01  38406381.852          36.027  
C03  38511557.480          24.690  
C04  39416059.290          25.094  
C07  37890761.068          37.650  
C08  36154812.598          42.849  
C26  21900230.849          43.449  
C35  21843932.079          45.713  
C39  25086381.720          28.314  
> 2026 05 10 00 26 30.0000000  0 10
C01  38404691.969          32.891  
C03  38510560.028          23.173  
C04  39414014.030          20.176  
C07  37899829.561          36.821  
C08  36154867.030          45.983  
C10  37259906.933          39.999  
C24  23127551.419          38.908  
C26  21904720.005          39.341  
C31  22225714.432          44.275  
C39  25104415.030          23.815  
> 2026 05 10 00 27  0.0000000  0  8
C01  38402969.907          28.940  
C04  39411943.494          21.869  
C07  37908883.710          37.299  
C08  36154892.311          42.679  
C24  23116033.793          40.372  
C31  22215836.387          41.005  
C35  21854905.335          42.117  
C39  25122460.007          25.969  
> 2026 05 10 00 27 30.0000000  0  7
C01  38401275.638          32.331  
C04  39409882.260          17.685  
C07  37917979.108          37.947  
C08  36154943.876          42.933  
C26  21913908.370          43.349  
C35  21860487.653          42.954  
C39  25140549.921          25.266  
> 2026 05 10 00 28  0.0000000  0  7
C04  39407844.482          28.462  
C07  37927120.844          36.177  
C10  37281516.649          39.137  
C26  21918672.796          45.879  
C31  22196335.970          44.523  
C35  21866165.600          43.765  
C39  25158703.629          25.045  
> 2026 05 10 00 28 30.0000000  0 11
C01  38397871.286          33.883  
C03  38506445.485          34.857  
C04  39405737.778          28.456  
C07  37936222.404          37.344  
C08  36155055.474          40.747  
C10  37288737.847          44.382  
C24  23081925.976          40.822  
C26  21923466.743          45.016  
C31  22186631.802          44.126  
C35  21871845.453          46.874  
C39  25176827.871          31.725  
> 2026 05 10 00 29  0.0000000  0  9
C01  38396162.551          33.018  
C03  38505401.228          31.420  
C04  39403672.038          28.682  
C07  37945362.051          35.025  
C10  37296002.087          39.199  
C24  23070674.877          42.469  
C26  21928370.415          44.323  
C35  21877609.019          43.784  
C39  25195014.020          32.835  
> 2026 05 10 00 29 30.0000000  0  8
C01  38394429.118          31.525  
C04  39401589.044          33.537  
C07  37954507.687          38.660  
C24  23059473.354          38.805  
C26  21933341.715          44.879  
C31  22167440.137          41.611  
C35  21883420.764          41.037  
C39  25213214.047          29.166  
> 2026 05 10 00 30  0.0000000  0  8
C01  38392724.663          34.812  
C03  38503298.949          32.575  
C04  39399521.195          26.499  
C07  37963696.753          34.246  
C26  21938427.007          40.939  
C31  22157949.936          41.473  
C35  21889313.451          39.373  
C39  25231471.616          24.346  
> 2026 05 10 00 30 30.0000000  0  9
C01  38567207.137          32.350  
C03  38593374.136          30.037  
C07  37972891.643          38.458  
C08  36155277.241          45.884  
C24  23037303.118          38.984  
C26  21943590.818          38.972  
C31  22148515.098          42.365  
C35  21895258.610          44.429  
C39  25249743.193          15.644  
> 2026 05 10 00 31  0.0000000  0  6
C03  38592790.025          33.456  
C07  37982079.018          33.712  
C08  36155313.009          44.241  
C10  37325278.982          38.261  
C31  22139116.458          39.532  
C35  21901241.056          48.475  
> 2026 05 10 00 31 30.0000000  0 10
C01  38564401.878          36.778  
C03  38592267.979          35.843  
C07  37991354.083          39.392  
C08  36155420.498          46.667  
C10  37332708.402          40.109  
C24  23015396.097          37.941  
C26  21954190.079          45.338  
C31  22129845.413          41.840  
C35  21907348.787          42.679  
C39  25286388.291          12.479  
> 2026 05 10 00 32  0.0000000  0  9
C01  38562998.447          35.736  
C03  38591709.206          27.892  
C07  38000614.427          35.620  
C08  36155504.668          41.756  
C10  37340130.829          37.571  
C24  23004548.339          40.703  
C26  21959627.961          43.320  
C31  22120605.790          43.659  
C39  25304757.652          15.692  
> 2026 05 10 00 32 30.0000000  0  9
C01  38561557.191          26.698  
C07  38009850.072          37.409  
C08  36155543.992          42.088  
C10  37347535.355          37.068  
C24  22993719.777          38.239  
C26  21965103.019          40.541  
C31  22111384.981          39.042  
C35  21919649.991          43.982  
C39  25323100.612          20.968  
> 2026 05 10 00 33  0.0000000  0  8
C01  38560145.487          35.962  
C03  38590538.714          32.105  
C07  38019147.473          35.379  
C08  36155631.204          46.935  
C10  37355006.701          36.339  
C24  22982999.491          40.004  
C26  21970712.772          45.747  
C31  22102269.366          42.466  
> 2026 05 10 00 33 30.0000000  0  6
C01  38558710.510          38.501  
C07  38028434.974          31.901  
C24  22972324.930          41.705  
C26  21976387.061          43.768  
C31  22093191.550          43.466  
C35  21932204.141          43.760  
> 2026 05 10 00 34  0.0000000  0  7
C01  38557262.108          34.638  
C03  38589321.191          34.175  
C08  36155750.035          42.670  
C10  37369960.544          41.012  
C24  22961703.107          39.843  
C26  21982126.209          45.049  
C35  21938545.821          43.886  
> 2026 05 10 00 34 30.0000000  0  6
C03  38588757.418          31.725  
C07  38047103.750          34.628  
C08  36155868.398          44.511  
C10  37377524.444          41.853  
C26  21988017.701          43.253  
C31  22075252.800          46.005  
> 2026 05 10 00 35  0.0000000  0  4
C03  38588160.751          27.581  
C10  37385083.978          39.179  
C24  22940749.952          38.255  
C26  21993961.554          45.572  
> 2026 05 10 00 35 30.0000000  0  7
C01  38552971.578          34.149  
C03  38587505.877          25.772  
C08  36155998.809          43.776  
C10  37392617.440          40.538  
C24  22930310.810          43.149  
C26  21999946.540          44.661  
C35  21957991.885          40.996  
> 2026 05 10 00 36  0.0000000  0  5
C01  38551545.724          32.714  
C03  38586900.923          25.246  
C08  36156097.503          41.962  
C31  22048760.728          40.080  
C35  21964602.608          43.652  
> 2026 05 10 00 36 30.0000000  0  8
C01  38550101.528          28.684  
C03  38586267.581          25.063  
C07  38084573.909          33.239  
C08  36156173.329          44.059  
C24  22909721.638          39.432  
C26  22012255.032          44.340  
C31  22040047.687          38.595  
C35  21971242.477          42.914  
> 2026 05 10 00 37  0.0000000  0  5
C03  38585647.489          18.217  
C08  36156263.585          43.981  
C26  22018537.856          44.516  
C31  22031410.009          44.776  
C35  21977957.559          44.917  
> 2026 05 10 00 37 30.0000000  0  7
C01  38547211.050          33.127  
C03  38585023.322          27.399  
C07  38103429.643          31.097  
C08  36156354.946          39.722  
C10  37423148.516          38.424  
C31  22022834.574          41.768  
C35  21984726.520          43.372  
> 2026 05 10 00 38  0.0000000  0  6
C01  38545750.165          28.693  
C03  38584374.137          25.441  
C10  37430832.057          40.382  
C26  22031351.247          42.063  
C31  22014307.074          41.374  
C35  21991542.870          43.804  
> 2026 05 10 00 38 30.0000000  0  8
C03  38583764.885          25.023  
C07  38122363.034          25.569  
C08  36156555.372          43.123  
C10  37438569.643          40.057  
C24  22869384.226          37.078  
C26  22037913.215          41.007  
C31  22005876.807          40.446  
C35  21998448.140          41.538  
> 2026 05 10 00 39  0.0000000  0  8
C01  38542839.310          29.671  
C03  38583099.881          34.134  
C08  36156621.215          47.638  
C10  37446276.370          38.849  
C24  22859439.405          41.705  
C26  22044507.415          42.075  
C31  21997454.635          40.579  
C35  22005355.072          45.053  
> 2026 05 10 00 39 30.0000000  0  7
C01  38541388.387          27.382  
C03  38582452.627          35.852  
C07  38141324.229          27.645  
C24  22849599.698          38.374  
C26  22051222.382          44.604  
C31  21989127.927          41.804  
C35  22012353.357          40.829  
> 2026 05 10 00 40  0.0000000  0  6
C01  38539924.126          24.907  
C03  38581798.232          30.803  
C07  38150846.005          37.658  
C08  36156819.155          43.175  
C10  37461816.674          35.325  
C24  22839821.111          43.205  
> 2026 05 10 00 40 30.0000000  0  5
C03  38581123.870          33.159  
C10  37469605.855          41.021  
C24  22830103.931          38.989  
C31  21972628.269          40.685  
C35  22026490.351          41.558  
> 2026 05 10 00 41  0.0000000  0  5
C01  38536999.339          25.592  
C03  38580484.502          22.779  
C07  38169928.231          33.544  
C10  37477451.836          38.575  
C31  21964496.389          40.120  
> 2026 05 10 00 41 30.0000000  0  6
C03  38579807.618          23.231  
C07  38179487.148          36.275  
C08  36157109.826          43.386  
C24  22810920.468          40.512  
C26  22078897.042          43.114  
C35  22040868.743          42.224  
> 2026 05 10 00 42  0.0000000  0  9
C01  38534068.075          20.365  
C03  38579137.831          27.749  
C07  38189087.905          32.833  
C08  36157230.563          44.796  
C10  37493179.952          33.530  
C24  22801447.501          40.060  
C26  22086049.646          45.392  
C31  21948394.165          40.561  
C35  22048155.178          44.467  
> 2026 05 10 00 42 30.0000000  0  6
C01  38532579.542          18.705  
C03  38578433.280          31.657  
C24  22792016.444          41.148  
C26  22093253.823          45.274  
C31  21940416.296          40.823  
C35  22055460.165          43.749  
> 2026 05 10 00 43  0.0000000  0  6
C01  38531103.477          18.391  
C07  38208276.555          34.096  
C08  36157420.656          47.003  
C24  22782669.261          41.304  
C26  22100549.904          39.779  
C31  21932507.176          42.473  
> 2026 05 10 00 43 30.0000000  0  6
C03  38577039.867          35.735  
C07  38217899.301          35.617  
C08  36157523.622          43.594  
C10  37516906.380          36.180  
C26  22107936.440          42.941  
C35  22070260.610          44.297  
> 2026 05 10 00 44  0.0000000  0  7
C03  38576324.497          29.043  
C07  38227523.851          38.097  
C08  36157612.546          45.374  
C10  37524855.603          40.508  
C26  22115390.070          45.510  
C31  21916867.229          40.085  
C35  22077727.756          44.379  
> 2026 05 10 00 44 30.0000000  0  8
C01  38526640.180          23.701  
C07  38237173.553          35.564  
C08  36157711.390          41.368  
C10  37532829.532          39.659  
C24  22755047.953          40.981  
C26  22122940.881          40.669  
C31  21909141.960          44.645  
C35  22085256.437          42.403  
> 2026 05 10 00 45  0.0000000  0  6
C01  38525179.667          20.482  
C07  38246872.378          39.549  
C08  36157842.417          45.739  
C10  37540858.910          39.643  
C31  21901509.082          42.173  
C35  22092869.875          43.235  
> 2026 05 10 00 45 30.0000000  0  8
C01  38523678.109          20.304  
C03  38574198.012          31.551  
C07  38256545.550          37.774  
C10  37548873.025          37.953  
C24  22737028.521          44.301  
C26  22138312.426          44.884  
C31  21893896.392          44.700  
C35  22100495.197          43.425  
> 2026 05 10 00 46  0.0000000  0  7
C01  38522165.356          20.291  
C03  38573455.891          30.182  
C07  38266224.514          35.960  
C10  37556899.806          38.327  
C26  22146098.371          41.520  
C31  21886341.404          44.408  
C35  22108169.312          45.053  
> 2026 05 10 00 46 30.0000000  0  9
C01  38520693.391          17.394  
C03  38572752.935          27.291  
C07  38275973.204          29.997  
C08  36158158.677          47.888  
C10  37564996.159          39.654  
C24  22719302.618          42.390  
C26  22154015.335          40.100  
C31  21878888.534          41.588  
C35  22115937.558          45.932  
> 2026 05 10 00 47  0.0000000  0  8
C01  38519168.389          16.880  
C03  38572002.254          32.991  
C07  38285684.334          26.637  
C08  36158243.024          46.577  
C10  37573061.239          37.896  
C26  22161963.461          41.405  
C31  21871449.509          40.940  
C35  22123708.459          44.340  
> 2026 05 10 00 47 30.0000000  0  8
C01  38517674.653          12.759  
C07  38295441.632          22.542  
C08  36158355.916          42.942  
C10  37581181.245          40.212  
C24  22701849.272          41.153  
C26  22170024.770          41.549  
C31  21864105.445          40.166  
C35  22131562.106          45.539  
> 2026 05 10 00 48  0.0000000  0  8
C01  38516174.267          15.475  
C03  38570521.994          25.371  
C07  38305204.675          21.457  
C10  37589315.880          39.673  
C24  22693245.452          42.466  
C26  22178162.758          45.888  
C31  21856810.908          42.868  
C35  22139459.816          42.731  
> 2026 05 10 00 48 30.0000000  0  8
C01  38514633.956          14.658  
C03  38569743.110          31.879  
C08  36158537.801          45.334  
C10  37597437.447          39.040  
C24  22684682.081          42.059  
C26  22186349.536          42.731  
C31  21849542.955          42.579  
C35  22147372.152          39.340  
> 2026 05 10 00 49  0.0000000  0  4
C03  38569020.438          35.959  
C08  36158678.115          42.227  
C10  37605648.022          37.601  
C35  22155403.083          44.071  
> 2026 05 10 00 49 30.0000000  0  6
C01  38511632.624          17.390  
C03  38568249.290          36.202  
C07  38334557.425          20.742  
C08  36158771.544          38.623  
C26  22203058.305          47.119  
C31  21835282.966          43.751  
> 2026 05 10 00 50  0.0000000  0  6
C01  38510141.130          17.930  
C07  38344396.604          16.411  
C08  36158900.708          45.684  
C26  22211549.229          44.366  
C31  21828256.805          42.812  
C35  22171558.361          46.250  
> 2026 05 10 00 51  0.0000000  0  6
C01  38507088.386          21.159  
C07  38364054.951          21.582  
C08  36159101.132          42.005  
C26  22228717.874          43.468  
C31  21814325.750          44.431  
C35  22187886.273          41.185  
> 2026 05 10 00 51 30.0000000  0  7
C01  38505579.039          24.219  
C03  38565172.787          30.337  
C07  38373919.959          20.514  
C08  36159218.663          46.170  
C10  37646849.789          34.720  
C26  22237442.610          40.687  
C31  21807465.886          41.297  
> 2026 05 10 00 52  0.0000000  0  9
C01  38504046.200          22.095  
C03  38564379.190          30.797  
C07  38383784.727          23.737  
C08  36159317.961          41.262  
C10  37655151.374          37.920  
C24  22627153.451          39.999  
C26  22246232.543          44.282  
C31  21800652.809          42.716  
C35  22204428.709          40.537  
> 2026 05 10 00 52 30.0000000  0  8
C03  38563561.876          31.024  
C04  39522294.714          26.990  
C07  38393644.760          22.882  
C08  36159402.881          44.171  
C24  22619218.003          39.344  
C26  22255088.295          44.004  
C31  21793886.775          45.882  
C35  22212749.447          42.302  
> 2026 05 10 00 53  0.0000000  0  6
C03  38562775.458          31.455  
C07  38403565.293          21.107  
C10  37671813.436          39.228  
C26  22264065.166          43.382  
C31  21787218.837          41.881  
C35  22221157.709          39.398  
> 2026 05 10 00 53 30.0000000  0  9
C01  38499449.249          21.551  
C03  38561977.838          28.075  
C07  38413478.503          20.770  
C08  36159631.868          45.353  
C10  37680181.604          36.120  
C24  22603643.303          42.633  
C26  22273110.386          43.029  
C31  21780595.866          44.165  
C35  22229597.816          43.886  
> 2026 05 10 00 54  0.0000000  0  7
C01  38497944.715          21.055  
C04  39516223.834          28.564  
C07  38423435.875          24.688  
C10  37688600.871          38.786  
C26  22282265.158          45.070  
C31  21774065.552          44.605  
C35  22238118.725          42.273  
> 2026 05 10 00 54 30.0000000  0  7
C01  38496386.713          20.678  
C03  38560368.290          24.809  
C07  38433355.092          19.554  
C08  36159856.524          42.232  
C24  22588383.518          42.435  
C26  22291449.079          46.234  
C31  21767542.838          42.930  
> 2026 05 10 00 55  0.0000000  0  9
C01  38494851.965          24.375  
C03  38559553.274          27.612  
C04  39512126.984          32.643  
C08  36159966.214          41.071  
C10  37705426.685          35.140  
C24  22580875.088          41.298  
C26  22300740.206          44.470  
C31  21761110.013          43.991  
C35  22255221.074          39.314  
> 2026 05 10 00 55 30.0000000  0  9
C01  38493323.380          19.414  
C04  39510091.430          28.682  
C07  38453300.959          18.568  
C08  36160087.512          44.201  
C10  37713892.990          38.670  
C24  22573454.478          42.921  
C26  22310125.247          45.101  
C31  21754745.219          40.984  
C35  22263868.714          43.653  
> 2026 05 10 00 56  0.0000000  0  8
C03  38557905.766          28.060  
C04  39508029.249          21.591  
C07  38463266.550          22.485  
C08  36160186.577          49.096  
C10  37722356.282          36.176  
C24  22566090.240          37.006  
C31  21748418.577          42.281  
C35  22272534.918          42.542  
> 2026 05 10 00 56 30.0000000  0  7
C01  38490220.345          22.383  
C03  38557071.176          23.234  
C04  39505971.986          28.639  
C08  36160285.521          46.252  
C10  37730841.802          35.361  
C24  22558809.005          40.029  
C26  22329089.306          40.987  
> 2026 05 10 00 57  0.0000000  0  9
C01  38488661.779          21.875  
C03  38556226.419          23.854  
C07  38483256.707          25.175  
C08  36160382.319          43.281  
C10  37739350.143          35.893  
C24  22551611.649          43.656  
C26  22338690.771          42.924  
C31  21735952.688          40.692  
C35  22290021.134          40.485  
> 2026 05 10 00 58  0.0000000  0  8
C03  38554530.537          27.192  
C04  39499796.475          30.070  
C07  38503318.502          25.462  
C08  36160597.361          42.038  
C24  22537477.149          43.100  
C26  22358156.239          42.364  
C31  21723749.741          42.679  
C35  22307707.187          44.692  
> 2026 05 10 00 58 30.0000000  0  8
C01  38484005.699          26.269  
C04  39497726.614          31.823  
C07  38513349.179          33.295  
C08  36160689.677          42.320  
C10  37765008.186          36.562  
C26  22367992.790          45.807  
C31  21717723.729          42.429  
C35  22316603.565          42.333  
> 2026 05 10 00 59  0.0000000  0  6
C01  38482457.735          23.269  
C03  38552815.051          34.690  
C08  36160808.871          44.616  
C24  22523665.510          38.047  
C31  21711784.377          44.047  
C35  22325572.514          39.588  
> 2026 05 10 00 59 30.0000000  0  4
C04  39493610.023          24.328  
C08  36160900.811          47.120  
C24  22516873.033          44.715  
C31  21705882.613          42.617  
> 2026 05 10 01 00  0.0000000  0  7
C03  38551064.459          29.149  
C04  39491540.087          26.113  
C07  38543575.756          28.049  
C08  36161004.494          46.101  
C24  22510176.509          41.425  
C26  22398031.393          42.383  
C31  21700051.328          44.813  
> 2026 05 10 01 00 30.0000000  0  6
C01  38477776.625          27.607  
C07  38553692.100          23.870  
C10  37799533.622          34.848  
C24  22503567.956          40.865  
C26  22408209.728          43.292  
C31  21694291.870          41.090  
> 2026 05 10 01 01  0.0000000  0  7
C01  38476170.152          26.369  
C04  39487379.375          21.311  
C07  38563761.608          20.690  
C08  36161176.478          46.402  
C24  22496995.727          40.841  
C31  21688540.410          40.268  
C35  22361801.536          42.977  
> 2026 05 10 01 01 30.0000000  0  9
C01  38474624.301          26.126  
C04  39485316.850          27.284  
C07  38573900.935          26.895  
C08  36161297.173          40.843  
C10  37816891.638          40.273  
C24  22490565.382          40.642  
C26  22428763.717          41.946  
C31  21682912.994          44.760  
C35  22371002.118          38.640  
> 2026 05 10 01 02  0.0000000  0  5
C03  38547540.732          27.439  
C07  38584054.336          25.205  
C10  37825619.518          34.058  
C24  22484209.780          43.636  
C35  22380232.170          44.186  
> 2026 05 10 01 02 30.0000000  0 10
C01  38471477.183          23.108  
C03  38546638.765          29.518  
C04  39481154.940          29.117  
C07  38594197.996          17.473  
C08  36161494.353          50.930  
C10  37834345.623          35.939  
C24  22477917.721          38.581  
C26  22449652.560          40.842  
C31  21671791.310          43.280  
C35  22389487.363          43.044  
> 2026 05 10 01 03  0.0000000  0  6
C01  38469900.941          30.408  
C03  38545735.910          30.297  
C04  39479063.150          29.793  
C08  36161585.382          41.171  
C26  22460206.278          41.728  
C35  22398790.394          42.368  
> 2026 05 10 01 03 30.0000000  0  8
C01  38468312.269          30.732  
C03  38544816.017          24.071  
C04  39476965.296          25.076  
C07  38614509.309          18.606  
C08  36161667.242          47.441  
C10  37851859.874          35.832  
C31  21660891.100          46.054  
C35  22408127.218          38.709  
> 2026 05 10 01 04  0.0000000  0  8
C01  38466743.926          30.446  
C03  38543916.517          27.385  
C04  39474881.671          24.482  
C07  38624697.181          20.885  
C08  36161770.689          43.034  
C24  22459563.266          43.635  
C26  22481555.882          39.837  
C35  22417530.669          41.545  
> 2026 05 10 01 04 30.0000000  0  7
C07  38634881.156          18.412  
C08  36161845.380          43.649  
C10  37869462.103          36.748  
C24  22453599.979          42.409  
C26  22492329.708          43.887  
C31  21650243.339          44.108  
C35  22426948.567          40.990  
> 2026 05 10 01 05  0.0000000  0  9
C01  38463560.959          34.176  
C03  38542063.087          32.255  
C07  38645081.501          17.085  
C08  36161933.705          45.388  
C10  37878298.262          35.991  
C24  22447735.382          42.539  
C26  22503196.026          42.420  
C31  21645009.632          44.242  
C35  22436421.557          42.532  
> 2026 05 10 01 05 30.0000000  0 10
C01  38461993.341          34.595  
C03  38541156.439          25.724  
C04  39468597.149          17.552  
C07  38655314.415          20.566  
C08  36162041.959          41.743  
C10  37887167.048          38.894  
C24  22441981.052          41.836  
C26  22514158.722          40.693  
C31  21639855.521          42.151  
C35  22445960.946          42.649  
> 2026 05 10 01 06  0.0000000  0 10
C01  38460384.542          34.015  
C03  38540199.859          25.004  
C04  39466488.220          25.068  
C07  38665512.531          26.724  
C08  36162107.314          43.249  
C10  37896017.618          40.123  
C24  22436266.831          45.143  
C26  22525158.867          38.700  
C31  21634723.857          43.518  
C35  22455495.749          43.079  
> 2026 05 10 01 06 30.0000000  0  9
C01  38458779.341          33.562  
C03  38539260.656          28.793  
C04  39464378.281          24.962  
C08  36162184.220          42.188  
C10  37904898.551          36.066  
C24  22430653.382          39.906  
C26  22536249.126          41.063  
C31  21629658.705          47.092  
C35  22465089.376          36.814  
> 2026 05 10 01 07  0.0000000  0  6
C04  39462297.355          24.426  
C08  36162283.071          44.366  
C10  37913825.306          38.975  
C24  22425149.016          43.524  
C31  21624682.673          41.033  
C35  22474746.830          41.764  
> 2026 05 10 01 07 30.0000000  0  7
C01  38455596.188          25.553  
C03  38537391.571          30.790  
C04  39460194.413          25.882  
C10  37922756.668          37.204  
C24  22419719.983          43.386  
C26  22558692.100          43.084  
C31  21619752.275          42.771  
> 2026 05 10 01 08  0.0000000  0  5
C07  38706532.760          25.193  
C08  36162437.560          44.378  
C24  22414362.259          43.630  
C26  22570004.950          43.352  
C35  22494140.771          44.327  
> 2026 05 10 01 08 30.0000000  0  9
C03  38535474.774          29.755  
C04  39455972.419          27.586  
C07  38716822.532          24.639  
C08  36162520.053          46.093  
C10  37940661.787          33.910  
C24  22409105.167          43.203  
C26  22581410.558          39.402  
C31  21610051.107          42.459  
C35  22503908.520          43.382  
> 2026 05 10 01 09  0.0000000  0  7
C04  39453851.033          24.347  
C07  38727114.981          18.350  
C08  36162589.622          44.163  
C24  22403920.493          40.354  
C26  22592873.550          41.338  
C31  21605287.696          45.101  
C35  22513698.436          43.306  
> 2026 05 10 01 09 30.0000000  0  8
C01  38449160.405          21.943  
C03  38533541.143          34.028  
C07  38737427.414          10.000  
C08  36162664.736          45.095  
C24  22398836.460          39.649  
C26  22604423.468          41.957  
C31  21600589.597          44.275  
C35  22523542.930          38.884  
> 2026 05 10 01 10  0.0000000  0  6
C01  38447560.162          20.733  
C03  38532583.450          39.873  
C04  39449638.422          27.626  
C07  38747760.086          10.000  
C08  36162753.670          44.590  
C26  22616063.502          43.146  
> 2026 05 10 01 10 30.0000000  0  6
C01  38445921.987          17.963  
C04  39447495.914          25.235  
C07  38758052.909          11.598  
C10  37976693.346          32.854  
C26  22627734.260          37.810  
C31  21591361.053          45.231  
> 2026 05 10 01 11  0.0000000  0  8
C01  38444338.194          22.847  
C03  38530619.118          34.891  
C04  39445392.064          21.933  
C08  36162887.072          41.557  
C24  22384111.200          40.670  
C26  22639530.719          40.431  
C31  21586860.277          44.539  
C35  22553313.190          43.013  
> 2026 05 10 01 11 30.0000000  0  9
C01  38442719.323          25.873  
C03  38529620.594          29.794  
C04  39443275.764          31.624  
C07  38778746.430          15.691  
C08  36162950.447          41.290  
C10  37994845.753          34.078  
C24  22379370.830          41.795  
C26  22651371.077          41.638  
C31  21582394.632          45.558  
> 2026 05 10 01 12  0.0000000  0  7
C01  38441114.685          28.350  
C04  39441146.595          14.033  
C07  38789107.893          17.960  
C08  36163027.595          44.622  
C10  38003952.834          33.490  
C31  21578003.270          44.268  
C35  22573355.546          40.760  
> 2026 05 10 01 12 30.0000000  0  9
C03  38527618.734          34.140  
C04  39439004.980          17.370  
C07  38799444.919          24.723  
C08  36163069.774          43.069  
C10  38013043.756          37.781  
C24  22370157.119          46.324  
C26  22675275.936          43.136  
C31  21573635.438          47.615  
C35  22583408.319          41.022  
> 2026 05 10 01 13  0.0000000  0 10
C01  38437852.478          33.487  
C03  38526623.573          32.464  
C04  39436874.536          22.002  
C07  38809822.414          24.677  
C08  36163133.387          47.101  
C10  38022176.044          38.116  
C24  22365683.339          41.051  
C26  22687341.222          41.566  
C31  21569349.977          42.780  
C35  22593520.751          40.819  
> 2026 05 10 01 13 30.0000000  0  8
C01  38436248.391          24.953  
C03  38525635.938          32.906  
C04  39434772.943          23.824  
C07  38820226.928          28.388  
C08  36163211.351          43.770  
C24  22361323.292          41.025  
C31  21565142.570          42.080  
C35  22603691.400          40.400  
> 2026 05 10 01 14  0.0000000  0  6
C01  38434584.078          22.066  
C03  38524592.140          30.910  
C08  36163236.135          42.119  
C10  38040482.760          34.965  
C26  22711680.603          41.645  
C31  21560940.614          47.366  
> 2026 05 10 01 14 30.0000000  0  7
C01  38432971.538          32.496  
C03  38523593.014          28.854  
C04  39430491.245          26.155  
C07  38841010.973          27.714  
C10  38049683.651          33.927  
C24  22352811.370          42.266  
C26  22723980.255          41.475  
> 2026 05 10 01 15  0.0000000  0  8
C01  38431339.732          28.958  
C03  38522570.893          26.662  
C04  39428356.569          32.004  
C07  38851420.747          20.215  
C24  22348688.423          42.328  
C26  22736327.079          38.189  
C31  21552789.860          45.315  
C35  22634340.675          36.042  
> 2026 05 10 01 15 30.0000000  0  8
C01  38429714.836          33.574  
C03  38521553.982          22.515  
C04  39426226.012          28.480  
C07  38861856.501          21.014  
C10  38068111.055          35.234  
C24  22344673.877          37.952  
C31  21548805.672          40.100  
C35  22644651.286          42.802  
> 2026 05 10 01 16  0.0000000  0  9
C01  38428055.430          33.064  
C04  39424053.617          29.080  
C07  38872255.613          24.561  
C08  36163433.347          45.237  
C10  38077320.107          39.587  
C24  22340710.156          43.779  
C26  22761238.758          37.945  
C31  21544840.686          43.499  
C35  22654957.231          38.283  
> 2026 05 10 01 16 30.0000000  0  7
C01  38426421.048          30.603  
C03  38519458.214          28.611  
C04  39421918.607          30.721  
C24  22336871.242          43.491  
C26  22773813.287          39.593  
C31  21540970.045          43.191  
C35  22665332.184          38.689  
> 2026 05 10 01 17  0.0000000  0  9
C01  38424825.447          34.973  
C03  38518452.830          24.618  
C04  39419811.831          28.869  
C07  38893189.843          29.712  
C08  36163568.335          45.750  
C24  22333153.975          40.890  
C26  22786490.022          38.122  
C31  21537185.627          44.942  
C35  22675778.844          42.194  
> 2026 05 10 01 17 30.0000000  0  7
C01  38423143.428          36.423  
C04  39417622.903          30.774  
C07  38903611.012          25.191  
C08  36163567.207          44.538  
C24  22329447.829          40.601  
C31  21533383.189          42.465  
C35  22686177.741          44.374  
> 2026 05 10 01 18  0.0000000  0  9
C01  38421546.980          33.467  
C03  38516355.155          26.001  
C04  39415536.518          28.552  
C07  38914116.136          33.412  
C08  36163653.347          44.419  
C24  22325919.815          42.294  
C26  22811990.602          38.791  
C31  21529724.297          46.906  
C35  22696701.520          41.838  
> 2026 05 10 01 18 30.0000000  0  9
C01  38419859.708          32.439  
C03  38515250.887          31.918  
C04  39413343.930          29.207  
C07  38924560.923          32.137  
C08  36163653.462          42.186  
C10  38123787.073          37.422  
C24  22322399.629          45.928  
C26  22824805.514          37.891  
C35  22707176.586          40.026  
> 2026 05 10 01 19  0.0000000  0  6
C01  38418233.819          34.995  
C04  39411216.737          25.282  
C10  38133150.126          32.551  
C26  22837743.916          42.434  
C31  21522468.126          43.711  
C35  22717742.054          40.647  
> 2026 05 10 01 19 30.0000000  0  8
C01  38416566.327          24.569  
C03  38513128.260          34.114  
C07  38945548.245          32.145  
C08  36163728.446          43.514  
C10  38142494.357          33.587  
C24  22315714.169          42.581  
C31  21518927.618          44.831  
C35  22728314.860          44.502  
> 2026 05 10 01 20  0.0000000  0  9
C01  38414916.800          28.222  
C03  38512053.266          32.492  
C07  38956057.558          27.915  
C08  36163754.356          41.724  
C10  38151871.749          38.245  
C24  22312501.101          42.475  
C26  22863785.029          40.689  
C31  21515454.811          45.487  
C35  22738928.620          41.389  
> 2026 05 10 01 20 30.0000000  0 10
C03  38510964.633          28.742  
C04  39404727.079          24.736  
C07  38966560.349          30.366  
C08  36163769.786          41.780  
C10  38161249.524          33.169  
C24  22309370.470          41.864  
C26  22876902.821          39.903  
C31  21512026.154          41.156  
C34  24776660.989          31.860  
C35  22749572.578          39.641  
> 2026 05 10 01 21  0.0000000  0  8
C01  38411602.356          26.814  
C03  38509886.906          24.695  
C04  39402570.189          31.202  
C08  36163805.800          44.212  
C10  38170668.560          30.580  
C24  22306355.268          39.991  
C26  22890108.495          39.533  
C35  22760264.075          37.702  
> 2026 05 10 01 21 30.0000000  0  6
C01  38409970.714          24.343  
C03  38508832.076          32.575  
C04  39400436.529          28.643  
C07  38987643.710          28.337  
C24  22303446.414          41.056  
C35  22771010.269          42.333  
> 2026 05 10 01 22  0.0000000  0  7
C03  38507689.793          28.190  
C04  39398221.213          26.505  
C08  36163826.737          48.171  
C10  38189525.768          34.473  
C24  22300557.575          44.874  
C26  22916693.987          41.633  
C35  22781721.914          41.134  
> 2026 05 10 01 22 30.0000000  0  7
C01  38406619.860          21.847  
C04  39396068.387          24.193  
C07  39008700.919          29.365  
C08  36163859.897          48.471  
C26  22930110.675          40.377  
C34  24717768.438          29.312  
C35  22792519.699          42.825  
> 2026 05 10 01 23  0.0000000  0  6
C01  38404943.085          18.708  
C08  36163863.729          43.874  
C24  22295151.618          42.888  
C26  22943569.467          37.702  
C31  21495798.432          42.920  
C34  24703102.088          27.772  
> 2026 05 10 01 23 30.0000000  0  8
C01  38403289.382          24.115  
C03  38504396.634          27.163  
C04  39391724.405          17.334  
C07  39029809.242          34.197  
C08  36163877.063          44.686  
C10  38217961.721          31.653  
C26  22957108.507          39.004  
C35  22814185.449          35.470  
> 2026 05 10 01 24  0.0000000  0  6
C01  38401636.601          24.433  
C08  36163897.902          44.963  
C10  38227489.464          36.897  
C24  22290126.241          42.868  
C26  22970723.673          39.119  
C31  21489723.664          44.718  
> 2026 05 10 01 24 30.0000000  0 10
C01  38399985.968          23.508  
C03  38502212.028          32.355  
C04  39387423.356          27.903  
C07  39050994.177          26.652  
C08  36163920.018          40.949  
C24  22287759.989          39.212  
C26  22984410.787          35.496  
C31  21486779.097          42.401  
C34  24659354.266          31.206  
C35  22836016.801          39.883  
> 2026 05 10 01 25  0.0000000  0  7
C01  38398265.936          22.118  
C03  38501043.954          31.759  
C07  39061525.547          32.048  
C08  36163872.393          41.694  
C26  22998099.895          42.765  
C34  24644780.217          24.310  
C35  22846917.529          39.162  
> 2026 05 10 01 25 30.0000000  0  8
C01  38396604.809          23.760  
C03  38499930.171          37.536  
C04  39383041.759          29.847  
C08  36163885.870          47.026  
C10  38256091.722          37.070  
C24  22283241.845          43.700  
C31  21480990.774          41.061  
C35  22857910.429          39.304  
> 2026 05 10 01 26  0.0000000  0  9
C01  38394945.293          20.741  
C03  38498816.198          33.995  
C04  39380884.986          26.227  
C07  39082746.635          32.756  
C10  38265677.185          32.534  
C24  22281150.074          43.121  
C31  21478215.753          47.910  
C34  24615820.309          26.834  
C35  22868936.925          44.776  
> 2026 05 10 01 26 30.0000000  0  9
C01  38393274.127          19.584  
C03  38497681.181          29.533  
C04  39378711.117          25.686  
C07  39093362.108          32.468  
C08  36163897.791          43.416  
C10  38275277.706          34.883  
C24  22279144.814          44.737  
C26  23039730.108          41.793  
C35  22879985.943          42.849  
> 2026 05 10 01 27  0.0000000  0 10
C01  38391586.437          21.378  
C03  38496535.199          34.185  
C04  39376523.829          29.972  
C08  36163873.245          41.869  
C10  38284866.273          33.093  
C24  22277213.732          38.823  
C26  23053713.625          36.065  
C31  21472789.488          46.750  
C34  24586953.034          24.091  
C35  22891047.778          39.581  
> 2026 05 10 01 27 30.0000000  0 10
C01  38389921.260          23.484  
C03  38495409.768          31.578  
C04  39374359.859          24.395  
C07  39114599.341          23.980  
C08  36163875.147          44.775  
C10  38294500.195          31.298  
C24  22275401.781          43.808  
C26  23067790.403          38.293  
C31  21470180.735          49.044  
C34  24572574.928          30.463  
> 2026 05 10 01 28  0.0000000  0  9
C01  38388238.501          24.443  
C03  38494253.233          35.881  
C04  39372171.905          25.646  
C07  39125215.299          31.019  
C08  36163855.833          45.073  
C10  38304128.584          32.540  
C31  21467605.426          43.780  
C34  24558210.023          25.620  
C35  22913296.049          42.151  
> 2026 05 10 01 28 30.0000000  0  8
C01  38386529.604          25.360  
C03  38493065.728          26.695  
C04  39369979.568          19.227  
C08  36163810.828          42.835  
C10  38313763.587          35.867  
C26  23096076.394          41.199  
C31  21465071.397          45.330  
C34  24543862.105          26.618  
> 2026 05 10 01 29  0.0000000  0  8
C01  38384836.885          18.220  
C07  39146476.415          30.437  
C08  36163786.628          43.794  
C10  38323429.335          36.341  
C24  22270460.250          38.071  
C31  21462611.718          46.615  
C34  24529560.687          31.005  
C35  22935632.757          39.854  
> 2026 05 10 01 29 30.0000000  0  5
C01  38383180.473          14.327  
C08  36163795.388          43.309  
C10  38333143.303          32.984  
C26  23124674.318          38.189  
C31  21460245.498          43.707  
> 2026 05 10 01 30  0.0000000  0 10
C01  38381477.892          17.053  
C03  38489593.381          29.972  
C04  39363428.168          16.903  
C07  39167783.815          28.898  
C08  36163747.898          44.349  
C10  38342824.754          32.297  
C26  23139036.370          38.072  
C31  21457877.961          42.451  
C34  24501076.790          26.964  
C35  22958129.969          38.035  
> 2026 05 10 01 30 30.0000000  0  8
C01  38555847.827          19.662  
C03  38579436.566          29.044  
C07  39178439.643          21.934  
C08  36163698.189          41.472  
C10  38352506.795          30.877  
C24  22266384.120          45.128  
C26  23153457.208          39.449  
C34  24486853.949          25.514  
> 2026 05 10 01 31  0.0000000  0  9
C01  38554483.728          18.154  
C03  38578777.890          30.871  
C07  39189130.356          18.429  
C08  36163681.221          44.717  
C10  38362254.390          28.610  
C26  23167983.669          38.880  
C31  21453353.402          43.465  
C34  24472706.874          20.697  
C35  22980733.735          43.735  
> 2026 05 10 01 31 30.0000000  0  5
C08  36163642.969          47.481  
C10  38371989.067          22.878  
C24  22264160.310          41.284  
C31  21451169.995          47.020  
C34  24458568.701          13.917  
> 2026 05 10 01 32  0.0000000  0  6
C01  38551701.823          18.615  
C03  38577399.374          33.710  
C07  39210477.740          16.647  
C26  23197167.818          40.149  
C31  21449038.979          41.562  
C34  24444448.699          13.694  
> 2026 05 10 01 32 30.0000000  0  7
C01  38550317.451          22.161  
C03  38576702.893          36.447  
C07  39221165.381          25.186  
C26  23211857.439          37.392  
C31  21446970.597          47.471  
C34  24430358.960          17.707  
C35  23014847.395          39.323  
> 2026 05 10 01 33  0.0000000  0  7
C01  38548919.184          18.647  
C07  39231866.830          15.679  
C24  22261499.993          42.950  
C26  23226607.511          42.709  
C31  21444955.459          43.722  
C34  24416305.490          18.552  
C35  23026280.369          36.911  
> 2026 05 10 01 33 30.0000000  0 10
C01  38547521.898          20.441  
C03  38575291.569          28.318  
C07  39242556.681          20.267  
