     3.04           OBSERVATION DATA    C: BDS              RINEX VERSION / TYPE
DataSimulator       BUPT-GNSS           20260518 115408     PGM / RUN BY / DATE
BDS SPP Simulated Observation Data                          COMMENT
BUPT_Shahe                                                  MARKER NAME
 -2161962.4351  4376609.9016  4091389.4091                  APPROX POSITION XYZ
0.0000        0.0000        0.0000                          ANTENNA: DELTA H/E/N
C    2 C2I S2I                                              SYS / # / OBS TYPES
                                                         BDTTIME OF FIRST OBS
    30.000                                                  INTERVAL
                                                            END OF HEADER
> 2026 05 10 00 00  0.0000000  0 11
C03  38557544.199          28.136  
C04  39519795.303          28.397  
C07  37446381.079          36.411  
C08  36158240.352          47.412  
C10  36914865.658          41.371  
C24  23816240.991          36.827  
C26  21786317.459          42.172  
C29  24424578.981          25.999  
C31  22833480.211          40.582  
C35  21651972.928          43.107  
C39  24198912.130          35.653  
> 2026 05 10 00 00 30.0000000  0  6
C01  38490184.216          34.261  
C03  38556819.440          27.232  
C07  37454440.145          44.624  
C29  24440736.766          32.638  
C31  22820545.102          38.727  
C39  24214965.216          34.173  
> 2026 05 10 00 01  0.0000000  0 10
C01  38488590.631          34.056  
C03  38556057.217          26.464  
C08  36157861.207          41.302  
C10  36926626.203          43.445  
C24  23787754.275          34.317  
C26  21786451.056          47.165  
C29  24456870.945          31.995  
C31  22807626.448          37.448  
C35  21655829.455          44.952  
C39  24231021.973          35.370  
> 2026 05 10 00 01 30.0000000  0  5
C01  38487008.216          30.777  
C07  37470558.470          38.314  
C10  36932538.212          42.806  
C29  24473048.584          32.492  
C39  24247141.710          31.917  
> 2026 05 10 00 02  0.0000000  0 10
C01  38485442.782          36.627  
C07  37478682.152          35.742  
C08  36157511.853          43.015  
C10  36938503.472          43.979  
C24  23759446.922          36.201  
C26  21786931.374          47.408  
C29  24489269.037          30.898  
C31  22782002.912          40.470  
C35  21659988.744          45.244  
C39  24263334.340          26.162  
> 2026 05 10 00 02 30.0000000  0  8
C01  38483871.538          33.112  
C04  39510144.538          29.980  
C07  37486819.641          35.347  
C08  36157353.919          43.750  
C24  23745361.367          33.837  
C29  24505504.092          27.413  
C31  22769279.933          40.615  
C39  24279557.785          27.171  
> 2026 05 10 00 03  0.0000000  0 10
C01  38482287.377          22.583  
C04  39508202.162          26.743  
C07  37494966.821          38.308  
C08  36157187.325          47.777  
C10  36950478.595          42.779  
C24  23731310.072          39.223  
C26  21787743.160          42.911  
C29  24521748.730          24.307  
C35  21664444.026          45.294  
C39  24295818.948          23.222  
> 2026 05 10 00 03 30.0000000  0 10
C01  38480670.048          32.688  
C03  38552257.348          23.582  
C04  39506227.656          28.708  
C07  37503106.760          37.934  
C08  36156997.952          44.833  
C10  36956471.559          43.291  
C24  23717272.613          37.531  
C29  24537993.094          19.311  
C35  21666747.105          39.757  
C39  24312091.898          25.581  
> 2026 05 10 00 04  0.0000000  0  9
C01  38479067.810          35.234  
C03  38551464.770          26.059  
C04  39504267.124          17.735  
C07  37511281.141          38.248  
C08  36156829.250          44.340  
C24  23703296.780          37.611  
C26  21788837.063          44.967  
C29  24554257.409          22.551  
C31  22731363.942          40.300  
> 2026 05 10 00 04 30.0000000  0  9
C01  38477508.021          32.359  
C03  38550721.078          29.938  
C04  39502358.154          21.916  
C08  36156717.535          43.606  
C10  36968608.956          41.821  
C24  23689412.309          36.126  
C29  24570604.003          16.245  
C31  22718888.103          37.937  
C35  21671651.935          48.290  
> 2026 05 10 00 05  0.0000000  0  7
C01  38475896.734          30.047  
C04  39500394.622          20.948  
C08  36156554.275          43.472  
C10  36974684.874          44.126  
C26  21790331.866          45.674  
C29  24586906.218          16.169  
C31  22706412.553          35.977  
> 2026 05 10 00 05 30.0000000  0 12
C01  38474304.479          30.788  
C03  38549124.188          29.315  
C04  39498448.858          22.082  
C07  37535988.430          37.601  
C08  36156417.853          42.076  
C10  36980807.737          43.589  
C24  23661691.898          39.968  
C26  21791199.548          44.229  
C29  24603248.667          16.968  
C31  22694012.792          39.587  
C35  21676806.720          42.052  
C39  24377732.609          36.249  
> 2026 05 10 00 06  0.0000000  0 11
C01  38472697.010          31.339  
C03  38548313.610          27.812  
C04  39496482.328          17.503  
C07  37544244.316          40.468  
C08  36156270.718          44.646  
C10  36986940.714          40.813  
C24  23647894.483          36.915  
C26  21792132.525          45.003  
C29  24619583.339          23.647  
C31  22681655.634          40.522  
C39  24394233.246          35.477  
> 2026 05 10 00 06 30.0000000  0 10
C01  38471103.279          25.832  
C03  38547516.002          32.316  
C04  39494537.370          26.964  
C07  37552538.758          34.555  
C10  36993115.253          36.425  
C24  23634160.360          37.622  
C26  21793168.264          41.220  
C29  24635967.185          18.907  
C31  22669371.596          39.910  
C39  24410798.379          33.248  
> 2026 05 10 00 07  0.0000000  0 11
C01  38469513.036          31.188  
C03  38546713.360          31.992  
C04  39492593.753          22.599  
C07  37560857.920          42.432  
C08  36156034.024          44.746  
C10  36999319.968          42.095  
C24  23620478.584          34.529  
C26  21794296.585          45.560  
C29  24652379.805          17.916  
C35  21685108.337          43.992  
C39  24427416.920          33.168  
> 2026 05 10 00 07 30.0000000  0  9
C01  38467912.784          28.212  
C03  38545905.021          34.660  
C04  39490643.797          23.442  
C08  36155919.770          40.534  
C10  37005546.521          42.394  
C26  21795505.213          43.230  
C29  24668798.168          11.644  
C31  22644975.844          41.158  
C35  21688021.682          46.620  
> 2026 05 10 00 08  0.0000000  0 10
C03  38545081.501          30.604  
C04  39488696.241          26.602  
C07  37577542.598          38.918  
C08  36155803.875          46.334  
C10  37011790.360          43.578  
C24  23593241.026          38.871  
C29  24685226.636          12.227  
C31  22632858.377          39.206  
C35  21691003.425          43.539  
C39  24460752.632          33.604  
> 2026 05 10 00 08 30.0000000  0  9
C01  38464701.341          32.710  
C03  38544253.688          29.594  
C04  39486740.795          25.554  
C08  36155703.749          45.751  
C26  21798170.952          43.940  
C29  24701671.414          16.055  
C31  22620801.699          37.982  
C35  21694062.122          42.967  
C39  24477492.460          30.378  
> 2026 05 10 00 09  0.0000000  0  9
C01  38463094.033          33.335  
C03  38543419.180          26.344  
C04  39484786.366          27.878  
C07  37594315.188          36.023  
C26  21799633.961          45.380  
C29  24718141.102          15.711  
C31  22608802.462          38.112  
C35  21697192.203          46.204  
C39  24494270.841          26.845  
> 2026 05 10 00 09 30.0000000  0 10
C03  38542540.411          29.318  
C04  39482778.431          23.130  
C07  37602680.947          37.887  
C08  36155462.861          44.659  
C10  37030637.774          40.821  
C26  21801128.300          44.544  
C29  24734571.103          20.691  
C31  22596808.607          33.610  
C35  21700339.152          44.579  
C39  24511034.524          28.391  
> 2026 05 10 00 10  0.0000000  0  7
C01  38459860.718          24.381  
C03  38541733.795          31.035  
C07  37611148.878          36.339  
C08  36155407.475          43.085  
C10  37037021.318          42.918  
C31  22584956.683          35.213  
C39  24527926.001          29.286  
> 2026 05 10 00 10 30.0000000  0  6
C03  38540860.593          27.238  
C04  39478860.344          22.776  
C07  37619580.407          35.962  
C29  24767591.623          24.050  
C35  21706959.237          42.898  
C39  24544801.885          23.931  
> 2026 05 10 00 11  0.0000000  0  8
C01  38456604.476          31.775  
C03  38540010.971          31.059  
C08  36155221.857          43.772  
C24  23512671.992          41.068  
C26  21806292.775          44.620  
C29  24784117.350          27.430  
C31  22561330.447          39.782  
C35  21710369.665          44.823  
> 2026 05 10 00 11 30.0000000  0  7
C03  38539149.674          32.354  
C04  39474922.688          17.371  
C08  36155136.329          48.120  
C29  24800655.629          25.327  
C31  22549608.590          38.845  
C35  21713838.434          47.875  
C39  24578699.458          27.609  
> 2026 05 10 00 12  0.0000000  0 11
C01  38453373.293          31.053  
C03  38538309.245          32.546  
C04  39472975.577          17.337  
C07  37645071.891          35.573  
C08  36155090.397          46.188  
C10  37062653.253          42.937  
C24  23486240.130          35.936  
C26  21810171.250          43.422  
C29  24817246.701          24.278  
C35  21717414.199          46.914  
C39  24595746.167          21.595  
> 2026 05 10 00 12 30.0000000  0  8
C01  38451721.098          32.540  
C03  38537413.268          31.824  
C07  37653578.453          40.886  
C08  36155003.053          45.022  
C10  37069098.276          37.854  
C24  23473071.725          39.266  
C29  24833800.405          18.925  
C31  22526352.615          40.519  
> 2026 05 10 00 13  0.0000000  0  9
C01  38450101.875          34.442  
C03  38536545.607          31.666  
C07  37662137.125          37.004  
C08  36154949.405          45.971  
C24  23459980.684          36.431  
C26  21814359.052          41.985  
C29  24850394.447          18.747  
C31  22514818.930          39.312  
C35  21724704.068          43.295  
> 2026 05 10 00 13 30.0000000  0 10
C01  38448425.395          33.958  
C04  39466991.810          10.000  
C07  37670667.196          36.910  
C10  37082077.583          36.407  
C24  23446898.681          38.157  
C26  21816548.882          43.424  
C29  24866956.995          23.052  
C31  22503296.718          42.326  
C35  21728421.095          45.907  
C39  24646968.587          18.352  
> 2026 05 10 00 14  0.0000000  0 10
C01  38446776.164          36.584  
C04  39464987.354          14.414  
C07  37679238.193          34.438  
C08  36154783.461          44.196  
C10  37088607.137          43.234  
C24  23433892.973          40.038  
C26  21818849.926          44.960  
C29  24883562.361          12.451  
C35  21732231.020          41.018  
C39  24664123.129          13.073  
> 2026 05 10 00 14 30.0000000  0 10
C03  38533857.667          37.172  
C04  39463034.895          21.058  
C07  37687885.218          38.134  
C08  36154773.173          42.890  
C10  37095213.837          40.840  
C24  23420991.704          38.409  
C26  21821289.765          45.381  
C31  22480529.043          38.075  
C35  21736162.154          44.778  
C39  24681363.888          19.323  
> 2026 05 10 00 15  0.0000000  0  9
C01  38443536.267          34.543  
C03  38532948.030          30.449  
C04  39461042.437          16.750  
C07  37696505.975          31.161  
C08  36154724.639          46.524  
C10  37101799.602          38.293  
C24  23408101.793          41.404  
C35  21740119.887          43.179  
C39  24698594.123          24.601  
> 2026 05 10 00 15 30.0000000  0 10
C01  38441878.187          29.999  
C03  38532034.953          33.587  
C04  39459040.812          21.311  
C07  37705139.402          35.118  
C08  36154675.859          43.523  
C10  37108406.156          41.889  
C24  23395257.950          33.904  
C31  22457955.811          41.629  
C35  21744138.804          46.317  
C39  24715865.980          22.966  
> 2026 05 10 00 16  0.0000000  0  7
C01  38440234.967          28.151  
C03  38531126.036          32.109  
C08  36154643.081          42.511  
C24  23382484.731          42.999  
C31  22446772.857          40.990  
C35  21748244.041          46.046  
C39  24733179.341          30.817  
> 2026 05 10 00 16 30.0000000  0  9
C03  38530204.304          34.833  
C04  39455046.749          14.149  
C07  37722479.280          36.240  
C08  36154601.980          43.791  
C10  37121700.932          42.045  
C26  21831735.482          45.873  
C31  22435630.149          39.018  
C35  21752395.746          48.734  
C39  24750515.843          31.185  
> 2026 05 10 00 17  0.0000000  0  7
C01  38436925.201          29.254  
C03  38529278.869          28.702  
C07  37731172.119          30.611  
C08  36154567.621          46.119  
C24  23357073.996          39.403  
C26  21834558.096          39.652  
C35  21756623.682          43.515  
> 2026 05 10 00 17 30.0000000  0 11
C01  38435252.971          27.583  
C03  38528330.322          29.191  
C04  39451021.364          15.157  
C07  37739874.447          38.057  
C08  36154527.790          48.060  
C10  37135076.445          40.693  
C24  23344441.944          40.306  
C26  21837459.138          45.472  
C31  22413519.405          40.798  
C35  21760907.667          40.225  
C39  24785310.901          28.182  
> 2026 05 10 00 18  0.0000000  0  8
C01  38433611.979          32.263  
C07  37748628.271          37.865  
C08  36154524.601          46.201  
C10  37141825.242          38.488  
C24  23331899.743          37.529  
C31  22402578.491          40.861  
C35  21765288.537          43.218  
C39  24802787.230          30.362  
> 2026 05 10 00 18 30.0000000  0 11
C01  38431966.917          33.813  
C03  38526480.180          28.359  
C04  39447041.763          12.015  
C07  37757400.537          38.091  
C08  36154525.550          46.138  
C10  37148601.334          39.227  
C24  23319412.843          40.009  
C26  21843581.805          40.317  
C31  22391702.388          35.067  
C35  21769738.211          47.114  
C39  24820300.487          33.310  
> 2026 05 10 00 19  0.0000000  0 10
C01  38430288.488          40.267  
C03  38525509.929          30.207  
C04  39444998.763          12.355  
C07  37766150.462          38.417  
C08  36154491.762          40.898  
C24  23306943.332          40.792  
C26  21846736.883          43.439  
C31  22380843.321          39.244  
C35  21774214.366          45.639  
C39  24837822.015          20.755  
> 2026 05 10 00 19 30.0000000  0 10
C01  38428644.809          35.861  
C03  38524573.152          32.976  
C04  39442999.185          22.889  
C07  37774962.844          37.456  
C08  36154505.481          44.792  
C10  37162191.061          43.153  
C24  23294571.784          37.700  
C26  21850017.997          43.405  
C31  22370087.035          42.862  
C35  21778801.332          48.420  
> 2026 05 10 00 20  0.0000000  0  9
C01  38426952.285          37.996  
C03  38523587.166          30.353  
C04  39440953.256          29.453  
C08  36154480.727          42.203  
C10  37168997.487          36.569  
C24  23282219.891          41.689  
C26  21853344.890          43.546  
C31  22359352.813          40.278  
C35  21783412.355          45.492  
> 2026 05 10 00 20 30.0000000  0  7
C01  38425283.763          35.640  
C07  37792583.245          38.786  
C10  37175855.505          41.313  
C24  23269944.180          37.838  
C26  21856782.171          43.840  
C31  22348696.596          42.835  
C35  21788108.097          44.543  
> 2026 05 10 00 21  0.0000000  0  8
C01  38423590.112          33.734  
C03  38521631.866          28.577  
C07  37801411.831          34.357  
C08  36154469.169          46.482  
C24  23257708.506          39.390  
C26  21860281.567          44.554  
C35  21792854.744          44.029  
C39  24908271.445          15.613  
> 2026 05 10 00 21 30.0000000  0 10
C01  38421915.085          34.495  
C03  38520661.649          32.177  
C07  37810282.183          35.936  
C08  36154483.416          46.919  
C10  37189622.456          40.020  
C24  23245557.258          35.542  
C26  21863895.170          43.864  
C31  22327551.738          43.821  
C35  21797685.735          44.668  
C39  24925984.047          13.272  
> 2026 05 10 00 22  0.0000000  0 10
C01  38420241.033          33.644  
C03  38519676.819          25.476  
C04  39432835.049          28.446  
C07  37819164.375          36.939  
C10  37196548.783          40.234  
C24  23233453.740          42.799  
C26  21867587.087          41.492  
C31  22317073.005          38.923  
C35  21802575.795          42.672  
C39  24943716.740          11.422  
> 2026 05 10 00 22 30.0000000  0 10
C01  38418564.924          36.825  
C03  38518704.396          28.394  
C07  37828077.582          35.891  
C08  36154522.357          45.060  
C10  37203511.106          37.735  
C24  23221424.054          37.363  
C26  21871377.840          45.733  
C31  22306672.273          39.723  
C35  21807544.800          43.256  
C39  24961494.120          10.441  
> 2026 05 10 00 23  0.0000000  0 11
C01  38416856.424          30.345  
C03  38517694.511          32.322  
C04  39428754.334          30.188  
C07  37836977.045          38.079  
C08  36154520.558          45.384  
C10  37210465.636          41.266  
C24  23209424.904          39.836  
C26  21875225.088          44.861  
C31  22296298.215          40.779  
C35  21812548.545          43.814  
C39  24979275.014          17.319  
> 2026 05 10 00 23 30.0000000  0  7
C01  38415183.082          33.507  
C03  38516706.186          28.658  
C04  39426730.515          27.036  
C08  36154551.784          44.185  
C26  21879183.751          47.041  
C35  21817640.850          46.138  
C39  24997115.610          10.882  
> 2026 05 10 00 24  0.0000000  0  8
C01  38413465.890          34.644  
C03  38515674.315          28.359  
C04  39424651.907          32.416  
C08  36154550.912          43.867  
C10  37224466.624          39.688  
C24  23185619.341          40.098  
C26  21883193.605          43.904  
C39  25014946.550          19.135  
> 2026 05 10 00 24 30.0000000  0 11
C01  38411793.385          29.326  
C03  38514686.514          29.281  
C04  39422629.926          30.430  
C07  37863842.529          39.007  
C08  36154600.648          45.278  
C10  37231530.221          39.638  
C24  23173835.142          38.741  
C26  21887338.523          47.621  
C31  22265598.140          46.205  
C35  21827995.692          48.690  
C39  25032863.758          20.050  
> 2026 05 10 00 25  0.0000000  0 10
C01  38410091.160          32.252  
C03  38513681.848          29.955  
C04  39420581.631          32.671  
C07  37872834.381          39.069  
C08  36154635.527          44.199  
C10  37238604.592          39.637  
C24  23162098.735          37.291  
C26  21891553.223          43.868  
C31  22255489.663          39.509  
C35  21833275.854          42.245  
> 2026 05 10 00 25 30.0000000  0  9
C01  38408397.259          32.871  
C07  37881854.107          36.058  
C08  36154678.241          45.451  
C10  37245702.182          37.233  
C24  23150425.743          41.696  
C26  21895858.667          42.403  
C31  22245442.428          39.753  
C35  21838619.668          43.701  
C39  25068758.755          21.378  
> 2026 05 10 00 26  0.0000000  0  7
C01  38406668.609          29.432  
C08  36154696.223          46.734  
C10  37252796.313          41.396  
C24  23138783.943          39.182  
C26  21900219.511          44.679  
C35  21843999.498          41.965  
C39  25086727.669          20.551  
> 2026 05 10 00 26 30.0000000  0 10
C01  38404964.930          26.227  
C03  38510602.240          28.707  
C04  39414408.981          27.076  
C07  37899907.355          39.810  
C08  36154745.163          43.659  
C10  37259943.067          40.974  
C24  23127235.785          39.154  
C31  22225511.693          42.295  
C35  21849468.660          44.503  
C39  25104754.120          17.046  
> 2026 05 10 00 27  0.0000000  0  8
C01  38403251.669          26.260  
C07  37908961.158          34.539  
C08  36154783.181          45.371  
C10  37267099.048          37.675  
C24  23115732.413          37.994  
C26  21909246.054          43.318  
C31  22215634.993          41.622  
C39  25122799.292          20.125  
> 2026 05 10 00 27 30.0000000  0 11
C01  38401531.803          29.916  
C03  38508507.268          23.052  
C04  39410257.024          31.280  
C07  37918027.222          36.491  
C08  36154819.573          44.519  
C10  37274276.961          38.453  
C24  23104288.690          39.163  
C26  21913875.336          44.156  
C31  22205816.983          40.241  
C35  21860562.327          46.893  
C39  25140863.615          23.737  
> 2026 05 10 00 28  0.0000000  0  9
C01  38399818.943          34.434  
C04  39408196.539          34.095  
C07  37927126.699          36.953  
C08  36154871.477          44.247  
C24  23092921.724          37.825  
C26  21918607.768          43.511  
C31  22196073.792          42.015  
C35  21866213.455          44.976  
C39  25158979.597          20.107  
> 2026 05 10 00 28 30.0000000  0  9
C01  38398112.136          27.713  
C03  38506429.289          36.695  
C04  39406123.352          27.342  
C07  37936253.211          33.119  
C08  36154937.669          43.714  
C10  37288735.389          36.055  
C24  23081625.140          42.521  
C26  21923431.078          46.236  
C39  25177132.214          20.739  
> 2026 05 10 00 29  0.0000000  0  8
C03  38505358.496          28.509  
C04  39404031.111          26.891  
C07  37945363.863          32.984  
C08  36154975.845          41.608  
C10  37295971.352          41.485  
C24  23070363.308          39.824  
C26  21928313.104          45.416  
C39  25195284.077          18.143  
> 2026 05 10 00 29 30.0000000  0  6
C04  39401984.461          35.392  
C08  36155056.981          45.540  
C10  37303273.270          41.681  
C26  21933323.057          44.522  
C31  22167216.773          38.081  
C35  21883540.270          43.601  
> 2026 05 10 00 30  0.0000000  0  7
C01  38392961.733          32.802  
C07  37963711.328          35.953  
C08  36155132.215          45.923  
C24  23048098.558          38.585  
C26  21938405.402          40.800  
C31  22157729.813          42.374  
C39  25231735.524          27.677  
> 2026 05 10 00 30 30.0000000  0  9
C01  38567417.481          34.134  
C03  38593315.960          33.467  
C07  37972882.157          37.992  
C08  36155180.960          42.345  
C24  23037039.322          37.835  
C26  21943551.581          46.292  
C31  22148279.539          40.197  
C35  21895383.124          41.589  
C39  25249986.107          22.504  
> 2026 05 10 00 31  0.0000000  0  7
C01  38566002.021          33.264  
C07  37982083.424          36.722  
C08  36155249.735          43.044  
C10  37325258.314          40.260  
C24  23026052.872          39.046  
C35  21901394.799          46.495  
C39  25268276.772          12.705  
> 2026 05 10 00 31 30.0000000  0  9
C01  38564560.501          27.682  
C03  38592144.785          30.549  
C08  36155298.546          41.285  
C10  37332614.484          38.651  
C24  23015115.777          39.878  
C26  21954108.944          48.219  
C31  22129564.184          37.303  
C35  21907445.430          44.818  
C39  25286566.502          18.531  
> 2026 05 10 00 32  0.0000000  0 10
C01  38563121.022          29.308  
C03  38591543.602          26.392  
C07  38000503.213          37.606  
C08  36155360.362          44.669  
C10  37340002.460          38.746  
C24  23004246.651          39.301  
C26  21959516.778          44.449  
C31  22120298.563          39.677  
C35  21913565.436          44.270  
C39  25304895.213          19.189  
> 2026 05 10 00 32 30.0000000  0  8
C01  38561727.872          28.591  
C03  38590989.844          28.412  
C08  36155467.423          46.932  
C10  37347459.638          37.581  
C24  22993490.861          41.065  
C26  21965053.580          42.426  
C35  21919791.373          43.643  
C39  25323281.520          32.582  
> 2026 05 10 00 33  0.0000000  0  7
C03  38590385.444          33.513  
C07  38019046.251          36.870  
C08  36155530.480          40.677  
C10  37354888.915          42.400  
C24  22982754.982          38.989  
C31  22101996.992          41.041  
C35  21926023.718          41.579  
> 2026 05 10 00 33 30.0000000  0  5
C01  38558873.806          21.290  
C07  38028360.121          30.628  
C08  36155639.523          43.535  
C24  22972131.152          40.834  
C26  21976335.758          45.457  
> 2026 05 10 00 34  0.0000000  0  6
C01  38557407.538          22.479  
C07  38037640.102          31.553  
C08  36155695.296          44.229  
C24  22961514.572          39.274  
C26  21982073.413          41.106  
C31  22083927.952          42.820  
> 2026 05 10 00 34 30.0000000  0  8
C01  38555972.691          23.788  
C03  38588595.413          32.741  
C07  38046974.547          31.237  
C08  36155793.913          41.706  
C10  37377391.307          38.193  
C24  22951010.497          39.930  
C26  21987934.315          41.962  
C35  21945142.708          44.255  
> 2026 05 10 00 35  0.0000000  0  6
C01  38554520.960          25.062  
C07  38056310.467          30.132  
C10  37384930.901          42.239  
C26  21993866.561          44.456  
C31  22066112.828          41.582  
C35  21951620.049          43.471  
> 2026 05 10 00 35 30.0000000  0  9
C01  38553057.332          31.447  
C03  38587353.071          31.007  
C07  38065653.796          31.628  
C08  36155954.459          44.981  
C10  37392484.129          38.687  
C24  22930155.343          39.638  
C26  21999876.243          39.984  
C31  22057283.843          43.740  
C35  21958150.513          41.937  
> 2026 05 10 00 36  0.0000000  0  7
C01  38551591.609          26.920  
C03  38586711.894          34.045  
C07  38075017.363          36.702  
C08  36156031.891          46.791  
C10  37400059.358          38.234  
C24  22919822.666          39.990  
C35  21964735.089          41.849  
> 2026 05 10 00 36 30.0000000  0  5
C03  38586101.922          31.874  
C07  38084414.423          30.139  
C08  36156134.547          47.033  
C24  22909588.153          37.682  
C31  22039828.474          41.889  
> 2026 05 10 00 37  0.0000000  0  5
C01  38548669.085          26.406  
C07  38093800.183          22.164  
C10  37415296.942          39.847  
C26  22018427.897          44.849  
C35  21978090.392          42.451  
> 2026 05 10 00 37 30.0000000  0  8
C01  38547221.389          24.875  
C03  38584816.958          31.974  
C07  38103236.554          23.792  
C08  36156320.577          45.004  
C24  22889292.699          36.396  
C26  22024807.557          42.379  
C31  22022614.248          44.244  
C35  21984872.139          43.861  
> 2026 05 10 00 38  0.0000000  0  6
C03  38584159.700          32.374  
C07  38112663.146          28.799  
C10  37430636.500          42.449  
C24  22879232.126          39.419  
C31  22014087.955          42.129  
C35  21991677.985          41.482  
> 2026 05 10 00 38 30.0000000  0  7
C01  38544280.652          30.550  
C03  38583526.457          31.550  
C08  36156511.109          43.810  
C10  37438356.090          38.403  
C24  22869274.909          36.152  
C26  22037789.393          42.644  
C31  22005656.015          41.711  
> 2026 05 10 00 39  0.0000000  0  6
C03  38582841.262          33.132  
C07  38131585.122          23.103  
C08  36156587.886          42.469  
C10  37446060.009          36.326  
C24  22859348.883          38.506  
C31  21997241.716          42.736  
> 2026 05 10 00 39 30.0000000  0  7
C01  38541318.345          34.218  
C03  38582189.445          32.702  
C07  38141087.101          24.371  
C08  36156697.864          45.864  
C10  37453821.014          36.937  
C24  22849524.768          36.362  
C26  22051097.456          42.109  
> 2026 05 10 00 40  0.0000000  0  7
C03  38581537.919          31.321  
C07  38150610.966          28.385  
C08  36156814.003          43.233  
C10  37461610.877          40.029  
C24  22839778.152          44.336  
C26  22057904.232          45.039  
C31  21980677.104          43.550  
> 2026 05 10 00 40 30.0000000  0  8
C01  38538374.067          30.921  
C03  38580870.324          32.082  
C07  38160132.450          26.090  
C08  36156912.897          41.179  
C10  37469401.830          37.877  
C24  22830082.329          39.293  
C26  22064774.748          41.425  
C31  21972470.101          43.847  
> 2026 05 10 00 41 30.0000000  0  8
C01  38535422.881          28.099  
C03  38579532.711          31.313  
C07  38179238.310          26.975  
C08  36157127.157          45.380  
C10  37485075.547          38.748  
C26  22078784.973          43.797  
C31  21956258.746          42.187  
C35  22041001.662          42.005  
> 2026 05 10 00 42  0.0000000  0  8
C01  38533917.681          33.506  
C03  38578840.738          34.951  
C07  38188801.292          29.011  
C08  36157226.065          43.140  
C24  22801434.716          41.075  
C26  22085906.185          43.174  
C31  21948234.104          42.104  
C35  22048252.777          44.366  
> 2026 05 10 00 42 30.0000000  0  8
C03  38578164.154          26.989  
C07  38198401.340          28.924  
C08  36157335.658          44.625  
C10  37500829.962          38.251  
C24  22792032.854          41.897  
C26  22093127.468          41.840  
C31  21940284.731          39.943  
C35  22055572.080          43.924  
> 2026 05 10 00 43  0.0000000  0  7
C03  38577463.110          29.605  
C07  38208000.773          32.399  
C08  36157434.335          43.553  
C10  37508735.369          42.748  
C24  22782695.523          37.675  
C31  21932383.340          43.646  
C35  22062929.837          44.905  
> 2026 05 10 00 43 30.0000000  0  7
C01  38529461.771          32.787  
C03  38576778.401          31.765  
C07  38217641.272          31.798  
C08  36157558.648          40.884  
C24  22773450.066          40.335  
C26  22107816.559          43.095  
C35  22070371.277          47.121  
> 2026 05 10 00 44  0.0000000  0  7
C03  38576044.934          28.949  
C08  36157639.886          44.427  
C10  37524616.728          41.764  
C24  22764233.181          39.229  
C26  22115257.451          36.290  
C31  21916765.214          40.338  
C35  22077813.950          43.822  
> 2026 05 10 00 44 30.0000000  0  7
C07  38236944.792          31.419  
C08  36157792.809          42.846  
C10  37532641.057          42.464  
C24  22755160.823          40.395  
C26  22122851.354          42.973  
C31  21909099.170          43.923  
C35  22085383.191          38.775  
> 2026 05 10 00 45  0.0000000  0  7
C01  38524960.415          31.580  
C08  36157882.427          44.642  
C10  37540621.542          37.807  
C24  22746098.993          41.905  
C26  22130469.585          44.478  
C31  21901428.611          39.449  
C35  22092940.859          41.498  
> 2026 05 10 00 45 30.0000000  0  8
C01  38523443.776          33.758  
C03  38573928.367          31.456  
C07  38256278.990          32.294  
C08  36157986.215          42.884  
C10  37548646.664          39.362  
C24  22737129.283          38.187  
C31  21893837.747          43.259  
C35  22100568.043          43.444  
> 2026 05 10 00 46  0.0000000  0  7
C01  38521957.745          30.001  
C03  38573216.681          20.011  
C10  37556709.291          40.062  
C24  22728250.054          33.564  
C26  22146005.332          40.734  
C31  21886329.890          40.225  
C35  22108267.077          44.571  
> 2026 05 10 00 46 30.0000000  0  5
C08  36158197.576          44.269  
C10  37564754.868          38.270  
C26  22153866.762          46.762  
C31  21878836.565          45.628  
C35  22115974.021          44.296  
> 2026 05 10 00 47  0.0000000  0  5
C03  38571736.946          22.367  
C07  38285420.001          37.651  
C08  36158306.361          45.076  
C31  21871431.540          45.052  
C35  22123755.775          41.600  
> 2026 05 10 00 47 30.0000000  0  5
C01  38517432.112          32.857  
C03  38571029.408          25.917  
C08  36158440.102          43.493  
C10  37580987.111          37.451  
C35  22131617.416          40.031  
> 2026 05 10 00 48  0.0000000  0  8
C01  38515899.650          31.501  
C03  38570278.125          30.980  
C07  38304941.580          31.771  
C08  36158532.439          40.689  
C10  37589108.061          38.365  
C24  22693400.026          39.491  
C31  21856813.466          42.733  
C35  22139485.019          44.792  
> 2026 05 10 00 48 30.0000000  0  8
C01  38514383.796          34.317  
C03  38569526.982          31.765  
C08  36158634.174          44.826  
C10  37597260.388          35.680  
C24  22684872.563          41.899  
C26  22186254.375          43.327  
C31  21849586.362          42.022  
C35  22147416.040          42.321  
> 2026 05 10 00 49  0.0000000  0  9
C01  38512886.557          33.054  
C03  38568788.431          21.008  
C07  38324516.372          35.054  
C08  36158764.432          44.801  
C10  37605462.297          36.820  
C24  22676448.006          44.237  
C26  22194577.657          45.113  
C31  21842445.705          43.829  
C35  22155423.500          45.470  
> 2026 05 10 00 49 30.0000000  0  7
C03  38568037.285          24.847  
C07  38334328.889          32.010  
C08  36158879.401          41.859  
C10  37613671.488          36.701  
C26  22202971.658          41.384  
C31  21835348.421          46.022  
C35  22163463.923          44.100  
> 2026 05 10 00 50  0.0000000  0  5
C03  38567274.050          25.108  
C08  36158979.687          44.735  
C24  22659782.513          42.609  
C26  22211432.855          44.391  
C35  22171543.701          42.155  
> 2026 05 10 00 50 30.0000000  0  5
C01  38508360.666          33.339  
C03  38566549.924          26.409  
C26  22220024.850          46.047  
C31  21821362.268          43.039  
C35  22179718.144          39.160  
> 2026 05 10 00 51  0.0000000  0  8
C01  38506794.225          30.740  
C03  38565733.317          22.227  
C07  38363827.405          36.995  
C08  36159190.941          44.291  
C10  37638402.701          40.155  
C24  22643420.240          43.437  
C26  22228616.140          44.053  
C35  22187859.346          41.369  
> 2026 05 10 00 51 30.0000000  0  6
C01  38505251.977          38.942  
C03  38564950.999          24.136  
C10  37646678.412          40.340  
C24  22635346.778          38.256  
C26  22237322.581          42.418  
C35  22196080.404          43.728  
> 2026 05 10 00 52  0.0000000  0  8
C01  38503755.168          32.854  
C03  38564203.598          23.652  
C07  38383596.230          33.531  
C08  36159428.370          41.422  
C24  22627394.943          40.165  
C26  22246159.634          40.559  
C31  21800768.415          40.312  
C35  22204398.913          43.507  
> 2026 05 10 00 52 30.0000000  0  7
C01  38502222.529          34.453  
C07  38393490.461          34.265  
C08  36159534.573          44.566  
C10  37663357.090          36.162  
C24  22619486.549          43.007  
C31  21794030.233          42.069  
C35  22212726.312          43.827  
> 2026 05 10 00 53  0.0000000  0  7
C03  38562634.814          27.689  
C04  39519901.048          27.614  
C07  38403401.128          33.389  
C08  36159641.272          41.985  
C10  37671714.601          38.606  
C26  22264004.708          43.786  
C35  22221110.691          44.302  
> 2026 05 10 00 53 30.0000000  0  8
C01  38499184.627          31.734  
C03  38561871.189          23.941  
C07  38413355.121          31.910  
C08  36159773.515          42.683  
C10  37680119.127          39.269  
C24  22603933.332          41.961  
C26  22273080.597          43.010  
C31  21780766.263          43.656  
> 2026 05 10 00 54  0.0000000  0  6
C01  38497636.296          28.294  
C03  38561054.803          26.466  
C07  38423275.743          34.962  
C10  37688503.808          38.337  
C31  21774197.700          45.144  
C35  22238027.707          43.658  
> 2026 05 10 00 54 30.0000000  0  7
C04  39513758.732          33.275  
C07  38433217.015          35.125  
C08  36159958.694          48.426  
C10  37696912.837          40.732  
C24  22588642.715          40.863  
C31  21767692.231          46.315  
C35  22246542.165          39.973  
> 2026 05 10 00 55  0.0000000  0  9
C01  38494539.966          32.941  
C03  38559426.113          26.502  
C04  39511697.256          29.993  
C07  38443174.214          34.008  
C08  36160053.040          44.178  
C10  37705343.715          37.298  
C24  22581118.479          41.467  
C31  21761248.887          44.227  
C35  22255101.778          42.448  
> 2026 05 10 00 55 30.0000000  0  7
C01  38493032.601          31.446  
C03  38558643.914          25.085  
C04  39509677.679          33.350  
C10  37713834.665          39.846  
C24  22573714.976          40.418  
C26  22310075.368          42.069  
C35  22263751.667          40.288  
> 2026 05 10 00 56  0.0000000  0  7
C01  38491522.364          31.161  
C03  38557851.094          24.128  
C04  39507656.795          33.145  
C07  38463206.462          33.743  
C10  37722345.528          36.128  
C31  21748620.618          42.117  
C35  22272448.925          43.497  
> 2026 05 10 00 56 30.0000000  0  6
C03  38557004.793          24.320  
C04  39505582.734          26.178  
C07  38473189.834          36.226  
C08  36160396.363          45.864  
C10  37730826.686          38.768  
C24  22559089.816          39.658  
> 2026 05 10 00 57  0.0000000  0  6
C01  38488388.594          33.072  
C04  39503494.204          28.504  
C08  36160467.731          40.730  
C10  37739322.087          38.961  
C26  22338651.391          44.846  
C35  22289868.477          42.499  
> 2026 05 10 00 57 30.0000000  0  6
C01  38486863.150          37.705  
C04  39501455.313          28.944  
C07  38493230.816          31.179  
C08  36160591.127          47.340  
C31  21730007.976          41.819  
C35  22298696.068          45.688  
> 2026 05 10 00 58  0.0000000  0  6
C03  38554517.513          23.714  
C04  39499421.445          27.118  
C07  38503304.916          30.168  
C10  37756471.660          39.456  
C31  21723954.711          41.954  
C35  22307567.284          44.100  
> 2026 05 10 00 58 30.0000000  0  6
C04  39497351.486          28.793  
C08  36160799.359          48.337  
C10  37765050.126          35.876  
C24  22530799.512          42.479  
C26  22368010.305          40.964  
C31  21717930.838          41.726  
> 2026 05 10 00 59  0.0000000  0  6
C03  38552833.924          24.113  
C04  39495306.278          31.241  
C07  38523436.509          33.264  
C10  37773670.706          37.163  
C24  22523943.949          40.069  
C35  22325415.102          44.369  
> 2026 05 10 00 59 30.0000000  0  9
C01  38480646.150          32.707  
C03  38551931.419          21.933  
C04  39493198.246          33.894  
C07  38533473.615          34.092  
C08  36160958.931          42.958  
C10  37782251.097          40.066  
C24  22517108.619          38.811  
C31  21706054.794          41.605  
C35  22334358.116          44.790  
> 2026 05 10 01 00  0.0000000  0 10
C01  38479125.520          32.033  
C03  38551104.574          18.610  
C04  39491161.382          28.721  
C07  38543611.447          26.133  
C08  36161087.369          43.599  
C10  37790932.005          36.265  
C24  22510433.156          40.171  
C26  22398053.257          40.732  
C31  21700251.486          44.765  
C35  22343423.769          41.748  
> 2026 05 10 01 00 30.0000000  0  8
C01  38477563.140          33.924  
C07  38553708.340          26.654  
C08  36161172.658          43.545  
C10  37799588.211          35.044  
C24  22503799.481          42.201  
C26  22408219.405          42.834  
C31  21694469.155          46.769  
C35  22352495.730          37.446  
> 2026 05 10 01 01  0.0000000  0  8
C01  38476032.447          29.067  
C03  38549383.830          22.233  
C04  39487043.560          28.082  
C07  38563852.692          26.427  
C08  36161286.167          42.216  
C10  37808294.087          39.400  
C31  21688773.456          45.175  
C35  22361641.677          41.116  
> 2026 05 10 01 01 30.0000000  0  6
C01  38474456.963          26.576  
C04  39484965.394          29.719  
C07  38573965.875          31.712  
C10  37816986.186          36.713  
C31  21683107.598          44.815  
C35  22370797.666          44.538  
> 2026 05 10 01 02  0.0000000  0  7
C03  38547614.417          22.933  
C07  38584105.457          37.136  
C08  36161450.185          46.538  
C10  37825710.300          38.615  
C24  22484426.016          42.163  
C31  21677506.990          44.562  
C35  22380005.512          40.359  
> 2026 05 10 01 02 30.0000000  0  8
C03  38546731.950          16.791  
C04  39480823.421          21.641  
C07  38594263.759          31.174  
C08  36161548.970          45.527  
C10  37834460.831          40.795  
C24  22478138.536          43.354  
C31  21671978.592          42.696  
C35  22389267.497          41.506  
> 2026 05 10 01 03  0.0000000  0 10
C01  38469782.777          26.238  
C03  38545851.832          19.353  
C04  39478754.035          17.347  
C07  38604445.768          29.710  
C08  36161643.761          43.231  
C10  37843235.740          34.751  
C24  22471942.139          40.424  
C26  22460279.865          45.061  
C31  21666512.255          43.035  
C35  22398578.081          40.207  
> 2026 05 10 01 03 30.0000000  0  8
C01  38468210.657          33.687  
C03  38544949.095          19.279  
C04  39476683.464          27.992  
C07  38614627.948          31.059  
C08  36161726.834          44.120  
C10  37852015.588          36.845  
C24  22465809.967          40.523  
C31  21661091.518          43.844  
> 2026 05 10 01 04  0.0000000  0 10
C01  38466630.384          26.164  
C03  38544034.971          12.013  
C04  39474600.452          18.210  
C07  38624810.369          34.389  
C08  36161803.974          45.282  
C10  37860810.780          36.936  
C24  22459760.909          44.574  
C26  22481628.449          44.217  
C31  21655725.577          43.466  
C35  22417298.766          43.937  
> 2026 05 10 01 04 30.0000000  0  9
C01  38465088.677          32.164  
C03  38543168.626          18.435  
C04  39472551.978          19.875  
C07  38635045.123          32.794  
C10  37869664.270          36.913  
C24  22453836.455          40.827  
C26  22492455.314          41.541  
C31  21650457.430          45.567  
C35  22426758.429          40.505  
> 2026 05 10 01 05  0.0000000  0  8
C01  38463480.621          27.025  
C03  38542227.822          28.733  
C04  39470443.321          27.774  
C07  38645217.815          28.172  
C10  37878460.175          37.671  
C24  22447921.255          45.372  
C26  22503285.308          42.021  
C35  22436188.150          41.204  
> 2026 05 10 01 05 30.0000000  0  8
C01  38461882.250          29.328  
C03  38541285.062          18.626  
C04  39468334.851          19.230  
C07  38655429.592          30.566  
C08  36162018.605          44.143  
C24  22442114.119          43.317  
C31  21639974.818          44.895  
C35  22445681.876          40.663  
> 2026 05 10 01 06  0.0000000  0  6
C01  38460336.342          34.410  
C07  38665703.749          28.933  
C10  37896213.301          39.915  
C24  22436445.940          44.886  
C31  21634889.979          42.929  
C35  22455276.115          44.060  
> 2026 05 10 01 06 30.0000000  0  9
C01  38458769.604          28.926  
C03  38539474.450          27.215  
C04  39464218.663          22.804  
C07  38675960.236          23.210  
C08  36162221.168          46.080  
C10  37905120.143          36.446  
C24  22430834.885          43.425  
C26  22536387.985          40.029  
C31  21629836.058          40.840  
> 2026 05 10 01 07  0.0000000  0  5
C04  39462127.150          20.886  
C08  36162290.388          45.448  
C10  37914030.641          38.014  
C31  21624827.258          41.422  
C35  22474516.731          40.971  
> 2026 05 10 01 07 30.0000000  0  6
C01  38455614.411          30.706  
C03  38537604.836          24.999  
C04  39460059.254          23.836  
C07  38696496.220          26.730  
C10  37922976.628          36.174  
C35  22484211.723          40.557  
> 2026 05 10 01 08  0.0000000  0  7
C01  38454010.943          30.458  
C03  38536640.474          25.176  
C07  38706759.372          20.397  
C10  37931912.144          37.676  
C24  22414488.643          40.267  
C31  21614995.412          44.597  
C35  22493917.610          40.728  
> 2026 05 10 01 08 30.0000000  0  8
C04  39455864.907          22.623  
C07  38717049.737          27.627  
C08  36162507.956          42.795  
C10  37940886.662          35.202  
C24  22409221.021          38.840  
C26  22581549.457          44.984  
C31  21610174.318          44.357  
C35  22503688.717          42.534  
> 2026 05 10 01 09  0.0000000  0  8
C03  38534728.081          24.301  
C04  39453753.701          16.526  
C07  38727343.063          21.337  
C08  36162568.509          39.380  
C10  37949864.451          37.872  
C24  22404022.968          44.096  
C31  21605396.700          40.699  
C35  22513478.928          41.696  
> 2026 05 10 01 09 30.0000000  0  8
C01  38449241.843          31.420  
C03  38533774.992          23.767  
C04  39451682.033          23.194  
C07  38737663.648          20.639  
C10  37958883.748          37.006  
C24  22398935.544          39.253  
C26  22604578.756          40.611  
C31  21600701.007          42.471  
> 2026 05 10 01 10  0.0000000  0  8
C01  38447610.064          32.933  
C03  38532777.239          27.918  
C04  39449556.687          21.118  
C07  38747947.478          23.975  
C10  37967873.939          36.557  
C24  22393890.756          39.607  
C31  21596017.183          44.619  
C35  22533189.903          42.805  
> 2026 05 10 01 10 30.0000000  0 10
C01  38446019.917          31.351  
C03  38531809.982          30.012  
C04  39447475.037          28.226  
C07  38758290.805          22.003  
C08  36162758.784          46.322  
C10  37976928.558          36.240  
C24  22388978.497          39.630  
C26  22627890.427          40.665  
C31  21591441.296          43.977  
C35  22543127.745          44.172  
> 2026 05 10 01 11  0.0000000  0  9
C01  38444428.785          31.426  
C03  38530851.557          34.912  
C04  39445377.737          18.936  
C07  38768641.164          20.985  
C08  36162833.377          45.010  
C10  37986001.233          38.208  
C24  22384152.031          43.053  
C26  22639673.964          40.549  
C31  21586919.225          42.466  
> 2026 05 10 01 11 30.0000000  0 10
C01  38442846.166          23.474  
C03  38529888.446          32.115  
C04  39443293.585          14.954  
C07  38779013.320          20.398  
C08  36162917.117          44.089  
C10  37995102.705          38.277  
C24  22379426.286          42.259  
C26  22651548.385          41.472  
C31  21582471.044          41.758  
C35  22563130.387          40.908  
> 2026 05 10 01 12  0.0000000  0  8
C01  38441217.255          23.297  
C03  38528884.454          30.150  
C04  39441164.338          12.016  
C07  38789347.386          18.129  
C08  36162953.963          46.209  
C10  38004175.312          33.680  
C26  22663444.553          41.800  
C31  21578033.958          45.523  
> 2026 05 10 01 12 30.0000000  0  7
C01  38439645.261          30.172  
C03  38527915.368          26.299  
C04  39439085.862          10.318  
C10  38013314.761          36.155  
C24  22370199.293          40.104  
C26  22675469.169          43.972  
C35  22583256.791          39.770  
> 2026 05 10 01 13  0.0000000  0  8
C01  38438003.635          17.925  
C03  38526891.645          28.002  
C04  39436948.442          10.000  
C07  38810096.134          19.761  
C10  38022421.763          39.310  
C24  22365693.848          40.751  
C26  22687515.020          39.390  
C31  21569391.845          43.139  
> 2026 05 10 01 13 30.0000000  0  8
C01  38436414.071          19.974  
C03  38525897.857          25.222  
C07  38820500.630          16.771  
C08  36163145.858          42.872  
C24  22361317.397          43.179  
C26  22699673.734          41.279  
C31  21565169.329          44.590  
C35  22603535.870          41.067  
> 2026 05 10 01 14  0.0000000  0  7
C01  38434746.698          19.630  
C03  38524836.571          28.292  
C07  38830845.348          20.435  
C10  38040708.000          38.131  
C26  22711841.653          43.271  
C31  21560944.198          42.337  
C35  22613687.017          42.276  
> 2026 05 10 01 14 30.0000000  0  8
C01  38433186.450          18.764  
C03  38523869.660          32.077  
C04  39430640.469          10.000  
C07  38841298.998          27.057  
C08  36163255.422          44.980  
C10  38049942.174          34.072  
C26  22724177.149          42.971  
C31  21556876.369          46.321  
> 2026 05 10 01 15  0.0000000  0  8
C01  38431568.296          25.006  
C03  38522832.892          32.568  
C04  39428530.637          20.853  
C10  38059137.393          35.514  
C24  22348670.884          42.503  
C26  22736528.242          40.377  
C31  21552810.666          44.497  
C35  22634242.022          38.791  
> 2026 05 10 01 15 30.0000000  0  9
C01  38429948.307          30.889  
C03  38521798.894          35.474  
C04  39426411.468          21.790  
C07  38862126.992          24.550  
C10  38068355.935          35.293  
C24  22344633.890          44.110  
C26  22748953.488          40.378  
C31  21548805.535          42.943  
C35  22644550.179          40.256  
> 2026 05 10 01 16  0.0000000  0  9
C03  38520758.686          31.457  
C04  39424290.825          25.309  
C07  38872550.844          22.273  
C08  36163382.997          43.873  
C10  38077582.459          38.082  
C24  22340677.508          41.675  
C26  22761448.381          42.238  
C31  21544852.595          43.297  
C35  22654890.860          38.617  
> 2026 05 10 01 16 30.0000000  0  7
C01  38426669.424          32.034  
C03  38519689.858          33.227  
C04  39422142.044          28.307  
C10  38086807.146          36.950  
C24  22336797.915          41.396  
C26  22773990.334          41.468  
C35  22665249.352          40.685  
> 2026 05 10 01 17  0.0000000  0  6
C01  38425046.920          30.554  
C04  39420021.323          24.145  
C07  38893414.178          26.218  
C08  36163450.673          42.037  
C10  38096084.665          35.929  
C26  22786636.591          38.778  
> 2026 05 10 01 17 30.0000000  0  6
C04  39417895.901          16.511  
C07  38903881.975          27.897  
C08  36163503.431          44.209  
C24  22329376.161          42.163  
C26  22799361.306          38.896  
C31  21533364.681          43.753  
> 2026 05 10 01 18  0.0000000  0  7
C03  38516546.442          34.174  
C04  39415763.310          17.833  
C08  36163537.977          48.294  
C10  38114680.271          35.690  
C26  22812140.010          45.020  
C31  21529646.949          43.949  
C35  22696635.044          42.031  
> 2026 05 10 01 18 30.0000000  0  8
C01  38420157.681          24.567  
C03  38515492.929          33.219  
C04  39413650.105          26.019  
C07  38924817.114          34.345  
C10  38124005.977          37.962  
C26  22824995.609          41.952  
C31  21526003.925          47.656  
C35  22707167.664          39.005  
> 2026 05 10 01 19  0.0000000  0  8
C01  38418505.399          23.244  
C03  38514412.805          32.382  
C08  36163606.799          41.407  
C10  38133329.646          36.751  
C24  22318893.080          40.945  
C26  22837904.413          42.242  
C31  21522397.581          44.277  
C35  22717720.891          40.026  
> 2026 05 10 01 19 30.0000000  0  5
C03  38513342.355          33.599  
C04  39409367.969          28.106  
C07  38945778.863          31.087  
C24  22315582.502          44.857  
C26  22850892.691          40.369  
> 2026 05 10 01 20  0.0000000  0  9
C01  38415227.189          25.062  
C03  38512277.184          30.895  
C04  39407238.312          32.172  
C07  38956284.218          33.146  
C10  38152050.626          27.644  
C24  22312375.370          41.914  
C26  22863962.460          41.530  
C31  21515390.116          42.177  
C35  22738963.039          39.412  
> 2026 05 10 01 20 30.0000000  0  9
C01  38413565.859          26.937  
C04  39405082.726          30.743  
C07  38966772.068          30.923  
C08  36163688.342          44.471  
C10  38161423.954          30.410  
C26  22877069.697          42.325  
C31  21511952.484          41.641  
C34  24776539.608          23.597  
C35  22749614.841          35.291  
> 2026 05 10 01 21  0.0000000  0  7
C01  38411923.984          23.678  
C03  38510088.912          35.814  
C07  38977293.500          36.123  
C08  36163723.705          43.572  
C24  22306206.595          40.049  
C31  21508595.539          46.182  
C34  24761740.441          24.343  
> 2026 05 10 01 21 30.0000000  0  9
C03  38508991.481          32.147  
C04  39400795.924          33.597  
C07  38987825.884          24.762  
C08  36163746.222          46.580  
C10  38180255.197          33.084  
C24  22303262.775          44.142  
C26  22903535.367          36.263  
C34  24746986.532          29.462  
C35  22771058.717          38.978  
> 2026 05 10 01 22  0.0000000  0  8
C01  38408624.464          31.445  
C04  39398638.696          28.842  
C07  38998355.621          22.060  
C08  36163765.807          42.674  
C24  22300413.870          40.625  
C26  22916862.558          42.198  
C31  21502038.665          46.240  
C35  22781823.988          41.557  
> 2026 05 10 01 22 30.0000000  0  8
C01  38406951.693          38.863  
C04  39396468.969          27.994  
C08  36163764.335          43.951  
C24  22297633.524          44.889  
C26  22930240.879          38.406  
C31  21498829.737          42.755  
C34  24717538.129          24.500  
C35  22792611.250          44.327  
> 2026 05 10 01 23  0.0000000  0  7
C01  38405295.371          33.430  
C03  38505650.747          27.531  
C08  36163788.643          42.832  
C24  22294975.604          43.124  
C31  21495702.589          46.665  
C34  24702865.730          27.973  
C35  22803451.876          39.325  
> 2026 05 10 01 23 30.0000000  0 10
C03  38504552.602          28.911  
C04  39392173.316          24.321  
C07  39029984.097          26.449  
C08  36163811.347          44.284  
C10  38218081.747          33.418  
C24  22292413.659          40.817  
C26  22957250.952          40.299  
C31  21492635.849          41.470  
C34  24688241.848          26.386  
C35  22814329.629          40.456  
> 2026 05 10 01 24  0.0000000  0  7
C08  36163803.825          44.854  
C10  38227558.991          33.299  
C24  22289913.244          41.110  
C26  22970827.333          43.858  
C31  21489596.315          44.705  
C34  24673615.210          25.604  
C35  22825209.840          39.102  
> 2026 05 10 01 24 30.0000000  0  5
C03  38502289.006          26.694  
C07  39051086.953          25.481  
C24  22287530.354          43.688  
C26  22984493.507          41.683  
C34  24659027.021          30.840  
> 2026 05 10 01 25  0.0000000  0 10
C01  38398595.566          28.922  
C03  38501134.102          21.743  
C04  39385637.177          28.531  
C08  36163801.709          43.562  
C10  38246590.395          36.443  
C24  22285219.323          44.500  
C26  22998203.885          40.805  
C31  21483712.944          42.102  
C34  24644446.882          18.084  
C35  22847087.924          38.395  
> 2026 05 10 01 25 30.0000000  0  5
C04  39383477.174          28.998  
C07  39072237.699          27.980  
C10  38256159.376          31.105  
C31  21480883.630          48.624  
C34  24629937.518          18.894  
> 2026 05 10 01 26  0.0000000  0  7
C01  38395247.578          27.350  
C03  38498870.874          34.279  
C04  39381295.824          31.585  
C07  39082812.824          31.006  
C08  36163811.607          42.242  
C10  38265711.632          28.035  
C26  23025860.115          40.629  
> 2026 05 10 01 26 30.0000000  0  7
C01  38393557.757          35.094  
C03  38497710.759          32.719  
C04  39379107.444          31.287  
C08  36163794.730          44.813  
C10  38275272.387          34.326  
C31  21475326.501          45.405  
C34  24600962.512          17.907  
> 2026 05 10 01 27  0.0000000  0  9
C03  38496568.733          34.216  
C07  39103994.657          30.211  
C08  36163792.468          43.351  
C10  38284871.705          30.206  
C24  22276976.447          44.672  
C26  23053765.253          39.361  
C31  21472651.555          46.096  
C34  24586540.754          19.020  
C35  22891250.189          41.404  
> 2026 05 10 01 27 30.0000000  0  8
C03  38495412.874          35.518  
C04  39374753.972          24.346  
C08  36163787.424          45.515  
C10  38294474.890          29.684  
C26  23067819.638          42.075  
C31  21470031.473          41.378  
C34  24572142.818          16.677  
C35  22902368.689          40.530  
> 2026 05 10 01 28  0.0000000  0  7
C04  39372537.762          28.393  
C07  39125191.257          30.906  
C08  36163748.749          46.114  
C10  38304064.847          37.474  
C26  23081906.350          40.652  
C31  21467436.246          44.395  
C34  24557745.194          17.813  
> 2026 05 10 01 28 30.0000000  0  8
C01  38386817.182          31.781  
C03  38493086.276          34.300  
C04  39370378.782          30.556  
C07  39135842.961          30.580  
C10  38313735.657          34.382  
C26  23096115.547          38.128  
C34  24543429.150          10.000  
C35  22924695.255          38.413  
> 2026 05 10 01 29  0.0000000  0  8
C01  38385105.345          34.031  
C04  39368171.221          24.518  
C07  39146453.626          25.672  
C08  36163728.038          45.598  
C24  22270217.714          43.555  
C26  23110339.619          39.270  
C34  24529110.790          12.562  
C35  22935881.782          36.966  
> 2026 05 10 01 29 30.0000000  0 10
C01  38383435.436          39.798  
C03  38490748.459          35.838  
C04  39366005.111          26.960  
C07  39157108.441          30.209  
C08  36163731.295          44.844  
C10  38333064.073          37.060  
C24  22268791.771          41.654  
C26  23124670.617          38.577  
C31  21460106.632          43.557  
C35  22947143.118          36.874  
> 2026 05 10 01 30  0.0000000  0 10
C01  38381700.951          32.185  
C03  38489529.462          29.795  
C04  39363780.082          19.670  
C08  36163674.092          44.845  
C10  38342715.270          32.877  
C24  22267401.024          40.839  
C26  23139003.687          39.073  
C31  21457727.291          41.689  
C34  24500594.964          18.674  
C35  22958375.318          39.833  
> 2026 05 10 01 30 30.0000000  0  7
C03  38579378.481          34.685  
C08  36163655.768          45.018  
C10  38352419.864          37.204  
C24  22266148.706          43.454  
C31  21455448.188          41.303  
C34  24486390.218          14.585  
C35  22969676.273          38.856  
> 2026 05 10 01 31  0.0000000  0  9
C01  38554663.626          33.921  
C03  38578657.128          30.023  
C07  39188996.360          32.904  
C10  38362103.392          31.109  
C24  22264954.162          43.720  
C26  23167905.723          38.534  
C31  21453188.985          46.542  
C34  24472181.540          11.761  
C35  22980968.792          40.954  
> 2026 05 10 01 31 30.0000000  0  7
C01  38553303.054          32.403  
C03  38578001.971          32.425  
C07  39199709.296          21.399  
C08  36163605.527          44.119  
C24  22263921.725          43.045  
C31  21451052.624          43.951  
C35  22992360.766          37.878  
> 2026 05 10 01 32  0.0000000  0  5
C01  38551884.571          34.843  
C10  38381600.677          32.172  
