     3.04           OBSERVATION DATA    C: BDS              RINEX VERSION / TYPE
DataSimulator       BUPT-GNSS           20260515 045955     PGM / RUN BY / DATE
BDS SPP Simulated Observation Data                          COMMENT
BUPT_Shahe                                                  MARKER NAME
 -2161962.4351  4376609.9016  4091389.4091                  APPROX POSITION XYZ
0.0000        0.0000        0.0000                          ANTENNA: DELTA H/E/N
C    2 C2I S2I                                              SYS / # / OBS TYPES
                                                         BDTTIME OF FIRST OBS
    30.000                                                  INTERVAL
                                                            END OF HEADER
> 2026 05 10 00 00  0.0000000  0 13
C01  38491983.376          36.464  
C02  39630681.898          29.626  
C03  38557520.625          31.859  
C04  39520184.598          32.290  
C07  37446427.842          37.442  
C08  36158143.528          48.354  
C10  36914883.928          41.165  
C24  23815952.954          33.796  
C26  21786266.031          46.317  
C29  24424935.009          34.150  
C31  22833237.209          37.933  
C35  21652043.988          44.606  
C39  24199194.957          37.507  
> 2026 05 10 00 00 30.0000000  0 13
C01  38490393.358          37.155  
C02  39630996.193          33.138  
C03  38556765.549          36.623  
C04  39518241.484          29.557  
C07  37454453.708          40.212  
C08  36157949.389          44.488  
C10  36920740.208          38.445  
C24  23801695.231          37.220  
C26  21786287.423          47.614  
C29  24441081.027          36.362  
C31  22820271.590          38.243  
C35  21653934.472          47.913  
C39  24215211.764          34.642  
> 2026 05 10 00 01  0.0000000  0 13
C01  38488777.489          35.316  
C02  39631279.057          31.000  
C03  38555982.995          33.047  
C04  39516270.788          30.924  
C07  37462476.955          37.541  
C08  36157736.804          44.210  
C10  36926598.502          37.788  
C24  23787456.124          37.607  
C26  21786369.058          42.338  
C29  24457222.131          35.869  
C31  22807339.270          37.671  
C35  21655871.978          44.167  
C39  24231250.468          35.068  
> 2026 05 10 00 01 30.0000000  0 13
C01  38487209.035          34.190  
C02  39631607.869          32.863  
C03  38555245.552          37.372  
C04  39514350.765          30.136  
C07  37470571.523          39.914  
C08  36157582.624          43.503  
C10  36932531.780          44.605  
C24  23773310.635          38.003  
C26  21786585.156          42.623  
C29  24473436.156          34.466  
C31  22794512.703          36.935  
C35  21657935.010          44.374  
C39  24247386.352          34.179  
> 2026 05 10 00 02  0.0000000  0 13
C01  38485597.745          36.073  
C02  39631889.176          29.791  
C03  38554461.524          35.377  
C04  39512384.498          33.287  
C07  37478647.655          37.078  
C08  36157389.005          45.269  
C10  36938448.797          42.601  
C24  23759164.568          36.718  
C26  21786844.360          45.340  
C29  24489626.853          32.027  
C31  22781701.367          41.673  
C35  21660032.006          45.052  
C39  24263524.027          40.737  
> 2026 05 10 00 02 30.0000000  0 13
C01  38484004.638          33.981  
C02  39632185.065          35.232  
C03  38553691.501          36.015  
C04  39510437.724          32.930  
C07  37486765.065          37.133  
C08  36157224.162          45.990  
C10  36944411.670          43.592  
C24  23745086.572          38.162  
C26  21787205.681          44.382  
C29  24505857.913          33.161  
C31  22768964.016          38.285  
C35  21662223.438          47.398  
C39  24279725.731          34.530  
> 2026 05 10 00 03  0.0000000  0 13
C01  38482413.007          37.133  
C02  39632480.598          29.721  
C03  38552923.310          36.149  
C04  39508489.931          31.264  
C07  37494906.715          41.091  
C08  36157069.410          45.521  
C10  36950404.401          43.272  
C24  23731052.414          38.960  
C26  21787658.667          44.102  
C29  24522111.808          31.545  
C31  22756289.945          36.694  
C35  21664490.619          48.558  
C39  24295976.136          34.277  
> 2026 05 10 00 03 30.0000000  0 13
C01  38480815.506          33.508  
C02  39632763.052          33.793  
C03  38552141.969          32.559  
C04  39506534.083          30.052  
C07  37503063.842          39.001  
C08  36156914.441          44.711  
C10  36956418.555          39.366  
C24  23717058.793          37.639  
C26  21788186.748          41.230  
C29  24538378.340          36.436  
C31  22743666.015          38.096  
C35  21666824.019          44.015  
C39  24312264.697          32.100  
> 2026 05 10 00 04  0.0000000  0 13
C01  38479191.790          37.893  
C02  39633021.339          28.396  
C03  38551336.088          36.926  
C04  39504557.744          32.907  
C07  37511221.526          37.036  
C08  36156746.059          46.343  
C10  36962434.466          42.986  
C24  23703089.368          35.371  
C26  21788780.062          44.564  
C29  24554646.096          34.596  
C31  22731080.249          37.345  
C35  21669212.542          49.272  
C39  24328576.710          37.391  
> 2026 05 10 00 04 30.0000000  0 13
C01  38477604.572          36.524  
C02  39633309.950          31.841  
C03  38550561.877          34.495  
C04  39502617.939          29.874  
C07  37519437.751          36.628  
C08  36156619.952          41.286  
C10  36968516.896          40.218  
C24  23689205.055          38.822  
C26  21789494.292          44.886  
C29  24570968.788          31.204  
C31  22718585.625          39.254  
C35  21671710.687          42.963  
C39  24344969.671          33.781  
> 2026 05 10 00 05  0.0000000  0 13
C01  38475978.428          32.196  
C02  39633556.926          30.048  
C03  38549747.835          35.868  
C04  39500633.038          31.032  
C07  37527638.202          38.712  
C08  36156464.067          44.129  
C10  36974586.440          41.331  
C24  23675328.374          35.183  
C26  21790258.213          47.169  
C29  24587272.602          33.596  
C31  22706112.916          40.569  
C35  21674243.711          44.504  
C39  24361369.897          30.134  
> 2026 05 10 00 05 30.0000000  0 13
C01  38474380.313          34.429  
C02  39633827.401          30.184  
C03  38548955.336          36.477  
C04  39498680.724          30.591  
C07  37535889.875          37.331  
C08  36156342.796          42.374  
C10  36980711.983          38.666  
C24  23661525.954          34.971  
C26  21791136.228          43.783  
C29  24603622.604          30.090  
C31  22693725.830          39.934  
C35  21676882.203          48.013  
C39  24377840.443          39.074  
> 2026 05 10 00 06  0.0000000  0 13
C01  38472750.165          32.751  
C02  39634062.841          31.250  
C03  38548129.822          39.483  
C04  39496694.493          34.032  
C07  37544131.847          39.005  
C08  36156196.071          43.075  
C10  36986831.685          44.362  
C24  23647742.921          35.528  
C26  21792068.404          41.785  
C29  24619962.810          32.264  
C31  22681369.073          36.429  
C35  21679558.969          44.410  
C39  24394325.582          36.531  
> 2026 05 10 00 06 30.0000000  0 13
C01  38471123.168          31.887  
C02  39634298.385          33.690  
C03  38547305.516          34.811  
C04  39494712.919          30.259  
C07  37552401.933          37.683  
C08  36156063.726          41.077  
C10  36992984.645          42.100  
C24  23634010.482          36.406  
C26  21793092.297          46.632  
C29  24636327.273          32.956  
C31  22669072.245          44.844  
C35  21682316.368          42.110  
C39  24410861.836          35.176  
> 2026 05 10 00 07  0.0000000  0 13
C01  38469510.354          38.392  
C02  39634544.703          33.540  
C03  38546492.698          31.257  
C04  39492745.479          37.335  
C07  37560707.497          39.312  
C08  36155949.974          42.131  
C10  36999178.006          42.871  
C24  23620341.175          34.019  
C26  21794215.435          43.059  
C29  24652720.350          31.762  
C31  22656851.008          38.415  
C35  21685160.684          44.212  
C39  24427452.006          31.460  
> 2026 05 10 00 07 30.0000000  0 13
C01  38467898.302          32.316  
C02  39634786.758          29.334  
C03  38545673.639          35.321  
C04  39490774.426          34.533  
C07  37569034.573          37.062  
C08  36155845.413          40.560  
C10  37005395.592          38.655  
C24  23606721.986          35.748  
C26  21795426.282          45.276  
C29  24669135.064          33.228  
C31  22644687.832          41.502  
C35  21688077.143          47.852  
C39  24444086.069          37.579  
> 2026 05 10 00 08  0.0000000  0 13
C01  38466274.460          35.450  
C02  39635018.985          31.205  
C03  38544845.201          34.897  
C04  39488798.073          31.459  
C07  37577379.000          39.279  
C08  36155740.438          44.222  
C10  37011638.344          40.486  
C24  23593144.365          36.756  
C26  21796717.463          46.379  
C29  24685557.948          32.558  
C31  22632575.400          38.168  
C35  21691061.456          42.485  
C39  24460757.759          32.419  
> 2026 05 10 00 08 30.0000000  0 13
C01  38464668.192          31.744  
C02  39635260.493          34.024  
C03  38544029.996          33.775  
C04  39486835.198          32.536  
C07  37585757.434          38.372  
C08  36155656.940          44.240  
C10  37017919.015          41.059  
C24  23579633.145          37.397  
C26  21798109.399          47.726  
C29  24702015.458          35.962  
C31  22620539.201          39.964  
C35  21694131.045          42.760  
C39  24477487.118          36.238  
> 2026 05 10 00 09  0.0000000  0 13
C01  38463012.007          33.572  
C02  39635450.969          31.185  
C03  38543161.616          38.783  
C04  39484822.916          31.346  
C07  37594110.504          38.824  
C08  36155530.339          46.216  
C10  37024179.380          40.230  
C24  23566119.007          35.242  
C26  21799537.666          45.576  
C29  24718440.848          33.317  
C31  22608514.780          37.151  
C35  21697227.426          47.749  
C39  24494209.352          35.167  
> 2026 05 10 00 09 30.0000000  0 13
C01  38461373.413          35.294  
C02  39635653.231          31.477  
C03  38542308.268          32.065  
C04  39482827.189          35.210  
C07  37602504.233          37.652  
C08  36155432.168          46.847  
C10  37030483.428          43.654  
C24  23552676.660          36.787  
C26  21801073.671          44.501  
C29  24734902.294          32.283  
C31  22596566.249          39.528  
C35  21700411.338          42.274  
C39  24510993.569          33.085  
> 2026 05 10 00 10  0.0000000  0 13
C01  38459739.308          39.462  
C02  39635857.192          34.427  
C03  38541454.688          34.230  
C04  39480839.424          31.865  
C07  37610925.141          41.566  
C08  36155342.470          42.870  
C10  37036822.680          41.743  
C24  23539287.832          35.504  
C26  21802701.843          46.791  
C29  24751384.646          32.205  
C31  22584682.231          39.768  
C35  21703674.226          44.050  
C39  24527825.403          31.342  
> 2026 05 10 00 10 30.0000000  0 13
C01  38458134.412          40.970  
C02  39636088.429          29.405  
C03  38540628.412          36.064  
C04  39478876.492          34.053  
C07  37619398.127          39.278  
C08  36155291.377          42.557  
C10  37043215.168          38.646  
C24  23525984.332          40.395  
C26  21804445.785          43.481  
C29  24767914.443          33.219  
C31  22572889.913          39.765  
C35  21707041.139          45.610  
C39  24544729.935          32.539  
> 2026 05 10 00 11  0.0000000  0 13
C01  38456481.019          37.387  
C02  39636265.132          29.788  
C03  38539749.957          35.647  
C04  39476864.036          32.964  
C07  37627841.645          35.453  
C08  36155195.035          45.392  
C10  37049585.992          43.625  
C24  23512677.643          39.373  
C26  21806227.089          46.220  
C29  24784409.731          31.150  
C31  22561104.977          40.019  
C35  21710424.578          44.081  
C39  24561624.879          34.670  
> 2026 05 10 00 11 30.0000000  0 13
C01  38454863.650          36.940  
C02  39636475.689          32.686  
C03  38538905.280          32.457  
C04  39474891.001          29.741  
C07  37636346.185          35.584  
C08  36155145.113          45.786  
C10  37056022.161          39.064  
C24  23499466.864          34.927  
C26  21808135.079          42.980  
C29  24800960.593          28.174  
C31  22549419.861          37.176  
C35  21713922.729          44.573  
C39  24578601.080          32.404  
> 2026 05 10 00 12  0.0000000  0 13
C01  38453200.313          31.841  
C02  39636638.848          32.378  
C03  38538014.149          31.558  
C04  39472872.318          27.995  
C07  37644828.578          37.781  
C08  36155057.541          41.742  
C10  37062439.403          38.534  
C24  23486258.926          36.551  
C26  21810087.044          41.890  
C29  24817479.944          30.555  
C31  22537749.450          38.838  
C35  21717446.171          45.849  
C39  24595571.561          30.612  
> 2026 05 10 00 12 30.0000000  0 13
C01  38451567.966          37.210  
C02  39636824.597          31.972  
C03  38537148.550          33.687  
C04  39470882.652          31.322  
C07  37653360.579          41.012  
C08  36155003.582          45.430  
C10  37068912.296          41.573  
C24  23473134.546          36.509  
C26  21812151.384          44.536  
C29  24834046.044          29.018  
C31  22526169.301          42.878  
C35  21721066.240          43.624  
C39  24612615.112          32.851  
> 2026 05 10 00 13  0.0000000  0 13
C01  38449931.584          32.824  
C02  39637004.841          30.732  
C03  38536276.940          37.648  
C04  39468888.017          31.467  
C07  37661912.582          38.310  
C08  36154953.829          46.457  
C10  37075410.688          37.013  
C24  23460061.039          36.087  
C26  21814303.310          47.079  
C29  24850625.986          32.336  
C31  22514648.103          41.980  
C35  21724758.185          43.888  
C39  24629695.891          31.100  
> 2026 05 10 00 13 30.0000000  0 13
C01  38448266.644          34.566  
C02  39637153.035          30.123  
C03  38535373.485          37.642  
C04  39466867.928          31.285  
C07  37670457.021          41.275  
C08  36154884.099          43.509  
C10  37081907.143          42.102  
C24  23447013.477          37.185  
C26  21816514.755          42.556  
C29  24867190.093          31.720  
C31  22503155.280          39.352  
C35  21728494.080          42.841  
C39  24646791.046          33.149  
> 2026 05 10 00 14  0.0000000  0 13
C01  38446630.548          36.896  
C02  39637327.552          33.114  
C03  38534495.129          36.823  
C04  39464873.881          32.300  
C07  37679052.174          35.730  
C08  36154846.651          44.036  
C10  37088459.762          43.231  
C24  23434048.473          40.077  
C26  21818843.314          46.285  
C29  24883799.405          33.286  
C31  22491755.098          38.915  
C35  21732325.402          46.063  
C39  24663952.387          34.054  
> 2026 05 10 00 14 30.0000000  0 13
C01  38444949.454          35.964  
C02  39637453.575          34.222  
C03  38533570.306          33.546  
C04  39462835.507          34.615  
C07  37687625.444          40.719  
C08  36154775.364          44.061  
C10  37094993.459          38.727  
C24  23421091.231          38.097  
C26  21821214.687          41.688  
C29  24900376.996          34.164  
C31  22480370.570          39.345  
C35  21736185.941          45.382  
C39  24681108.986          35.002  
> 2026 05 10 00 15  0.0000000  0 13
C01  38443306.032          37.877  
C02  39637612.142          31.886  
C03  38532679.755          42.239  
C04  39460834.005          31.571  
C07  37696256.639          40.415  
C08  36154745.835          46.390  
C10  37101594.857          39.892  
C24  23408229.949          35.942  
C26  21823712.119          44.270  
C29  24917007.838          34.081  
C31  22469084.981          38.782  
C35  21740150.316          43.034  
C39  24698346.031          34.451  
> 2026 05 10 00 15 30.0000000  0 13
C01  38441648.862          36.222  
C02  39637755.265          29.262  
C03  38531772.829          34.383  
C04  39458822.935          32.590  
C07  37704897.233          35.830  
C08  36154708.088          44.737  
C10  37108206.413          38.477  
C24  23395408.095          38.485  
C26  21826282.305          44.661  
C29  24933640.812          33.373  
C31  22457847.838          40.162  
C35  21744174.904          47.091  
C39  24715609.656          31.661  
> 2026 05 10 00 16  0.0000000  0 13
C01  38439996.390          33.667  
C02  39637899.351          29.480  
C03  38530867.467          37.440  
C04  39456814.537          32.177  
C07  37713565.479          42.624  
C08  36154683.058          44.133  
C10  37114850.604          38.608  
C24  23382650.080          38.388  
C26  21828947.934          44.598  
C29  24950290.010          35.448  
C31  22446675.059          39.513  
C35  21748274.347          45.218  
C39  24732917.026          34.414  
> 2026 05 10 00 16 30.0000000  0 13
C01  38438331.432          35.458  
C02  39638027.198          31.787  
C03  38529944.525          38.750  
C04  39454790.170          31.197  
C07  37722240.615          33.734  
C08  36154649.862          41.627  
C10  37121509.227          40.956  
C24  23369929.667          41.816  
C26  21831688.042          45.782  
C29  24966939.692          28.947  
C31  22435551.698          37.107  
C35  21752428.199          47.209  
C39  24750248.985          32.873  
> 2026 05 10 00 17  0.0000000  0 13
C01  38436647.495          34.884  
C02  39638131.212          33.189  
C03  38529002.791          36.493  
C04  39452748.743          32.153  
C07  37730920.308          40.613  
C08  36154603.965          44.160  
C10  37128174.840          40.481  
C24  23357249.872          40.394  
C26  21834497.550          46.209  
C29  24983583.497          30.554  
C31  22424470.334          37.638  
C35  21756633.276          46.094  
C39  24767606.227          33.525  
> 2026 05 10 00 17 30.0000000  0 13
C01  38435005.822          33.720  
C02  39638274.100          31.969  
C03  38528099.158          31.277  
C04  39450748.679          30.818  
C07  37739660.723          36.144  
C08  36154607.095          43.225  
C10  37134909.181          41.631  
C24  23344667.633          35.562  
C26  21837435.927          43.317  
C29  25000285.085          30.875  
C31  22413492.286          40.955  
C35  21760948.927          42.355  
C39  24785038.160          36.551  
> 2026 05 10 00 18  0.0000000  0 13
C01  38433324.727          37.146  
C02  39638373.590          35.899  
C03  38527153.864          34.321  
C04  39448710.264          32.973  
C07  37748383.649          38.159  
C08  36154578.783          42.062  
C10  37141631.360          40.522  
C24  23332105.194          35.106  
C26  21840427.232          44.541  
C29  25016957.229          33.690  
C31  22402535.638          41.840  
C35  21765294.747          43.103  
C39  24802471.073          31.726  
> 2026 05 10 00 18 30.0000000  0 13
C01  38431669.636          33.807  
C02  39638497.771          30.354  
C03  38526232.725          34.713  
C04  39446699.735          33.035  
C07  37757155.969          39.649  
C08  36154580.839          42.732  
C10  37148409.969          41.129  
C24  23319626.438          38.193  
C26  21843531.315          42.491  
C29  25033671.718          26.944  
C31  22391670.186          40.545  
C35  21769737.780          41.974  
C39  24819971.541          34.785  
> 2026 05 10 00 19  0.0000000  0 13
C01  38429978.605          33.426  
C02  39638581.107          30.516  
C03  38525270.201          39.386  
C04  39444651.463          30.656  
C07  37765913.326          35.643  
C08  36154554.026          48.478  
C10  37155174.605          40.559  
C24  23307168.491          38.800  
C26  21846685.160          45.705  
C29  25050359.753          31.981  
C31  22380829.236          40.766  
C35  21774208.230          43.441  
C39  24837473.114          33.333  
> 2026 05 10 00 19 30.0000000  0 13
C01  38428345.410          36.916  
C02  39638716.337          32.604  
C03  38524361.966          37.888  
C04  39442660.206          32.826  
C07  37774746.441          36.759  
C08  36154587.973          43.506  
C10  37162023.731          44.354  
C24  23294826.142          39.001  
C26  21849986.804          44.119  
C29  25067115.124          32.586  
C31  22370103.433          41.849  
C35  21778807.232          44.493  
C39  24855066.382          34.155  
> 2026 05 10 00 20  0.0000000  0 13
C01  38426653.018          35.278  
C02  39638791.819          30.541  
C03  38523393.431          36.340  
C04  39440610.152          31.978  
C07  37783544.688          34.263  
C08  36154569.696          45.019  
C10  37168843.193          40.551  
C24  23282482.333          38.386  
C26  21853322.212          41.647  
C29  25083827.853          33.383  
C31  22359385.629          41.825  
C35  21783415.334          45.677  
C39  24872641.767          31.814  
> 2026 05 10 00 20 30.0000000  0 13
C01  38424956.019          36.716  
C02  39638857.855          34.872  
C03  38522417.243          33.572  
C04  39438556.282          33.679  
C07  37792358.858          38.456  
C08  36154552.704          43.513  
C10  37175680.807          34.455  
C24  23270195.340          40.121  
C26  21856734.702          43.147  
C29  25100543.771          27.457  
C31  22348723.722          43.885  
C35  21788085.743          43.915  
C39  24890249.170          31.208  
> 2026 05 10 00 21  0.0000000  0 13
C01  38423277.652          34.868  
C02  39638937.361          30.235  
C03  38521457.016          36.341  
C04  39436518.305          31.900  
C07  37801211.213          37.715  
C08  36154559.186          42.228  
C10  37182565.123          40.913  
C24  23257982.541          39.171  
C26  21860258.774          42.301  
C29  25117288.329          33.031  
C31  22338140.718          41.909  
C35  21792840.569          48.166  
C39  24907911.161          33.370  
> 2026 05 10 00 21 30.0000000  0 13
C01  38421597.847          35.852  
C02  39639014.427          32.061  
C03  38520490.708          38.917  
C04  39434480.586          31.084  
C07  37810082.688          36.215  
C08  36154572.990          47.218  
C10  37189473.048          43.054  
C24  23245830.528          41.432  
C26  21863865.141          45.035  
C29  25134045.998          33.231  
C31  22327618.180          41.121  
C35  21797662.312          41.677  
C39  24925608.301          31.849  
> 2026 05 10 00 22  0.0000000  0 13
C01  38419923.384          33.978  
C02  39639089.325          34.681  
C03  38519526.982          34.880  
C04  39432448.506          31.195  
C07  37818980.355          36.726  
C08  36154593.526          43.965  
C10  37196415.215          40.095  
C24  23233744.079          37.178  
C26  21867568.496          43.995  
C29  25150816.030          31.555  
C31  22317162.752          38.851  
C35  21802553.610          43.564  
C39  24943344.778          31.251  
> 2026 05 10 00 22 30.0000000  0 13
C01  38418237.075          31.826  
C02  39639153.116          33.100  
C03  38518548.951          34.840  
C04  39430405.659          32.283  
C07  37827886.613          34.273  
C08  36154608.803          41.973  
C10  37203368.605          42.606  
C24  23221702.287          38.471  
C26  21871347.845          45.008  
C29  25167587.220          32.520  
C31  22306758.593          42.868  
C35  21807504.169          46.061  
C39  24961108.126          33.449  
> 2026 05 10 00 23  0.0000000  0 13
C01  38416539.641          35.279  
C02  39639199.229          30.405  
C03  38517556.687          33.956  
C04  39428348.180          28.660  
C07  37836803.859          37.089  
C08  36154620.364          40.602  
C10  37210343.140          41.525  
C24  23209713.930          37.364  
C26  21875205.396          44.111  
C29  25184356.597          34.721  
C31  22296407.470          47.991  
C35  21812508.324          42.082  
C39  24978895.973          38.224  
> 2026 05 10 00 23 30.0000000  0 13
C01  38414845.883          34.861  
C02  39639246.905          31.129  
C03  38516567.490          35.709  
C04  39426297.914          31.234  
C07  37845746.638          38.931  
C08  36154637.191          42.581  
C10  37217342.989          39.417  
C24  23197789.962          35.424  
C26  21879156.472          44.311  
C29  25201140.282          28.718  
C31  22286119.724          41.237  
C35  21817581.404          44.013  
C39  24996722.355          33.988  
> 2026 05 10 00 24  0.0000000  0 13
C01  38413188.025          34.724  
C02  39639324.359          30.821  
C03  38515607.024          37.638  
C04  39424280.262          29.291  
C07  37854741.856          34.030  
C08  36154697.481          42.237  
C10  37224403.800          43.696  
C24  23185961.284          40.289  
C26  21883227.643          41.596  
C29  25217965.212          28.561  
C31  22275927.651          43.603  
C35  21822755.668          43.934  
C39  25014619.544          31.113  
> 2026 05 10 00 24 30.0000000  0 13
C01  38411468.800          39.384  
C02  39639338.544          31.407  
C03  38514585.941          38.050  
C04  39422203.809          29.332  
C07  37863699.509          34.317  
C08  36154701.644          42.285  
C10  37231431.768          35.906  
C24  23174133.844          36.744  
C26  21887329.799          42.608  
C29  25234741.810          32.704  
C31  22265741.586          42.168  
C35  21827935.680          44.828  
C39  25032490.837          32.692  
> 2026 05 10 00 25  0.0000000  0 13
C01  38409782.226          32.573  
C02  39639381.877          32.258  
C03  38513590.372          31.949  
C04  39420160.155          33.454  
C07  37872705.025          33.443  
C08  36154741.601          45.501  
C10  37238516.959          38.637  
C24  23162401.249          39.869  
C26  21891549.646          47.183  
C29  25251557.225          32.720  
C31  22255646.042          38.739  
C35  21833210.082          42.343  
C39  25050428.756          33.267  
> 2026 05 10 00 25 30.0000000  0 13
C01  38408073.574          36.310  
C02  39639398.219          35.253  
C03  38512575.456          34.223  
C04  39418093.904          29.681  
C07  37881715.608          35.925  
C08  36154767.195          43.540  
C10  37245610.371          40.302  
C24  23150709.751          38.311  
C26  21895838.988          44.440  
C29  25268361.297          28.022  
C31  22245594.860          40.213  
C35  21838532.949          44.035  
C39  25068380.979          33.768  
> 2026 05 10 00 26  0.0000000  0 13
C01  38406365.644          34.077  
C02  39639413.074          29.646  
C03  38511553.907          32.937  
C04  39416027.171          33.635  
C07  37890742.090          35.961  
C08  36154796.543          46.206  
C10  37252726.240          38.031  
C24  23139079.507          40.772  
C26  21900216.649          43.566  
C29  25285174.211          33.707  
C31  22235603.399          42.049  
C35  21843916.786          40.979  
C39  25086364.185          32.431  
> 2026 05 10 00 26 30.0000000  0 13
C01  38404692.458          35.961  
C02  39639458.481          32.682  
C03  38510567.700          32.947  
C04  39413997.498          30.183  
C07  37899824.120          39.302  
C08  36154867.196          44.647  
C10  37259904.361          40.501  
C24  23127547.744          37.924  
C26  21904717.491          41.967  
C29  25302033.234          30.082  
C31  22225713.161          38.577  
C35  21849403.197          44.088  
C39  25104421.881          32.044  
> 2026 05 10 00 27  0.0000000  0 13
C01  38402972.541          34.028  
C02  39639452.304          34.954  
C03  38509527.383          37.322  
C04  39411917.598          33.583  
C07  37908879.127          35.392  
C08  36154892.593          43.192  
C10  37267059.106          37.787  
C24  23116032.726          42.145  
C26  21909257.514          45.787  
C29  25318847.429          31.807  
C31  22215834.569          40.555  
C35  21854903.231          41.665  
C39  25122458.292          34.328  
> 2026 05 10 00 27 30.0000000  0 13
C01  38401264.371          34.705  
C02  39639454.721          28.165  
C03  38508498.510          33.707  
C04  39409851.547          33.206  
C07  37917967.640          38.099  
C08  36154935.699          43.623  
C10  37274252.606          38.812  
C24  23104593.906          38.649  
C26  21913899.794          42.732  
C29  25335683.806          30.353  
C31  22206034.058          41.672  
C35  21860480.354          43.862  
C39  25140544.658          33.884  
> 2026 05 10 00 28  0.0000000  0 13
C01  38399561.242          36.502  
C02  39639457.505          31.348  
C03  38507469.821          38.114  
C04  39407790.142          32.758  
C07  37927079.143          37.861  
C08  36154988.724          44.679  
C10  37281477.227          36.855  
C24  23093223.542          37.692  
C26  21918635.550          42.400  
C29  25352532.413          32.110  
C31  22196295.338          42.735  
C35  21866126.692          41.488  
C39  25158667.170          30.719  
> 2026 05 10 00 28 30.0000000  0 13
C01  38397853.257          33.374  
C02  39639452.206          33.548  
C03  38506435.091          37.929  
C04  39405723.051          30.335  
C07  37936205.064          33.424  
C08  36155038.520          45.935  
C10  37288722.981          43.108  
C24  23081912.764          38.219  
C26  21923451.985          43.941  
C29  25369381.479          27.929  
C31  22186617.142          44.469  
C35  21871830.711          47.221  
C39  25176816.474          31.965  
> 2026 05 10 00 29  0.0000000  0 13
C01  38396130.093          37.583  
C02  39639428.480          30.677  
C03  38505381.287          36.148  
C04  39403643.092          34.264  
C07  37945337.602          39.700  
C08  36155081.610          44.603  
C10  37295976.732          42.730  
C24  23070651.228          36.124  
C26  21928343.449          45.348  
C29  25386225.739          32.244  
C31  22176987.985          42.302  
C35  21877584.149          48.641  
C39  25194985.441          34.087  
> 2026 05 10 00 29 30.0000000  0 13
C01  38394432.830          31.906  
C02  39639425.547          32.476  
C03  38504348.517          31.625  
C04  39401587.994          30.533  
C07  37954514.089          33.411  
C08  36155156.501          42.411  
C10  37303285.661          38.114  
C24  23059480.319          38.470  
C26  21933351.346          49.255  
C29  25403099.467          30.197  
C31  22167445.324          43.373  
C35  21883425.579          46.144  
C39  25213210.853          31.802  
> 2026 05 10 00 30  0.0000000  0 13
C01  38392706.926          36.251  
C02  39639390.134          32.973  
C03  38503286.910          34.111  
C04  39399504.018          32.087  
C07  37963681.721          35.387  
C08  36155202.109          45.405  
C10  37310589.904          40.684  
C24  23048348.642          38.432  
C26  21938415.972          41.467  
C29  25419952.939          28.964  
C31  22157940.221          41.280  
C35  21889301.847          44.643  
C39  25231439.526          34.503  
> 2026 05 10 00 30 30.0000000  0 13
C01  38567199.285          35.751  
C02  39616293.038          29.291  
C03  38593371.412          34.354  
C04  39609119.888          28.550  
C07  37972887.827          38.908  
C08  36155272.886          43.718  
C10  37317937.460          35.399  
C24  23037298.434          41.391  
C26  21943588.058          42.320  
C29  25436829.362          27.039  
C31  22148512.178          42.331  
C35  21895255.872          45.323  
C39  25249716.113          30.683  
> 2026 05 10 00 31  0.0000000  0 13
C01  38565785.441          35.970  
C02  39616790.722          33.646  
C03  38592808.845          33.505  
C04  39607207.571          30.022  
C07  37982097.442          36.325  
C08  36155333.246          44.943  
C10  37325298.113          40.717  
C24  23026302.903          39.394  
C26  21948833.361          44.229  
C29  25453699.966          32.574  
C31  22139136.974          40.972  
C35  21901260.675          45.425  
C39  25268013.481          33.655  
> 2026 05 10 00 31 30.0000000  0 13
C01  38564398.602          36.255  
C02  39617311.587          30.146  
C03  38592266.396          36.530  
C04  39605320.626          31.296  
C07  37991353.333          35.206  
C08  36155424.827          48.531  
C10  37332709.820          42.055  
C24  23015398.005          40.213  
C26  21954195.931          45.362  
C29  25470599.737          27.797  
C31  22129846.432          37.645  
C35  21907353.324          42.332  
C39  25286363.825          34.217  
> 2026 05 10 00 32  0.0000000  0 13
C01  38562956.478          35.486  
C02  39617775.599          32.433  
C03  38591666.695          35.195  
C04  39603377.636          33.660  
C07  38000574.120          35.875  
C08  36155465.756          46.805  
C10  37340091.719          40.756  
C24  23004507.636          38.207  
C26  21959588.465          47.666  
C29  25487452.290          26.761  
C31  22120567.446          39.004  
C35  21913454.560          42.139  
C39  25304694.145          35.028  
> 2026 05 10 00 32 30.0000000  0 13
C01  38561524.864          34.187  
C02  39618248.127          31.731  
C03  38591078.983          33.813  
C04  39601448.242          34.771  
C07  38009829.391          36.673  
C08  36155524.764          44.404  
C10  37347513.573          44.462  
C24  22993697.739          39.448  
C26  21965085.393          42.552  
C29  25504324.717          32.174  
C31  22111365.812          43.284  
C35  21919628.808          45.151  
C39  25323064.494          31.538  
> 2026 05 10 00 33  0.0000000  0 13
C01  38560109.326          35.157  
C02  39618732.120          29.830  
C03  38590501.886          34.749  
C04  39599530.964          30.050  
C07  38019116.456          37.377  
C08  36155602.533          41.481  
C10  37354976.288          38.008  
C24  22982970.750          38.045  
C26  21970685.354          46.305  
C29  25521218.059          30.000  
C31  22102238.370          40.001  
C35  21925877.943          45.814  
C39  25341481.240          33.075  
> 2026 05 10 00 33 30.0000000  0 13
C01  38558690.794          36.759  
C02  39619209.419          30.048  
C03  38589919.641          36.783  
C04  39597612.957          32.709  
C07  38028421.084          38.275  
C08  36155681.407          42.362  
C10  37362461.208          37.523  
C24  22972307.682          42.343  
C26  21976366.709          37.494  
C29  25538110.967          31.219  
C31  22093175.896          39.536  
C35  21932188.977          43.546  
C39  25359928.361          30.399  
> 2026 05 10 00 34  0.0000000  0 13
C01  38557263.284          36.685  
C02  39619677.629          29.930  
C03  38589324.120          37.267  
C04  39595683.062          32.785  
C07  38037736.382          38.199  
C08  36155756.868          43.699  
C10  37369965.109          37.686  
C24  22961707.403          41.652  
C26  21982135.009          42.246  
C29  25555002.109          27.463  
C31  22084166.874          43.112  
C35  21938549.740          42.425  
C39  25378394.051          32.428  
> 2026 05 10 00 34 30.0000000  0 13
C01  38555845.180          35.517  
C02  39620149.081          33.378  
C03  38588737.995          37.507  
C04  39593763.294          32.521  
C07  38047084.901          40.116  
C08  36155848.506          42.160  
C10  37377503.127          38.795  
C24  22951184.041          42.261  
C26  21987995.721          44.561  
C29  25571909.469          30.506  
C31  22075230.583          40.118  
C35  21944983.718          41.867  
C39  25396899.289          29.301  
> 2026 05 10 00 35  0.0000000  0 13
C01  38554417.822          34.964  
C02  39620612.370          32.144  
C03  38588138.377          37.354  
C04  39591836.299          33.869  
C07  38056437.603          32.663  
C08  36155933.223          44.313  
C10  37385057.967          38.885  
C24  22940726.028          41.407  
C26  21993939.782          39.878  
C29  25588810.888          28.550  
C31  22066351.425          41.890  
C35  21951469.712          44.974  
C39  25415426.457          30.583  
> 2026 05 10 00 35 30.0000000  0 13
C01  38552972.105          34.743  
C02  39621051.825          31.129  
C03  38587520.092          35.655  
C04  39589889.479          28.783  
C07  38065795.743          38.445  
C08  36156005.194          43.737  
C10  37392621.005          40.119  
C24  22930317.746          39.473  
C26  21999951.520          41.930  
C29  25605699.297          25.966  
C31  22057515.665          40.582  
C35  21957997.663          48.119  
C39  25433965.112          33.446  
> 2026 05 10 00 36  0.0000000  0 13
C01  38551531.108          36.333  
C02  39621492.455          31.521  
C03  38586902.066          36.530  
C04  39587947.667          32.417  
C07  38075178.557          33.574  
C08  36156087.774          43.980  
C10  37400215.430          39.505  
C24  22919982.401          41.594  
C26  22006060.504          43.733  
C29  25622596.820          27.086  
C31  22048749.670          43.445  
C35  21964590.900          45.186  
C39  25452535.573          30.772  
> 2026 05 10 00 36 30.0000000  0 13
C01  38550107.350          39.483  
C02  39621948.297          30.291  
C03  38586297.853          34.401  
C04  39586022.654          34.456  
C07  38084595.356          40.838  
C08  36156190.027          45.300  
C10  37407851.439          38.050  
C24  22909736.831          38.928  
C26  22012271.357          40.188  
C29  25639516.315          28.293  
C31  22040065.130          43.609  
C35  21971260.274          41.769  
C39  25471151.657          31.648  
> 2026 05 10 00 37  0.0000000  0 13
C01  38548638.038          35.001  
C02  39622359.626          29.629  
C03  38585647.056          34.201  
C04  39584050.018          31.387  
C07  38093987.378          33.996  
C08  36156249.680          43.907  
C10  37415467.886          35.712  
C24  22899518.151          40.710  
C26  22018526.435          43.572  
C29  25656396.514          31.018  
C31  22031400.178          40.473  
C35  21977943.588          42.279  
C39  25489754.925          30.408  
> 2026 05 10 00 37 30.0000000  0 13
C01  38547186.981          35.389  
C02  39622778.389          33.168  
C03  38585009.478          38.650  
C04  39582095.071          31.527  
C07  38103413.529          36.694  
C08  36156333.521          42.457  
C10  37423126.382          40.349  
C24  22889384.908          39.927  
C26  22024884.483          46.869  
C29  25673291.509          29.803  
C31  22022811.680          43.258  
C35  21984703.820          43.596  
C39  25508397.704          31.182  
> 2026 05 10 00 38  0.0000000  0 13
C01  38545762.588          35.517  
C02  39623226.767          29.597  
C03  38584396.684          32.852  
C04  39580168.138          33.283  
C07  38112889.510          36.572  
C08  36156447.878          43.511  
C10  37430840.289          41.170  
C24  22879353.894          38.086  
C26  22031361.158          40.320  
C29  25690223.549          29.991  
C31  22014319.588          41.667  
C35  21991552.634          42.210  
C39  25527098.449          32.356  
> 2026 05 10 00 38 30.0000000  0 13
C01  38544320.107          37.216  
C02  39623653.519          31.198  
C03  38583767.341          37.362  
C04  39578224.981          34.147  
C07  38122366.169          37.267  
C08  36156551.537          44.598  
C10  37438561.326          34.943  
C24  22869377.718          39.748  
C26  22037908.206          40.268  
C29  25707141.923          28.209  
C31  22005872.845          40.808  
C35  21998443.742          43.841  
C39  25545812.145          31.232  
> 2026 05 10 00 39  0.0000000  0 13
C01  38542848.025          35.017  
C02  39624045.758          34.256  
C03  38583101.018          35.196  
C04  39576249.572          31.046  
C07  38131829.956          37.459  
C08  36156625.540          45.528  
C10  37446275.927          38.469  
C24  22859441.737          37.424  
C26  22044510.760          38.706  
C29  25724028.693          28.587  
C31  21997458.956          39.925  
C35  22005358.474          44.906  
C39  25564515.353          31.427  
> 2026 05 10 00 39 30.0000000  0 13
C01  38541381.634          34.621  
C02  39624443.077          28.097  
C03  38582439.612          34.812  
C04  39574281.917          33.820  
C07  38141320.193          37.359  
C08  36156710.998          43.330  
C10  37454026.156          39.807  
C24  22849587.551          37.444  
C26  22051210.414          41.092  
C29  25740927.830          27.793  
C31  21989114.511          47.560  
C35  22012341.360          44.520  
C39  25583258.037          27.679  
> 2026 05 10 00 40  0.0000000  0 13
C01  38539921.218          33.520  
C02  39624839.917          30.554  
C03  38581780.006          39.732  
C04  39572316.849          32.631  
C07  38150833.037          38.012  
C08  36156805.876          43.193  
C10  37461805.313          40.240  
C24  22839809.073          40.907  
C26  22058000.874          46.855  
C29  25757835.335          27.562  
C31  21980840.879          43.676  
C35  22019386.769          45.664  
C39  25602028.129          32.673  
> 2026 05 10 00 40 30.0000000  0 13
C01  38538470.122          34.377  
C02  39625248.121          31.014  
C03  38581130.819          32.186  
C04  39570364.717          30.977  
C07  38160377.828          38.311  
C08  36156916.967          43.375  
C10  37469620.065          36.884  
C24  22830119.057          42.228  
C26  22064892.920          40.135  
C29  25774754.850          27.641  
C31  21972642.072          44.396  
C35  22026503.343          45.479  
C39  25620841.433          26.781  
> 2026 05 10 00 41  0.0000000  0 13
C01  38537001.354          35.149  
C02  39625630.680          29.366  
C03  38580456.577          31.937  
C04  39568389.380          32.842  
C07  38169918.908          35.280  
C08  36157008.178          45.115  
C10  37477438.739          36.946  
C24  22820479.057          39.739  
C26  22071848.193          40.856  
C29  25791654.475          29.961  
C31  21964487.865          43.787  
C35  22033654.110          44.473  
C39  25639655.493          31.477  
> 2026 05 10 00 41 30.0000000  0 13
C01  38535521.346          36.770  
C02  39626002.868          29.092  
C03  38579772.579          35.784  
C04  39566408.047          29.578  
C07  38179473.144          37.209  
C08  36157099.257          42.887  
C10  37485277.019          36.710  
C24  22810907.518          40.322  
C26  22078886.934          41.750  
C29  25808555.365          28.983  
C31  21956387.955          43.741  
C35  22040856.007          43.945  
C39  25658487.531          32.075  
> 2026 05 10 00 42  0.0000000  0 13
C01  38534047.108          37.465  
C02  39626378.507          27.914  
C03  38579090.295          34.841  
C04  39564431.046          31.393  
C07  38189047.983          32.922  
C08  36157197.381          43.580  
C10  37493144.595          37.352  
C24  22801411.908          45.530  
C26  22086013.905          43.406  
C29  25825455.476          30.995  
C31  21948358.484          42.220  
C35  22048117.817          42.953  
C39  25677351.482          31.511  
> 2026 05 10 00 42 30.0000000  0 13
C01  38532584.792          35.394  
C02  39626759.137          31.017  
C03  38578417.533          36.804  
C04  39562464.679          30.745  
C07  38198652.723          38.038  
C08  36157308.573          42.030  
C10  37501046.241          41.015  
C24  22792003.125          39.207  
C26  22093242.362          44.824  
C29  25842369.780          29.953  
C31  21940401.909          45.828  
C35  22055449.252          47.927  
C39  25696249.069          30.521  
> 2026 05 10 00 43  0.0000000  0 13
C01  38531111.414          34.065  
C02  39627130.276          29.086  
C03  38577726.885          33.562  
C04  39560487.815          33.006  
C07  38208263.725          34.121  
C08  36157414.337          47.605  
C10  37508963.524          39.433  
C24  22782661.373          38.510  
C26  22100545.004          42.676  
C29  25859276.477          31.286  
C31  21932499.764          41.992  
C35  22062825.901          46.540  
C39  25715164.213          30.415  
> 2026 05 10 00 43 30.0000000  0 13
C01  38529613.008          39.255  
C02  39627468.924          31.214  
C03  38577011.110          34.085  
C04  39558486.460          34.913  
C07  38217868.860          35.379  
C08  36157496.313          44.628  
C10  37516880.992          39.671  
C24  22773368.190          39.772  
C26  22107909.605          46.747  
C29  25876159.801          28.762  
C31  21924639.137          42.434  
C35  22070235.222          45.710  
C39  25734074.449          30.317  
> 2026 05 10 00 44  0.0000000  0 13
C01  38528156.576          36.912  
C02  39627846.513          32.159  
C03  38576336.378          34.635  
C04  39556522.701          31.992  
C07  38227533.153          36.918  
C08  36157624.340          43.255  
C10  37524865.122          41.913  
C24  22764190.616          35.273  
C26  22115402.588          44.732  
C29  25893084.781          30.809  
C31  21916878.601          43.466  
C35  22077739.354          41.916  
C39  25753052.055          31.375  
> 2026 05 10 00 44 30.0000000  0 13
C01  38526667.414          34.967  
C02  39628192.159          33.206  
C03  38575627.097          35.464  
C04  39554530.650          29.550  
C07  38237185.103          34.378  
C08  36157724.478          42.978  
C10  37532840.656          40.949  
C24  22755061.396          44.466  
C26  22122954.000          42.354  
C29  25909980.015          26.599  
C31  21909153.605          42.554  
C35  22085269.542          43.602  
C39  25772021.497          31.600  
> 2026 05 10 00 45  0.0000000  0 12
C01  38525175.074          33.868  
C02  39628526.632          30.329  
C03  38574911.109          38.678  
C04  39552535.192          31.701  
C07  38246850.871          32.484  
C08  36157825.623          45.442  
C10  37540840.482          38.622  
C24  22746000.774          40.604  
C26  22130584.441          42.931  
C31  21901487.770          41.988  
C35  22092849.323          42.673  
C39  25791012.313          28.393  
> 2026 05 10 00 45 30.0000000  0 12
C01  38523677.527          35.872  
C02  39628858.535          28.988  
C03  38574185.111          34.633  
C04  39550535.075          33.136  
C07  38256529.290          35.178  
C08  36157925.004          48.358  
C10  37548857.221          36.510  
C24  22737017.364          38.694  
C26  22138300.162          42.137  
C31  21893882.794          42.578  
C35  22100483.866          43.003  
C39  25810020.704          28.880  
> 2026 05 10 00 46  0.0000000  0 12
C01  38522175.885          34.872  
C02  39629178.929          32.511  
C03  38573452.841          37.922  
C04  39548525.620          30.654  
C07  38266218.880          37.150  
C08  36158020.669          44.615  
C10  37556893.528          38.150  
C24  22728099.967          39.647  
C26  22146094.189          45.116  
C31  21886333.811          43.875  
C35  22108162.830          42.829  
C39  25829044.858          27.571  
> 2026 05 10 00 46 30.0000000  0 12
C01  38520696.794          35.684  
C02  39629521.005          32.691  
C03  38572741.881          39.032  
C04  39546541.788          28.795  
C07  38275951.747          36.253  
C08  36158144.081          44.572  
C10  37564980.801          41.827  
C24  22719286.760          38.308  
C26  22153998.506          43.376  
C31  21878875.418          41.531  
C35  22115921.834          40.436  
C39  25848115.748          30.842  
> 2026 05 10 00 47  0.0000000  0 12
C01  38519213.552          35.781  
C02  39629855.198          31.999  
C03  38572021.631          37.436  
C04  39544553.771          27.306  
C07  38285694.918          37.058  
C08  36158264.320          44.420  
C10  37573084.566          40.011  
C24  22710545.824          41.660  
C26  22161983.689          42.426  
C31  21871473.534          45.201  
C35  22123730.525          39.955  
C39  25867202.381          34.848  
> 2026 05 10 00 47 30.0000000  0 12
C01  38517686.948          37.503  
C02  39630143.997          30.683  
C03  38571256.835          35.936  
C04  39542524.206          31.703  
C07  38295415.227          31.537  
C08  36158347.771          43.826  
C10  37581171.664          38.895  
C24  22701839.564          41.162  
C26  22170012.652          44.411  
C31  21864094.977          46.320  
C35  22131553.322          45.821  
C39  25886271.042          28.355  
> 2026 05 10 00 48  0.0000000  0 12
C01  38516173.119          37.405  
C02  39630440.185          32.622  
C03  38570504.301          37.485  
C04  39540505.147          33.240  
C07  38305163.737          36.552  
C08  36158443.696          46.178  
C10  37589294.771          38.548  
C24  22693225.036          39.604  
C26  22178141.219          44.634  
C31  21856791.999          42.309  
C35  22139438.235          42.696  
C39  25905374.618          31.317  
> 2026 05 10 00 48 30.0000000  0 13
C01  38514672.909          34.706  
C02  39630749.083          32.337  
C03  38569760.662          36.319  
C04  39538498.914          30.888  
C07  38314943.559          30.346  
C08  36158558.248          45.460  
C10  37597456.313          41.541  
C24  22684701.022          41.306  
C26  22186368.494          43.780  
C31  21849563.741          46.800  
C34  25778338.267          30.034  
C35  22147391.942          42.700  
C39  25924509.363          29.024  
> 2026 05 10 00 49  0.0000000  0 13
C01  38513181.450          34.851  
C02  39631063.579          30.567  
C03  38569023.081          35.321  
C04  39536503.535          33.887  
C07  38324748.898          36.429  
C08  36158681.953          43.859  
C10  37605649.529          37.026  
C24  22676265.263          40.622  
C26  22194689.714          39.397  
C31  21842411.870          42.530  
C34  25761923.156          27.595  
C35  22155406.296          46.617  
C39  25943675.425          27.143  
> 2026 05 10 00 49 30.0000000  0 13
C01  38511652.216          37.045  
C02  39631334.165          29.540  
C03  38568243.713          35.586  
C04  39534466.160          32.330  
C07  38334532.097          38.993  
C08  36158773.244          45.204  
C10  37613831.333          40.027  
C24  22667871.027          43.384  
C26  22203058.204          43.751  
C31  21835281.496          40.730  
C34  25745492.567          26.946  
C35  22163438.740          44.088  
C39  25962823.911          28.965  
> 2026 05 10 00 50  0.0000000  0 13
C01  38510148.239          34.256  
C02  39631629.453          30.365  
C03  38567488.351          34.064  
C04  39532459.738          32.141  
C07  38344360.257          36.453  
C08  36158891.361          43.691  
C10  37622061.682          36.674  
C24  22659583.162          37.487  
C26  22211539.308          40.625  
C31  21828244.011          44.334  
C34  25729111.818          30.349  
C35  22171547.509          45.048  
C39  25982019.759          29.819  
> 2026 05 10 00 50 30.0000000  0 13
C01  38508639.789          38.803  
C02  39631916.510          31.077  
C03  38566726.058          36.492  
C04  39530445.324          31.723  
C07  38354200.060          36.945  
C08  36159008.068          40.980  
C10  37630309.221          40.566  
C24  22651366.361          42.128  
C26  22220097.544          44.479  
C31  21821266.447          41.264  
C34  25712754.962          27.091  
C35  22179703.275          40.777  
C39  26001228.657          29.469  
> 2026 05 10 00 51  0.0000000  0 13
C01  38507094.934          36.925  
C02  39632165.663          34.228  
C03  38565924.753          36.557  
C04  39528397.260          32.026  
C07  38364019.047          35.492  
C08  36159090.862          42.178  
C10  37638548.840          37.714  
C24  22643195.867          39.820  
C26  22228706.876          43.733  
C31  21814312.867          45.429  
C34  25696385.089          27.989  
C35  22187874.657          41.649  
C39  26020421.076          31.397  
> 2026 05 10 00 51 30.0000000  0 13
C01  38505610.223          34.895  
C02  39632468.924          29.614  
C03  38565180.864          32.206  
C04  39526407.112          27.746  
C07  38373916.913          36.021  
C08  36159237.527          42.306  
C10  37646869.113          37.891  
C24  22635166.618          43.247  
C26  22237459.958          38.903  
C31  21807483.361          44.647  
C34  25680102.370          29.772  
C35  22196158.720          46.282  
C39  26039693.031          27.863  
> 2026 05 10 00 52  0.0000000  0 13
C01  38504054.338          30.959  
C02  39632698.516          31.421  
C03  38564361.474          33.797  
C04  39524342.625          34.222  
C07  38383756.576          33.568  
C08  36159313.037          44.145  
C10  37655141.799          35.509  
C24  22627144.552          41.637  
C26  22246228.194          42.228  
C31  21800646.880          42.634  
C34  25663772.344          27.850  
C35  22204423.135          44.068  
C39  26058910.902          27.235  
> 2026 05 10 00 52 30.0000000  0 13
C01  38502536.199          35.658  
C02  39632964.495          31.614  
C03  38563576.817          32.548  
C04  39522319.400          30.098  
C07  38393653.122          38.427  
C08  36159428.769          44.460  
C10  37663476.394          41.157  
C24  22619242.849          41.822  
C26  22255117.031          41.556  
C31  21793913.343          41.028  
C34  25647505.827          26.167  
C35  22212777.242          40.936  
C39  26078188.535          31.498  
> 2026 05 10 00 53  0.0000000  0 13
C01  38500969.958          34.098  
C02  39633173.590          32.672  
C03  38562742.744          36.354  
C04  39520245.484          31.500  
C07  38403515.195          36.325  
C08  36159500.078          45.116  
C10  37671785.570          39.262  
C24  22611371.298          40.042  
C26  22264039.184          46.145  
C31  21787192.060          45.420  
C34  25631215.092          29.199  
C35  22221131.356          42.377  
C39  26097431.700          33.493  
> 2026 05 10 00 53 30.0000000  0 13
C01  38499487.483          38.843  
C02  39633469.090          31.541  
C03  38561988.615          33.271  
C04  39518257.590          33.882  
C07  38413479.049          35.701  
C08  36159657.818          44.009  
C10  37680203.582          38.186  
C24  22603667.821          39.741  
C26  22273133.090          42.873  
C31  21780621.097          38.911  
C34  25615037.516          27.560  
C35  22229621.983          41.471  
C39  26116781.025          29.246  
> 2026 05 10 00 54  0.0000000  0 13
C01  38497922.223          34.686  
C02  39633678.902          34.428  
C03  38561152.281          35.619  
C04  39516188.210          30.789  
C07  38423378.440          38.528  
C08  36159733.140          43.091  
C10  37688563.619          38.036  
C24  22595964.750          40.910  
C26  22282227.563          42.147  
C31  21774028.619          44.686  
C34  25598802.973          28.663  
C35  22238081.316          43.765  
C39  26136063.439          27.853  
> 2026 05 10 00 54 30.0000000  0 13
C01  38496394.328          36.173  
C02  39633921.940          29.662  
C03  38560346.724          33.411  
C04  39514155.022          32.124  
C07  38433328.495          35.643  
C08  36159852.563          42.832  
C10  37696983.425          41.791  
C24  22588377.215          42.282  
C26  22291443.153          43.438  
C31  21767537.981          43.761  
C34  25582632.959          31.518  
C35  22246626.590          42.777  
C39  26155401.721          28.660  
> 2026 05 10 00 55  0.0000000  0 13
C01  38494842.730          31.836  
C02  39634136.969          36.033  
C03  38559516.614          35.373  
C04  39512096.608          30.720  
C07  38443269.006          34.816  
C08  36159944.814          42.880  
C10  37705401.542          37.273  
C24  22580850.142          40.936  
C26  22300718.396          41.835  
C31  21761087.022          43.930  
C34  25566462.972          30.698  
C35  22255198.705          42.970  
C39  26174729.776          29.012  
> 2026 05 10 00 55 30.0000000  0 13
C01  38493316.873          34.657  
C02  39634375.963          35.736  
C03  38558710.127          33.816  
C04  39510065.333          30.285  
C07  38453254.868          37.462  
C08  36160068.304          42.687  
C10  37713869.191          35.755  
C24  22573432.970          42.048  
C26  22310102.211          43.375  
C31  21754725.901          40.622  
C34  25550348.533          31.553  
C35  22263844.680          40.673  
C39  26194104.498          32.535  
> 2026 05 10 00 56  0.0000000  0 13
C01  38491774.347          33.412  
C02  39634590.511          34.900  
C03  38557881.263          37.947  
C04  39508015.633          32.491  
C07  38463238.108          35.332  
C08  36160174.888          43.108  
C10  37722340.510          37.500  
C24  22566078.776          38.815  
C26  22319552.539          40.916  
C31  21748407.376          41.473  
C34  25534239.047          26.905  
C35  22272525.670          40.364  
C39  26213476.801          29.169  
> 2026 05 10 00 56 30.0000000  0 13
C01  38490237.343          33.099  
C02  39634810.872          34.158  
C03  38557056.883          32.268  
C04  39505972.019          30.924  
C07  38473243.313          39.399  
C08  36160289.277          45.067  
C10  37730844.403          37.476  
C24  22558813.736          41.195  
C26  22329089.355          41.768  
C31  21742159.194          44.304  
C34  25518165.599          30.017  
C35  22281259.004          43.766  
C39  26232869.679          30.499  
> 2026 05 10 00 57  0.0000000  0 13
C01  38488695.455          33.086  
C02  39635022.922          33.982  
C03  38556225.129          36.912  
C04  39503925.274          29.905  
C07  38483258.137          33.678  
C08  36160400.719          45.613  
C10  37739366.839          36.061  
C24  22551628.839          40.821  
C26  22338706.451          43.875  
C31  21735971.225          42.925  
C34  25502111.130          25.747  
C35  22290037.470          44.941  
C39  26252274.294          31.033  
> 2026 05 10 00 57 30.0000000  0 13
C01  38487126.875          33.072  
C02  39635204.261          34.118  
C03  38555364.842          36.374  
C04  39501846.708          34.865  
C07  38493259.176          33.121  
C08  36160487.033          42.560  
C10  37747882.738          38.969  
C24  22544498.945          41.582  
C26  22348379.462          41.684  
C31  21729817.843          45.427  
C34  25486058.546          26.441  
C35  22298835.845          41.785  
C39  26271665.829          26.311  
> 2026 05 10 00 58  0.0000000  0 13
C01  38485574.795          33.237  
C02  39635400.357          31.016  
C03  38554515.859          33.247  
C04  39499791.174          31.388  
C07  38503296.539          32.322  
C08  36160593.672          47.017  
C10  37756438.764          37.047  
C24  22537471.393          42.080  
C26  22358151.738          40.911  
C31  21723744.991          41.575  
C34  25470051.498          32.209  
C35  22307701.549          42.140  
C39  26291091.439          25.555  
> 2026 05 10 00 58 30.0000000  0 13
C01  38484004.328          34.713  
C02  39635572.628          30.562  
C03  38553646.404          37.415  
C04  39497716.144          31.717  
C07  38513329.777          32.085  
C08  36160683.836          44.107  
C10  37764999.676          35.435  
C24  22530509.694          40.808  
C26  22367986.906          41.991  
C31  21717715.914          42.128  
C34  25454049.018          30.137  
C35  22316596.406          42.108  
C39  26310513.170          26.827  
