     3.04           OBSERVATION DATA    C: BDS              RINEX VERSION / TYPE
DataSimulator       BUPT-GNSS           20260518 115342     PGM / RUN BY / DATE
BDS SPP Simulated Observation Data                          COMMENT
BUPT_Shahe                                                  MARKER NAME
 -2161962.4351  4376609.9016  4091389.4091                  APPROX POSITION XYZ
0.0000        0.0000        0.0000                          ANTENNA: DELTA H/E/N
C    2 C2I S2I                                              SYS / # / OBS TYPES
                                                         BDTTIME OF FIRST OBS
    30.000                                                  INTERVAL
                                                            END OF HEADER
> 2026 05 10 00 00  0.0000000  0 13
C01  38491723.676          34.283  
C02  39630953.790          32.698  
C03  38557534.615          32.907  
C04  39519778.430          30.916  
C07  37446362.795          39.050  
C08  36158228.894          45.486  
C10  36914851.165          39.406  
C24  23816226.767          33.911  
C26  21786302.666          45.911  
C29  24424555.635          34.950  
C31  22833466.093          44.053  
C35  21651960.114          46.215  
C39  24198896.193          32.471  
> 2026 05 10 00 00 30.0000000  0 13
C01  38490169.673          33.332  
C02  39631303.353          28.586  
C03  38556814.959          32.604  
C04  39517866.656          33.087  
C07  37454428.216          41.256  
C08  36158055.896          45.169  
C10  36920739.167          38.551  
C24  23801981.130          38.638  
C26  21786348.818          45.146  
C29  24440714.387          32.744  
C31  22820531.233          41.281  
C35  21653870.629          44.343  
C39  24214948.567          34.522  
> 2026 05 10 00 01  0.0000000  0 13
C01  38488579.866          33.540  
C02  39631610.517          29.774  
C03  38556062.478          40.723  
C04  39515922.699          31.255  
C07  37462477.061          38.879  
C08  36157855.568          45.860  
C10  36926621.032          41.183  
C24  23787746.757          32.398  
C26  21786445.694          44.806  
C29  24456863.487          29.650  
C31  22807620.358          38.811  
C35  21655823.081          45.264  
C39  24231014.379          31.160  
> 2026 05 10 00 01 30.0000000  0 13
C01  38487009.139          35.841  
C02  39631932.664          30.780  
C03  38555321.239          35.663  
C04  39513996.152          27.076  
C07  37470568.988          38.239  
C08  36157680.627          45.833  
C10  36932545.849          40.640  
C24  23773572.088          34.212  
C26  21786644.798          44.326  
C29  24473051.806          31.606  
C31  22794780.870          38.980  
C35  21657869.861          41.674  
C39  24247146.548          37.535  
> 2026 05 10 00 02  0.0000000  0 13
C01  38485427.556          35.102  
C02  39632236.665          35.331  
C03  38554565.463          34.297  
C04  39512058.836          31.610  
C07  37478670.909          40.365  
C08  36157502.122          47.142  
C10  36938491.316          45.701  
C24  23759434.046          36.701  
C26  21786918.913          46.010  
C29  24489251.666          33.750  
C31  22781989.798          37.559  
C35  21659978.531          47.313  
C39  24263312.708          37.203  
> 2026 05 10 00 02 30.0000000  0 13
C01  38483846.201          36.261  
C02  39632539.418          30.213  
C03  38553807.768          35.938  
C04  39510122.941          36.136  
C07  37486799.818          37.017  
C08  36157331.057          44.051  
C10  36944462.229          41.785  
C24  23745338.765          37.805  
C26  21787280.786          43.868  
C29  24505477.400          33.300  
C31  22769258.003          41.452  
C35  21662165.205          43.081  
C39  24279527.292          34.765  
> 2026 05 10 00 03  0.0000000  0 13
C01  38482286.446          32.578  
C02  39632858.390          32.626  
C03  38553068.136          33.688  
C04  39508207.021          30.396  
C07  37494969.417          40.395  
C08  36157192.128          42.749  
C10  36950481.923          42.208  
C24  23731313.349          37.072  
C26  21787749.117          44.744  
C29  24521741.811          32.572  
C31  22756602.463          39.934  
C35  21664448.230          47.014  
C39  24295807.465          36.242  
> 2026 05 10 00 03 30.0000000  0 13
C01  38480679.434          34.341  
C02  39633125.363          30.471  
C03  38552277.657          37.630  
C04  39506246.878          32.540  
C07  37503117.201          39.058  
C08  36157012.799          43.011  
C10  36956483.967          38.528  
C24  23717283.009          35.760  
C26  21788256.573          46.141  
C29  24537985.994          31.738  
C31  22743959.640          39.933  
C35  21666761.479          44.093  
C39  24312091.258          36.345  
> 2026 05 10 00 04  0.0000000  0 13
C01  38479086.540          32.566  
C02  39633402.012          32.504  
C03  38551498.865          35.616  
C04  39504300.106          29.033  
C07  37511303.860          41.900  
C08  36156855.275          45.131  
C10  36962525.877          39.862  
C24  23703319.489          33.923  
C26  21788864.507          45.422  
C29  24554265.923          34.037  
C31  22731386.763          42.376  
C35  21669163.920          45.634  
C39  24328433.038          33.306  
> 2026 05 10 00 04 30.0000000  0 13
C01  38477480.400          33.567  
C02  39633656.619          31.301  
C03  38550697.849          34.274  
C04  39502337.531          32.734  
C07  37519493.022          38.767  
C08  36156686.786          42.569  
C10  36968577.546          39.995  
C24  23689379.603          38.066  
C26  21789540.893          44.277  
C29  24570549.999          29.192  
C31  22718855.180          41.684  
C35  21671622.059          45.094  
C39  24344805.417          34.850  
> 2026 05 10 00 05  0.0000000  0 13
C01  38475903.125          34.706  
C02  39633939.410          33.737  
C03  38549925.083          36.674  
C04  39500406.846          35.652  
C07  37527739.483          40.672  
C08  36156559.842          45.317  
C10  36974689.707          41.326  
C24  23675521.527          38.150  
C26  21790336.473          46.394  
C29  24586887.188          35.010  
C31  22706416.011          38.653  
C35  21674188.783          44.776  
C39  24361253.827          34.084  
> 2026 05 10 00 05 30.0000000  0 13
C01  38474295.752          37.852  
C02  39634187.718          33.607  
C03  38549124.286          37.424  
C04  39498448.756          31.809  
C07  37535980.622          37.886  
C08  36156412.203          44.500  
C10  36980801.750          42.200  
C24  23661683.138          43.491  
C26  21791192.320          44.070  
C29  24603217.978          35.477  
C31  22694007.010          39.762  
C35  21676801.596          45.815  
C39  24377720.125          36.079  
> 2026 05 10 00 06  0.0000000  0 13
C01  38472685.931          34.766  
C02  39634428.954          31.775  
C03  38548312.853          35.493  
C04  39496485.415          30.498  
C07  37544238.518          38.846  
C08  36156266.875          43.503  
C10  36986935.880          41.828  
C24  23647886.906          36.384  
C26  21792128.275          43.214  
C29  24619562.515          33.178  
C31  22681646.744          39.705  
C35  21679484.082          45.346  
C39  24394227.553          37.493  
> 2026 05 10 00 06 30.0000000  0 13
C01  38471105.055          34.742  
C02  39634692.086          32.037  
C03  38547522.960          34.238  
C04  39494548.861          34.178  
C07  37552544.515          39.020  
C08  36156155.605          40.919  
C10  36993121.168          36.630  
C24  23634166.601          39.937  
C26  21793177.174          45.540  
C29  24635956.404          34.106  
C31  22669377.637          41.908  
C35  21682267.362          48.414  
C39  24410804.747          33.245  
> 2026 05 10 00 07  0.0000000  0 13
C01  38469512.250          35.209  
C02  39634939.396          33.859  
C03  38546721.646          32.572  
C04  39492605.117          33.547  
C07  37560864.891          40.300  
C08  36156041.549          42.165  
C10  36999329.901          41.801  
C24  23620486.090          43.362  
C26  21794306.592          45.417  
C29  24652362.309          32.309  
C31  22657156.544          44.317  
C35  21685116.035          45.295  
C39  24427419.773          37.425  
> 2026 05 10 00 07 30.0000000  0 13
C01  38467912.753          35.048  
C02  39635177.399          33.586  
C03  38545909.791          37.688  
C04  39490651.635          34.077  
C07  37569201.989          38.491  
C08  36155929.859          47.704  
C10  37005552.010          41.369  
C24  23606845.469          39.743  
C26  21795513.425          44.372  
C29  24668776.650          31.439  
C31  22644983.802          40.365  
C35  21688029.884          46.524  
C39  24444070.305          33.744  
> 2026 05 10 00 08  0.0000000  0 13
C01  38466268.734          32.308  
C02  39635365.804          30.769  
C03  38545051.051          38.494  
C04  39488656.984          31.468  
C07  37577515.787          35.434  
C08  36155776.526          43.009  
C10  37011761.829          36.631  
C24  23593213.352          37.668  
C26  21796765.057          45.959  
C29  24685169.846          32.417  
C31  22632829.726          38.338  
C35  21690973.976          41.099  
C39  24460721.222          36.369  
> 2026 05 10 00 08 30.0000000  0 13
C01  38464672.620          33.992  
C02  39635597.091          30.150  
C03  38544236.942          37.439  
C04  39486710.837          31.117  
C07  37585897.438          37.392  
C08  36155684.773          43.467  
C10  37018044.435          38.883  
C24  23579678.403          39.396  
C26  21798150.509          45.702  
C29  24701628.711          30.887  
C31  22620778.865          42.620  
C35  21694041.883          40.443  
C39  24477462.912          37.543  
> 2026 05 10 00 09  0.0000000  0 13
C01  38463087.505          35.644  
C02  39635833.360          27.095  
C03  38543428.728          35.311  
C04  39484773.523          31.546  
C07  37594315.461          36.827  
C08  36155608.206          43.132  
C10  37024365.314          41.361  
C24  23566204.835          39.063  
C26  21799634.837          44.281  
C29  24718117.973          32.410  
C31  22608801.809          40.144  
C35  21697191.177          46.115  
C39  24494257.071          35.527  
> 2026 05 10 00 09 30.0000000  0 13
C01  38461443.017          32.057  
C02  39636009.527          34.299  
C03  38542560.700          35.359  
C04  39482777.269          31.609  
C07  37602694.238          35.715  
C08  36155479.087          46.251  
C10  37030655.738          41.262  
C24  23552722.852          34.659  
C26  21801146.135          43.563  
C29  24734567.059          32.487  
C31  22596822.741          42.834  
C35  21700357.171          45.702  
C39  24511039.014          34.421  
> 2026 05 10 00 10  0.0000000  0 13
C01  38459834.927          35.371  
C02  39636216.615          32.199  
C03  38541719.189          33.444  
C04  39480818.788          31.033  
C07  37611132.372          33.456  
C08  36155392.546          41.003  
C10  37037007.824          40.497  
C24  23539327.645          36.161  
C26  21802783.022          42.896  
C29  24751070.199          33.901  
C31  22584940.945          39.486  
C35  21703627.973          42.997  
C39  24527899.738          36.778  
> 2026 05 10 00 10 30.0000000  0 13
C01  38458219.496          32.438  
C02  39636410.615          28.993  
C03  38540874.923          31.823  
C04  39478853.778          32.578  
C07  37619586.940          42.559  
C08  36155310.556          46.387  
C10  37043381.314          40.379  
C24  23525978.635          37.726  
C26  21804501.209          43.073  
C29  24767585.592          33.412  
C31  22573111.638          40.699  
C35  21706969.273          47.178  
C39  24544794.680          37.510  
> 2026 05 10 00 11  0.0000000  0 13
C01  38456581.499          36.534  
C02  39636582.192          31.320  
C03  38540000.529          35.389  
C04  39476868.001          30.651  
C07  37628039.422          34.359  
C08  36155210.070          46.574  
C10  37049757.228          40.689  
C24  23512659.165          35.632  
C26  21806284.145          45.372  
C29  24784098.057          31.638  
C31  22561320.509          41.997  
C35  21710359.209          48.062  
C39  24561710.931          32.841  
> 2026 05 10 00 11 30.0000000  0 13
C01  38454959.641          36.639  
C02  39636760.719          32.325  
C03  38539139.885          39.537  
C04  39474892.770          32.435  
C07  37636530.587          38.122  
C08  36155134.251          46.358  
C10  37056176.439          42.229  
C24  23499408.386          42.090  
C26  21808169.548          44.715  
C29  24800638.547          29.959  
C31  22549602.942          42.107  
C35  21713833.944          42.605  
C39  24578683.914          33.749  
> 2026 05 10 00 12  0.0000000  0 13
C01  38453354.454          35.077  
C02  39636952.468          32.711  
C03  38538290.527          33.116  
C04  39472938.165          30.234  
C07  37645058.574          37.574  
C08  36155079.656          45.813  
C10  37062638.703          40.234  
C24  23486228.918          40.381  
C26  21810158.671          44.422  
C29  24817214.792          33.384  
C31  22537963.142          42.413  
C35  21717401.257          44.100  
C39  24595712.925          36.489  
> 2026 05 10 00 12 30.0000000  0 13
C01  38451732.478          36.911  
C02  39637125.423          31.352  
C03  38537423.191          36.800  
C04  39470965.023          31.787  
C07  37653593.169          38.779  
C08  36155016.223          46.603  
C10  37069112.685          39.274  
C24  23473083.466          34.785  
C26  21812222.236          45.710  
C29  24833795.109          33.993  
C31  22526367.072          40.404  
C35  21721024.223          44.400  
C39  24612771.844          33.383  
> 2026 05 10 00 13  0.0000000  0 13
C01  38450094.025          30.447  
C02  39637275.494          32.366  
C03  38536532.442          32.905  
C04  39468976.092          30.252  
C07  37662130.718          34.501  
C08  36154942.361          45.107  
C10  37075592.774          41.396  
C24  23459977.634          38.493  
C26  21814354.668          44.608  
C29  24850370.322          32.795  
C31  22514816.202          38.111  
C35  21724697.374          45.000  
C39  24629849.565          36.345  
> 2026 05 10 00 13 30.0000000  0 13
C01  38448421.400          35.636  
C02  39637390.183          30.386  
C03  38535610.289          38.017  
C04  39466953.822          33.278  
C07  37670658.948          37.171  
C08  36154846.737          41.854  
C10  37082071.737          40.217  
C24  23446891.986          38.739  
C26  21816544.785          44.612  
C29  24866931.776          27.560  
C31  22503290.520          37.814  
C35  21728413.986          42.417  
C39  24646936.788          33.184  
> 2026 05 10 00 14  0.0000000  0 13
C01  38446813.943          34.985  
C02  39637565.457          31.132  
C03  38534748.301          35.818  
C04  39464997.927          30.726  
C07  37679274.333          40.942  
C08  36154820.111          41.796  
C10  37088641.795          38.678  
C24  23433926.569          33.870  
C26  21818887.430          42.224  
C29  24883576.186          34.274  
C31  22491895.269          42.356  
C35  21732267.462          45.359  
C39  24664133.632          34.164  
> 2026 05 10 00 14 30.0000000  0 13
C01  38445170.336          37.307  
C02  39637703.004          29.899  
C03  38533846.942          36.962  
C04  39463006.289          35.382  
C07  37687874.406          39.243  
C08  36154764.899          41.282  
C10  37095203.444          42.255  
C24  23420982.963          39.354  
C26  21821280.828          43.618  
C29  24900197.148          31.470  
C31  22480520.326          39.682  
C35  21736154.863          44.460  
C39  24681333.320          31.423  
> 2026 05 10 00 15  0.0000000  0 13
C01  38443526.200          38.187  
C02  39637832.619          33.857  
C03  38532940.660          37.085  
C04  39461011.604          34.212  
C07  37696493.862          39.048  
C08  36154714.498          46.730  
C10  37101787.423          40.707  
C24  23408090.123          38.012  
C26  21823763.032          44.253  
C29  24916834.248          30.512  
C31  22469208.367          40.760  
C35  21740111.483          44.182  
C39  24698569.451          33.925  
> 2026 05 10 00 15 30.0000000  0 13
C01  38441891.605          38.044  
C02  39637968.089          33.149  
C03  38532040.068          37.434  
C04  39459027.061          33.162  
C07  37705146.414          38.413  
C08  36154683.383          44.860  
C10  37108411.543          41.124  
C24  23395265.874          37.235  
C26  21826344.031          44.295  
C29  24933494.334          33.720  
C31  22457966.302          42.094  
C35  21744148.183          44.673  
C39  24715856.781          33.420  
> 2026 05 10 00 16  0.0000000  0 13
C01  38440237.420          36.452  
C02  39638084.707          32.613  
C03  38531120.114          35.531  
C04  39457024.347          31.114  
C07  37713800.619          37.151  
C08  36154638.748          47.588  
C10  37115041.763          41.397  
C24  23382479.084          38.100  
C26  21828995.633          46.061  
C29  24950151.767          29.057  
C31  22446766.722          39.206  
C35  21748236.834          45.851  
C39  24733165.482          33.975  
> 2026 05 10 00 16 30.0000000  0 13
C01  38438582.797          34.291  
C02  39638193.411          35.399  
C03  38530192.908          35.168  
C04  39455019.493          32.127  
C07  37722474.330          36.601  
C08  36154600.912          43.528  
C10  37121697.300          41.539  
C24  23369745.559          35.641  
C26  21831732.107          44.325  
C29  24966821.882          31.919  
C31  22435627.085          43.206  
C35  21752394.792          41.424  
C39  24750508.776          34.057  
> 2026 05 10 00 17  0.0000000  0 13
C01  38436923.806          32.005  
C02  39638294.867          33.343  
C03  38529260.538          38.524  
C04  39453010.261          30.933  
C07  37731166.918          35.538  
C08  36154565.291          44.264  
C10  37128376.602          37.533  
C24  23357069.321          33.915  
C26  21834556.923          44.803  
C29  24983504.104          35.901  
C31  22424546.491          38.451  
C35  21756620.411          44.387  
C39  24767891.472          32.410  
> 2026 05 10 00 17 30.0000000  0 13
C01  38435282.909          36.948  
C02  39638411.615          33.349  
C03  38528345.177          36.626  
C04  39451020.351          31.330  
C07  37739901.665          37.483  
C08  36154556.689          43.365  
C10  37135102.211          40.995  
C24  23344469.088          37.328  
C26  21837485.520          45.688  
C29  25000216.525          33.310  
C31  22413545.762          39.361  
C35  21760933.644          47.114  
C39  24785330.379          36.553  
> 2026 05 10 00 18  0.0000000  0 13
C01  38433592.260          34.887  
C02  39638477.497          30.797  
C03  38527375.653          34.768  
C04  39448981.973          27.656  
C07  37748603.172          38.900  
C08  36154504.042          43.534  
C10  37141802.710          38.967  
C24  23331877.598          38.032  
C26  21840455.828          43.080  
C29  25016895.450          31.212  
C31  22402559.561          34.605  
C35  21765266.792          42.394  
C39  24802757.634          35.170  
> 2026 05 10 00 18 30.0000000  0 13
C01  38431941.440          35.500  
C02  39638576.506          33.522  
C03  38526443.470          38.197  
C04  39446981.319          31.470  
C07  37757367.690          40.763  
C08  36154497.809          46.315  
C10  37148569.877          42.135  
C24  23319381.225          36.939  
C26  21843553.891          41.075  
C29  25033625.968          31.689  
C31  22391671.909          42.254  
C35  21769709.692          46.557  
C39  24820261.322          34.539  
> 2026 05 10 00 19  0.0000000  0 13
C01  38430288.161          36.398  
C02  39638672.770          29.872  
C03  38525505.171          31.117  
C04  39444977.969          32.463  
C07  37766152.476          36.383  
C08  36154494.831          42.464  
C10  37155363.842          41.359  
C24  23306945.917          33.777  
C26  21846739.868          41.107  
C29  25050365.685          33.100  
C31  22380845.999          36.249  
C35  21774218.784          42.827  
C39  24837801.643          31.650  
> 2026 05 10 00 19 30.0000000  0 13
C01  38428605.511          33.350  
C02  39638734.441          31.287  
C03  38524534.042          36.994  
C04  39442945.717          34.090  
C07  37774925.768          40.067  
C08  36154470.026          44.132  
C10  37162153.551          38.282  
C24  23294536.780          39.174  
C26  21849982.475          45.602  
C29  25067088.971          31.848  
C31  22370051.321          37.428  
C35  21778764.208          44.270  
C39  24855347.306          32.148  
> 2026 05 10 00 20  0.0000000  0 13
C01  38426940.420          36.779  
C02  39638809.835          27.707  
C03  38523577.012          36.371  
C04  39440930.191          32.983  
C07  37783740.723          37.253  
C08  36154470.639          46.328  
C10  37168988.029          42.088  
C24  23282208.941          36.814  
C26  21853334.250          46.132  
C29  25083844.088          30.450  
C31  22359340.039          35.901  
C35  21783400.361          42.673  
C39  24872952.422          31.493  
> 2026 05 10 00 20 30.0000000  0 13
C01  38425259.912          31.967  
C02  39638869.086          31.510  
C03  38522603.030          35.774  
C04  39438898.219          31.991  
C07  37792559.813          37.405  
C08  36154461.598          43.677  
C10  37175832.848          40.202  
C24  23269922.450          39.328  
C26  21856757.409          43.611  
C29  25100594.176          29.545  
C31  22348673.400          39.159  
C35  21788087.002          44.268  
C39  24890576.658          30.904  
> 2026 05 10 00 21  0.0000000  0 13
C01  38423578.988          36.501  
C02  39638926.802          31.525  
C03  38521629.045          35.379  
C04  39436869.050          31.602  
C07  37801400.403          36.467  
C08  36154460.748          46.668  
C10  37182705.323          40.332  
C24  23257698.553          42.755  
C26  21860271.686          44.162  
C29  25117358.528          31.589  
C31  22338071.925          39.052  
C35  21792844.704          43.878  
C39  24908238.051          35.522  
> 2026 05 10 00 21 30.0000000  0 13
C01  38421917.970          37.011  
C02  39638998.518          31.689  
C03  38520670.075          31.916  
C04  39434858.554          35.845  
C07  37810283.087          36.568  
C08  36154485.904          43.132  
C10  37189624.929          38.904  
C24  23245556.558          43.009  
C26  21863896.082          43.400  
C29  25134152.031          31.428  
C31  22327551.503          43.321  
C35  21797686.907          42.150  
C39  24925955.902          31.753  
> 2026 05 10 00 22  0.0000000  0 13
C01  38420244.102          34.990  
C02  39639055.875          26.871  
C03  38519695.219          35.095  
C04  39432833.323          34.338  
C07  37819170.175          38.828  
C08  36154500.532          42.844  
C10  37196554.940          39.553  
C24  23233460.888          40.110  
C26  21867593.708          43.473  
C29  25150942.806          32.448  
C31  22317082.964          38.861  
C35  21802585.492          42.375  
C39  24943694.323          33.893  
> 2026 05 10 00 22 30.0000000  0 13
C01  38418565.477          36.592  
C02  39639106.033          29.755  
C03  38518711.923          35.774  
C04  39430806.740          33.780  
C07  37828079.106          35.679  
C08  36154524.477          38.677  
C10  37203512.091          40.554  
C24  23221425.789          39.568  
C26  21871378.787          40.294  
C29  25167743.137          34.181  
C31  22306672.747          41.432  
C35  21807548.458          44.171  
C39  24961469.555          33.699  
> 2026 05 10 00 23  0.0000000  0 13
C01  38416871.482          36.012  
C02  39639138.038          31.125  
C03  38517713.630          36.443  
C04  39428761.810          31.654  
C07  37836988.917          35.063  
C08  36154533.333          41.785  
C10  37210476.786          41.460  
C24  23209435.561          35.765  
C26  21875237.518          42.927  
C29  25184535.397          28.366  
C31  22296310.499          39.551  
C35  21812561.783          41.729  
C39  24979260.556          30.951  
> 2026 05 10 00 23 30.0000000  0 13
C01  38415190.991          37.240  
C02  39639178.657          32.106  
C03  38516724.590          34.007  
C04  39426727.691          32.404  
C07  37845931.828          37.345  
C08  36154563.166          40.016  
C10  37217481.723          42.322  
C24  23197519.294          40.568  
C26  21879197.466          42.631  
C29  25201352.431          32.592  
C31  22286024.381          39.932  
C35  21817653.336          43.031  
C39  24997100.194          31.875  
> 2026 05 10 00 24  0.0000000  0 13
C01  38413476.424          37.127  
C02  39639184.134          31.275  
C03  38515700.114          33.131  
C04  39424662.576          35.007  
C07  37854864.487          38.896  
C08  36154567.825          47.761  
C10  37224481.580          41.176  
C24  23185635.690          41.414  
C26  21883212.850          45.851  
C29  25218144.658          29.024  
C31  22275767.314          38.573  
C35  21822779.665          42.828  
C39  25014943.264          32.717  
> 2026 05 10 00 24 30.0000000  0 13
C01  38411771.562          40.271  
C02  39639196.603          30.514  
C03  38514681.465          34.401  
C04  39422607.643          32.064  
C07  37863827.567          34.638  
C08  36154586.523          42.767  
C10  37231514.801          42.110  
C24  23173821.798          35.578  
C26  21887324.854          45.172  
C29  25234958.316          31.729  
C31  22265583.786          42.384  
C35  21827981.818          44.938  
C39  25032827.543          32.439  
> 2026 05 10 00 25  0.0000000  0 13
C01  38410074.058          31.834  
C02  39639211.781          34.468  
C03  38513667.636          37.019  
C04  39420556.733          36.057  
C07  37872817.353          40.535  
C08  36154618.477          41.950  
C10  37238584.580          40.570  
C24  23162081.138          35.334  
C26  21891535.572          46.163  
C29  25251784.322          32.354  
C31  22255471.890          40.432  
C35  21833257.757          43.169  
C39  25050756.008          28.594  
> 2026 05 10 00 25 30.0000000  0 13
C01  38408391.683          35.820  
C02  39639244.859          30.887  
C03  38512666.693          34.928  
C04  39418523.014          29.281  
C07  37881843.166          37.354  
C08  36154672.274          42.230  
C10  37245695.336          35.188  
C24  23150418.280          37.105  
C26  21895852.789          42.155  
C29  25268637.498          33.046  
C31  22245438.055          42.485  
C35  21838613.387          46.227  
C39  25068733.282          30.660  
> 2026 05 10 00 26  0.0000000  0 13
C01  38406672.796          36.475  
C02  39639233.570          33.453  
C03  38511627.515          34.886  
C04  39416450.342          33.603  
C07  37890854.725          33.590  
C08  36154698.007          41.737  
C10  37252793.897          39.202  
C24  23138782.893          38.445  
C26  21900220.443          44.095  
C29  25285461.918          30.751  
C31  22235432.310          42.307  
C35  21843999.020          47.385  
C39  25086705.837          36.397  
> 2026 05 10 00 26 30.0000000  0 13
C01  38404974.893          33.515  
C02  39639243.786          33.122  
C03  38510607.436          35.617  
C04  39414399.012          31.542  
C07  37899904.808          33.071  
C08  36154747.109          45.009  
C10  37259943.342          38.071  
C24  23127235.551          40.444  
C26  21904698.089          45.044  
C29  25302314.317          30.599  
C31  22225511.707          37.604  
C35  21849470.696          43.161  
C39  25104735.040          32.286  
> 2026 05 10 00 27  0.0000000  0 13
C01  38403252.212          35.844  
C02  39639226.692          32.800  
C03  38509560.477          36.394  
C04  39412325.480          31.995  
C07  37908955.445          36.838  
C08  36154778.618          43.761  
C10  37267094.782          35.979  
C24  23115728.134          40.584  
C26  21909237.884          44.626  
C29  25319154.381          34.828  
C31  22215630.666          44.521  
C35  21854983.459          43.335  
C39  25122773.393          35.638  
> 2026 05 10 00 27 30.0000000  0 13
C01  38401520.996          34.111  
C02  39639198.689          32.082  
C03  38508502.404          33.646  
C04  39410240.019          29.431  
C07  37918013.061          38.163  
C08  36154806.683          47.999  
C10  37274261.982          38.857  
C24  23104272.535          40.317  
C26  21913863.170          45.732  
C29  25335988.943          27.929  
C31  22205803.370          42.588  
C35  21860550.528          46.020  
C39  25140833.841          30.088  
> 2026 05 10 00 28  0.0000000  0 13
C01  38399834.478          31.788  
C02  39639211.357          28.669  
C03  38507484.505          35.105  
C04  39408199.432          31.930  
C07  37927136.092          37.317  
C08  36154886.685          43.225  
C10  37281499.475          41.256  
C24  23092931.218          37.229  
C26  21918620.996          46.139  
C29  25352876.633          28.067  
C31  22196086.548          41.402  
C35  21866227.357          45.718  
C39  25158973.368          31.389  
> 2026 05 10 00 28 30.0000000  0 13
C01  38398105.879          35.950  
C02  39639178.795          30.030  
C03  38506422.639          36.949  
C04  39406116.972          28.858  
C07  37936238.499          36.110  
C08  36154927.634          43.972  
C10  37288720.902          37.329  
C24  23081612.849          37.689  
C26  21923419.527          40.652  
C29  25369725.897          30.508  
C31  22186388.499          43.826  
C35  21871923.461          44.198  
C39  25177102.760          33.251  
> 2026 05 10 00 29  0.0000000  0 13
C01  38396409.884          34.878  
C02  39639179.501          30.042  
C03  38505394.256          35.521  
C04  39404066.469          36.445  
C07  37945395.103          37.735  
C08  36155009.927          43.991  
C10  37296005.085          38.857  
C24  23070396.248          40.229  
C26  21928345.903          45.023  
C29  25386620.654          29.611  
C31  22176788.832          42.127  
C35  21877719.565          42.307  
C39  25195295.661          35.163  
> 2026 05 10 00 29 30.0000000  0 13
C01  38394651.465          36.008  
C02  39639113.986          32.883  
C03  38504298.746          36.546  
C04  39401954.873          31.380  
C07  37954508.557          39.996  
C08  36155034.122          42.539  
C10  37303251.482          42.294  
C24  23059180.873          41.138  
C26  21933300.191          43.256  
C29  25403457.249          30.777  
C31  22167193.000          44.856  
C35  21883516.732          42.671  
C39  25213458.348          33.292  
> 2026 05 10 00 30  0.0000000  0 13
C01  38392959.110          35.519  
C02  39639111.954          30.692  
C03  38503266.350          34.346  
C04  39399905.156          32.341  
C07  37963705.044          35.345  
C08  36155125.616          42.871  
C10  37310585.601          34.541  
C24  23048098.093          39.651  
C26  21938401.467          44.399  
C29  25420364.282          35.325  
C31  22157724.375          39.961  
C35  21889440.234          44.152  
C39  25231718.877          31.879  
> 2026 05 10 00 30 30.0000000  0 13
C01  38567408.643          35.889  
C02  39615972.215          31.005  
C03  38593306.927          36.900  
C04  39609479.651          33.302  
C07  37972866.723          35.279  
C08  36155172.043          45.541  
C10  37317895.068          40.451  
C24  23037027.407          40.761  
C26  21943541.397          44.405  
C29  25437221.919          27.848  
C31  22148265.524          37.424  
C35  21895372.344          44.765  
C39  25249956.155          28.976  
> 2026 05 10 00 31  0.0000000  0 13
C01  38565972.567          35.525  
C02  39616447.314          31.758  
C03  38592717.913          36.653  
C04  39607544.602          31.569  
C07  37982052.327          40.837  
C08  36155222.461          46.917  
C10  37325229.150          37.110  
C24  23026024.938          39.190  
C26  21948770.681          41.750  
C29  25454086.613          35.076  
C31  22138872.332          42.017  
C35  21901369.673          44.177  
C39  25268223.474          29.895  
> 2026 05 10 00 31 30.0000000  0 13
C01  38564542.374          35.945  
C02  39616932.195          29.144  
C03  38592136.309          34.624  
C04  39605616.075          30.824  
C07  37991267.984          36.581  
C08  36155288.533          44.291  
C10  37332602.723          41.943  
C24  23015101.416          39.654  
C26  21954100.058          45.696  
C29  25470966.945          27.467  
C31  22129553.410          43.522  
C35  21907436.667          47.949  
C39  25286532.223          33.608  
> 2026 05 10 00 32  0.0000000  0 13
C01  38563134.630          32.894  
C02  39617436.080          34.817  
C03  38591573.545          38.915  
C04  39603712.019          31.196  
C07  38000525.041          35.182  
C08  36155383.042          42.509  
C10  37340022.957          43.010  
C24  23004269.289          40.014  
C26  21959538.216          45.402  
C29  25487874.426          31.453  
C31  22120321.370          39.895  
C35  21913590.235          45.333  
C39  25304896.095          33.373  
> 2026 05 10 00 32 30.0000000  0 13
C01  38561700.288          33.867  
C02  39617910.577          32.352  
C03  38590981.284          35.099  
C04  39601774.867          32.592  
C07  38009774.624          38.102  
C08  36155455.158          48.143  
C10  37347444.011          36.570  
C24  22993479.082          39.002  
C26  21965040.165          43.712  
C29  25504759.459          29.260  
C31  22111128.812          38.449  
C35  21919777.503          45.491  
C39  25323261.674          32.953  
> 2026 05 10 00 33  0.0000000  0 13
C01  38560288.956          32.816  
C02  39618407.456          30.349  
C03  38590408.921          37.466  
C04  39599865.277          33.121  
C07  38019068.221          37.791  
C08  36155556.043          45.873  
C10  37354914.191          38.556  
C24  22982778.768          37.703  
C26  21970654.744          42.350  
C29  25521675.122          31.992  
C31  22102021.342          42.265  
C35  21926049.425          42.697  
C39  25341682.420          34.481  
> 2026 05 10 00 33 30.0000000  0 13
C01  38558846.542          31.639  
C02  39618872.154          33.733  
C03  38589806.213          31.385  
C04  39597921.175          30.858  
C07  38028353.762          36.636  
C08  36155632.679          40.893  
C10  37362381.547          38.784  
C24  22972120.458          35.412  
C26  21976327.241          45.890  
C29  25538563.889          28.578  
C31  22092951.722          41.239  
C35  21932356.680          42.202  
C39  25360103.307          31.249  
> 2026 05 10 00 34  0.0000000  0 13
C01  38557383.249          33.610  
C02  39619315.301          30.101  
C03  38589180.106          31.549  
C04  39595957.230          30.952  
C07  38037637.840          32.365  
C08  36155692.139          43.339  
C10  37369855.074          41.830  
C24  22961510.054          40.030  
C26  21982068.971          44.432  
C29  25555434.839          28.225  
C31  22083924.149          40.080  
C35  21938702.116          41.763  
C39  25378533.218          29.017  
> 2026 05 10 00 34 30.0000000  0 13
C01  38555962.900          35.075  
C02  39619795.950          29.551  
C03  38588596.066          34.984  
C04  39594034.378          28.060  
C07  38046982.018          38.146  
C08  36155801.255          45.742  
C10  37377394.681          40.761  
C24  22951013.932          45.057  
C26  21987940.150          44.709  
C29  25572352.328          30.353  
C31  22075004.473          41.475  
C35  21945148.517          43.984  
C39  25397033.257          30.858  
> 2026 05 10 00 35  0.0000000  0 13
C01  38554482.206          37.648  
C02  39620220.620          33.349  
C03  38587949.659          32.227  
C04  39592050.588          31.178  
C07  38056290.183          36.699  
C08  36155854.110          43.510  
C10  37384902.099          40.987  
C24  22940528.453          38.849  
C26  21993842.836          41.364  
C29  25589218.168          27.121  
C31  22066089.146          44.084  
C35  21951598.578          40.392  
C39  25415505.281          29.702  
> 2026 05 10 00 35 30.0000000  0 13
C01  38553018.412          35.081  
C02  39620655.040          29.983  
C03  38587314.749          35.264  
C04  39590083.972          29.578  
C07  38065633.163          34.852  
C08  36155926.783          44.402  
C10  37392456.384          38.542  
C24  22930126.262          40.230  
C26  21999848.176          45.270  
C29  25606101.153          29.636  
C31  22057254.646          42.562  
C35  21958121.852          44.640  
C39  25434021.485          33.481  
> 2026 05 10 00 36  0.0000000  0 13
C01  38551593.267          39.327  
C02  39621130.169          31.254  
C03  38586720.818          32.640  
C04  39588156.225          31.128  
C07  38075036.050          36.114  
C08  36156046.755          43.062  
C10  37400071.114          36.486  
C24  22919840.197          38.405  
C26  22005983.308          44.909  
C29  25623029.784          29.490  
C31  22048527.298          43.298  
C35  21964749.839          41.199  
C39  25452607.873          30.176  
> 2026 05 10 00 36 30.0000000  0 13
C01  38550121.555          37.118  
C02  39621555.589          30.348  
C03  38586075.447          37.529  
C04  39586177.652          30.592  
C07  38084411.106          34.962  
C08  36156121.673          44.853  
C10  37407668.666          39.630  
C24  22909574.687          42.423  
C26  22012160.547          41.438  
C29  25639909.352          28.796  
C31  22039813.744          40.971  
C35  21971387.495          45.400  
C39  25471172.911          34.200  
> 2026 05 10 00 37  0.0000000  0 13
C01  38548654.431          35.769  
C02  39621981.606          34.857  
C03  38585432.573          38.247  
C04  39584204.504          33.853  
C07  38093809.077          31.057  
C08  36156206.043          44.561  
C10  37415294.910          35.448  
C24  22899386.422          37.946  
C26  22018429.149          43.440  
C29  25656800.830          31.279  
C31  22031171.648          44.508  
C35  21978091.181          42.735  
C39  25489773.896          33.435  
> 2026 05 10 00 37 30.0000000  0 13
C01  38547212.590          36.435  
C02  39622436.476          30.759  
C03  38584818.186          35.644  
C04  39582259.229          33.960  
C07  38103255.686          37.692  
C08  36156327.061          45.266  
C10  37422975.768          38.948  
C24  22889296.477          40.540  
C26  22024814.836          42.321  
C29  25673721.529          28.083  
C31  22022622.334          39.316  
C35  21984878.442          40.545  
C39  25508426.820          31.480  
> 2026 05 10 00 38  0.0000000  0 13
C01  38545738.914          37.602  
C02  39622852.232          32.529  
C03  38584165.526          36.299  
C04  39580278.752          31.244  
C07  38112687.989          33.233  
C08  36156414.063          46.119  
C10  37430648.377          42.833  
C24  22879246.347          39.556  
C26  22031255.504          43.997  
C29  25690609.802          28.446  
C31  22014102.617          40.069  
C35  21991691.571          45.079  
C39  25527076.333          23.682  
> 2026 05 10 00 38 30.0000000  0 13
C01  38544270.980          31.300  
C02  39623273.842          35.266  
C03  38583515.769          34.786  
C04  39578303.071          32.507  
C07  38122145.875          40.724  
C08  36156509.915          46.159  
C10  37438352.669          40.643  
C24  22869272.988          39.811  
C26  22037787.879          40.306  
C29  25707505.616          29.705  
C31  22005651.225          39.873  
C35  21998568.504          44.921  
C39  25545757.557          32.156  
> 2026 05 10 00 39  0.0000000  0 13
C01  38542801.473          34.838  
C02  39623693.273          29.435  
C03  38582865.539          37.048  
C04  39576327.677          31.623  
C07  38131623.016          36.469  
C08  36156613.464          43.902  
C10  37446084.435          38.427  
C24  22859373.105          40.176  
C26  22044410.832          45.145  
C29  25724405.885          30.890  
C31  21997268.577          40.833  
C35  22005506.704          45.123  
C39  25564467.813          28.044  
> 2026 05 10 00 39 30.0000000  0 13
C01  38541335.508          35.357  
C02  39624112.483          31.655  
C03  38582213.936          33.298  
C04  39574353.701          31.177  
C07  38141123.136          36.228  
C08  36156722.778          44.529  
C10  37453843.852          38.532  
C24  22849547.916          43.819  
C26  22051122.538          43.399  
C29  25741307.786          30.186  
C31  21988951.449          44.050  
C35  22012503.208          43.486  
C39  25583207.976          31.878  
> 2026 05 10 00 40  0.0000000  0 13
C01  38539857.721          32.437  
C02  39624518.478          29.615  
C03  38581549.216          38.345  
C04  39572366.878          33.136  
C07  38150628.855          37.959  
C08  36156820.524          48.086  
C10  37461617.539          40.463  
C24  22839783.924          38.620  
C26  22057907.962          44.992  
C29  25758199.819          29.222  
C31  21980683.250          41.443  
C35  22019544.541          43.518  
C39  25601959.949          29.697  
> 2026 05 10 00 40 30.0000000  0 13
C01  38538367.850          38.460  
C02  39624911.716          31.921  
C03  38580869.944          29.258  
C04  39570366.857          33.068  
C07  38160141.220          32.621  
C08  36156911.197          45.492  
C10  37469403.421          40.226  
C24  22830082.400          39.626  
C26  22064773.814          42.488  
C29  25775081.494          27.049  
C31  21972472.188          41.861  
C35  22026632.616          42.974  
C39  25620726.779          30.046  
> 2026 05 10 00 41  0.0000000  0 13
C01  38536891.518          31.316  
C02  39625313.609          33.524  
C03  38580204.764          37.355  
C04  39568385.660          31.233  
C07  38169688.974          37.063  
C08  36157023.289          44.655  
C10  37477228.511          39.267  
C24  22820468.859          35.211  
C26  22071740.944          46.171  
C29  25791979.258          26.335  
C31  21964337.628          38.222  
C35  22033793.088          44.152  
C39  25639534.535          30.779  
> 2026 05 10 00 41 30.0000000  0 13
C01  38535414.566          34.944  
C02  39625713.544          28.648  
C03  38579533.615          36.471  
C04  39566396.505          31.552  
C07  38179251.328          35.434  
C08  36157133.768          46.760  
C10  37485080.201          37.186  
C24  22810927.629          40.249  
C26  22078791.116          44.696  
C29  25808876.140          28.367  
C31  21956265.810          41.851  
C35  22041004.335          42.998  
C39  25658366.253          32.446  
> 2026 05 10 00 42  0.0000000  0 13
C01  38533907.637          35.970  
C02  39626078.507          31.856  
C03  38578828.769          34.260  
C04  39564379.684          29.943  
C07  38188804.509          35.474  
C08  36157218.819          43.052  
C10  37492928.338          38.381  
C24  22801428.898          38.930  
C26  22085900.289          43.489  
C29  25825744.904          27.884  
C31  21948227.257          40.935  
C35  22048246.012          41.645  
C39  25677192.112          29.560  
> 2026 05 10 00 42 30.0000000  0 13
C01  38532396.841          38.337  
C02  39626438.247          32.374  
C03  38578118.615          33.198  
C04  39562358.253          31.461  
C07  38198370.080          37.095  
C08  36157302.140          44.395  
C10  37500793.737          40.780  
C24  22791999.632          40.961  
C26  22093089.609          45.269  
C29  25842606.673          27.884  
C31  21940248.927          40.841  
C35  22055536.715          40.090  
C39  25696040.742          29.282  
> 2026 05 10 00 43  0.0000000  0 13
C01  38530946.048          35.623  
C02  39626858.768          32.448  
C03  38577470.293          34.278  
C04  39560398.012          30.402  
C07  38208017.387          38.081  
C08  36157451.144          46.248  
C10  37508746.421          37.688  
C24  22782708.738          41.207  
C26  22100431.196          43.204  
C29  25859532.688          29.917  
C31  21932396.656          43.164  
C35  22062945.693          42.763  
C39  25714974.233          30.326  
> 2026 05 10 00 43 30.0000000  0 13
C01  38529450.434          39.121  
C02  39627229.982          30.342  
C03  38576772.375          34.888  
C04  39558390.592          29.423  
C07  38217638.234          36.261  
C08  36157557.408          45.605  
C10  37516680.833          40.235  
C24  22773445.877          38.032  
C26  22107815.632          45.034  
C29  25876414.413          28.786  
C31  21924562.214          40.574  
C35  22070366.506          44.083  
C39  25733888.384          31.304  
> 2026 05 10 00 44  0.0000000  0 13
C01  38527937.286          33.780  
C02  39627579.856          28.859  
C03  38576054.886          36.635  
C04  39556366.552          29.599  
C07  38227260.338          36.192  
C08  36157648.748          46.841  
C10  37524621.261          42.058  
C24  22764240.459          41.022  
C26  22115265.110          44.577  
C29  25893275.565          28.969  
C31  21916775.107          43.563  
C35  22077822.756          42.308  
C39  25752808.666          30.841  
> 2026 05 10 00 44 30.0000000  0 13
C01  38526430.573          32.457  
C02  39627934.087          27.930  
C03  38575338.150          37.015  
C04  39554349.808          33.087  
C07  38236904.005          38.450  
C08  36157748.608          41.482  
C10  37532594.981          40.548  
C24  22755119.569          37.893  
C26  22122807.927          46.839  
C29  25910143.812          25.988  
C31  21909053.627          43.445  
C35  22085339.378          47.138  
C39  25771760.303          32.090  
> 2026 05 10 00 45  0.0000000  0 12
C01  38524935.556          32.421  
C02  39628295.963          32.022  
C03  38574631.995          31.983  
C04  39552339.782          31.957  
C07  38246577.517          35.867  
C08  36157861.958          46.457  
C10  37540603.061          38.124  
C24  22746079.229          43.894  
C26  22130448.281          41.435  
C31  21901410.013          41.800  
C35  22092921.581          46.242  
C39  25790741.950          27.591  
> 2026 05 10 00 45 30.0000000  0 12
C01  38523439.873          35.493  
C02  39628653.379          31.898  
C03  38573924.875          35.870  
C04  39550332.554          31.321  
C07  38256269.081          35.089  
C08  36157979.201          42.093  
C10  37548636.497          38.442  
C24  22737118.932          41.626  
C26  22138174.310          41.935  
C31  21893829.399          42.091  
C35  22100561.087          44.534  
C39  25809750.301          31.130  
> 2026 05 10 00 46  0.0000000  0 12
C01  38521937.226          35.638  
C02  39629002.547          29.710  
C03  38573206.596          35.839  
C04  39548319.113          33.079  
C07  38265973.588          35.962  
C08  36158090.446          45.140  
C10  37556685.213          35.709  
C24  22728227.166          38.370  
C26  22145982.222          43.899  
C31  21886305.235          43.562  
C35  22108243.588          48.465  
C39  25828773.631          28.464  
> 2026 05 10 00 46 30.0000000  0 12
C01  38520437.489          37.119  
C02  39629350.030          28.766  
C03  38572487.717          32.268  
C04  39546304.219          31.381  
C07  38275694.494          36.048  
C08  36158207.346          40.170  
C10  37564762.857          40.411  
C24  22719415.269          41.906  
C26  22153877.028          41.552  
C31  21878847.380          42.574  
C35  22115982.449          43.822  
C39  25847821.876          30.547  
> 2026 05 10 00 47  0.0000000  0 12
C01  38518927.295          36.398  
C02  39629686.015          33.157  
C03  38571758.217          36.805  
C04  39544282.145          29.967  
C07  38285428.001          35.878  
C08  36158316.118          43.880  
C10  37572855.945          38.452  
C24  22710669.388          38.966  
C26  22161849.051          41.721  
C31  21871441.323          44.247  
C35  22123768.726          43.494  
C39  25866882.670          31.779  
> 2026 05 10 00 47 30.0000000  0 12
C01  38517415.411          34.655  
C02  39630014.192          30.538  
C03  38571021.198          35.394  
C04  39542258.253          33.864  
C07  38295171.729          34.611  
C08  36158424.644          43.892  
C10  37580969.779          39.854  
C24  22701998.061          37.443  
C26  22169901.591          46.002  
C31  21864096.530          46.392  
C35  22131602.336          45.711  
C39  25885964.187          29.716  
> 2026 05 10 00 48  0.0000000  0 12
C01  38515912.317          36.969  
C02  39630350.940          31.770  
C03  38570291.574          36.705  
C04  39540243.453          31.922  
C07  38304946.189          37.180  
C08  36158547.288          39.709  
C10  37589120.872          39.067  
C24  22693412.533          44.372  
C26  22178049.573          44.317  
C31  21856827.124          42.319  
C35  22139498.760          41.824  
C39  25905076.775          29.825  
> 2026 05 10 00 48 30.0000000  0 13
C01  38514399.230          36.275  
C02  39630672.008          34.088  
C03  38569547.746          35.766  
C04  39538214.551          28.950  
C07  38314724.258          34.750  
C08  36158655.959          41.077  
C10  37597279.901          37.830  
C24  22684892.361          43.275  
C26  22186273.725          44.556  
C31  21849605.806          45.975  
C34  25778358.883          30.168  
C35  22147437.398          40.377  
C39  25924198.217          29.938  
> 2026 05 10 00 49  0.0000000  0 13
C01  38512864.100          34.981  
C02  39630964.072          32.225  
C03  38568781.942          35.485  
C04  39536166.293          28.233  
C07  38324498.095          37.514  
C08  36158747.099          45.948  
C10  37605442.049          38.420  
C24  22676429.186          39.127  
C26  22194559.159          44.813  
C31  21842426.367          42.178  
C34  25761927.949          30.349  
C35  22155403.871          41.589  
C39  25943318.856          28.747  
> 2026 05 10 00 49 30.0000000  0 13
C01  38511377.900          35.241  
C02  39631305.351          30.380  
C03  38568062.160          36.764  
C04  39534168.997          36.680  
C07  38334338.644          34.499  
C08  36158890.309          42.501  
C10  37613679.897          42.338  
C24  22668093.849          38.934  
C26  22202983.091          41.218  
C31  21835360.821          41.706  
C34  25745572.675          28.138  
C35  22163476.357          43.196  
C39  25962511.858          32.846  
> 2026 05 10 00 50  0.0000000  0 13
C01  38509821.171          32.468  
C02  39631571.771          27.013  
C03  38567265.643          35.043  
C04  39532098.464          33.201  
C07  38344124.665          38.646  
C08  36158962.397          43.986  
C10  37621869.122          36.682  
C24  22659764.366          41.235  
C26  22211416.336          40.541  
C31  21828283.497          42.991  
C34  25729167.339          26.998  
C35  22171524.625          44.392  
C39  25981652.220          30.050  
> 2026 05 10 00 50 30.0000000  0 13
C01  38508317.109          33.371  
C02  39631889.141          28.625  
C03  38566520.438          38.541  
C04  39530082.276          33.812  
C07  38353980.205          37.200  
C08  36159092.459          45.084  
C10  37630139.503          36.798  
C24  22651567.417          41.174  
C26  22219989.206          48.064  
C31  21821325.317          41.023  
C34  25712841.980          28.525  
C35  22179681.406          45.421  
C39  26000865.920          27.809  
> 2026 05 10 00 51  0.0000000  0 13
C01  38506792.707          35.148  
C02  39632180.892          33.513  
C03  38565752.562          32.227  
C04  39528042.950          29.778  
C07  38363834.506          37.280  
C08  36159198.902          43.454  
C10  37638406.825          38.579  
C24  22643428.316          38.202  
C26  22228625.456          43.342  
C31  21814407.916          44.093  
C34  25696519.596          29.286  
C35  22187867.217          40.766  
C39  26020079.887          28.750  
> 2026 05 10 00 51 30.0000000  0 13
C01  38505278.519          35.924  
C02  39632475.431          32.311  
C03  38564990.495          35.375  
C04  39526014.966          32.142  
C07  38373710.018          36.140  
C08  36159317.816          46.122  
C10  37646708.091          36.625  
C24  22635376.784          40.963  
C26  22237353.286          46.783  
C31  21807562.250          40.982  
C34  25680230.570          30.420  
C35  22196110.461          42.731  
C39  26039320.673          31.062  
> 2026 05 10 00 52  0.0000000  0 13
C01  38503755.529          34.870  
C02  39632759.119          31.289  
C03  38564218.298          32.429  
C04  39523980.837          31.514  
C07  38383595.778          33.493  
C08  36159430.615          44.414  
C10  37655025.133          38.321  
C24  22627398.105          43.971  
C26  22246160.164          42.156  
C31  21800768.865          40.413  
C34  25663958.746          29.593  
C35  22204398.712          42.678  
C39  26058573.779          27.627  
> 2026 05 10 00 52 30.0000000  0 13
C01  38502241.574          33.498  
C02  39633048.817          31.944  
C03  38563449.416          36.343  
C04  39521953.666          35.589  
C07  38393506.902          34.154  
C08  36159553.952          40.132  
C10  37663377.281          39.622  
C24  22619505.656          41.334  
C26  22255061.207          42.709  
C31  21794051.077          40.963  
C34  25647719.653          30.864  
C35  22212747.976          44.402  
C39  26077855.868          29.621  
> 2026 05 10 00 53  0.0000000  0 13
C01  38500692.086          34.589  
C02  39633297.884          28.826  
C03  38562642.823          37.060  
C04  39519889.836          30.986  
C07  38403398.378          38.587  
C08  36159640.627          44.073  
C10  37671714.036          36.624  
C24  22611658.428          44.191  
C26  22264004.386          42.863  
C31  21787356.287          39.177  
C34  25631467.589          27.798  
C35  22221110.502          40.844  
C39  26097118.455          30.161  
> 2026 05 10 00 53 30.0000000  0 13
C01  38499171.452          36.090  
C02  39633571.273          31.731  
C03  38561862.844          36.554  
C04  39517857.603          30.091  
C07  38413334.488          38.322  
C08  36159760.190          44.923  
C10  37680103.959          40.312  
C24  22603920.294          39.827  
C26  22273064.544          44.172  
C31  21780753.804          45.190  
C34  25615272.306          30.535  
C35  22229551.023          43.832  
C39  26116428.334          30.490  
> 2026 05 10 00 54  0.0000000  0 13
C01  38497624.195          32.158  
C02  39633812.794          32.223  
C03  38561050.954          35.759  
C04  39515795.765          29.479  
C07  38423258.241          34.017  
C08  36159849.941          43.749  
C10  37688485.818          37.373  
C24  22596233.347          40.333  
C26  22282179.054          42.555  
C31  21774183.593          42.497  
C34  25599071.241          28.614  
C35  22238013.191          42.810  
C39  26135728.136          30.292  
> 2026 05 10 00 54 30.0000000  0 13
C01  38496080.802          34.406  
C02  39634054.922          35.729  
C03  38560240.346          37.116  
C04  39513742.353          29.942  
C07  38433203.585          35.170  
C08  36159950.356          42.406  
C10  37696900.465          38.347  
C24  22588633.821          40.244  
C26  22291382.060          43.008  
C31  21767684.049          40.967  
C34  25582902.892          30.352  
C35  22246532.366          39.704  
C39  26155052.347          27.912  
> 2026 05 10 00 55  0.0000000  0 13
C01  38494560.068          35.060  
C02  39634313.920          31.011  
C03  38559450.106          34.362  
C04  39511706.215          33.355  
C07  38443184.034          33.718  
C08  36160069.645          43.652  
C10  37705356.987          40.923  
C24  22581135.243          39.824  
C26  22300688.790          43.457  
C31  21761265.268          40.034  
C34  25566777.845          29.995  
C35  22255120.096          44.401  
C39  26174413.674          28.034  
> 2026 05 10 00 55 30.0000000  0 13
C01  38493007.293          36.184  
C02  39634540.241          29.666  
C03  38558625.624          32.636  
C04  39509645.477          30.598  
C07  38453152.583          33.160  
C08  36160160.367          44.975  
C10  37713808.231          35.093  
C24  22573688.173          40.838  
C26  22310049.280          43.069  
C31  21754880.114          43.564  
C34  25550650.547          29.249  
C35  22263726.981          42.365  
C39  26193761.781          31.205  
> 2026 05 10 00 56  0.0000000  0 13
C01  38491485.549          33.305  
C02  39634790.853          30.845  
C03  38557827.565          37.249  
C04  39507609.705          33.602  
C07  38463163.315          35.842  
C08  36160281.664          42.780  
C10  37722309.295          39.396  
C24  22566351.341          37.623  
C26  22319521.871          40.026  
C31  21748584.421          39.282  
C34  25534575.115          29.898  
C35  22272411.256          37.412  
C39  26213158.361          28.394  
> 2026 05 10 00 56 30.0000000  0 13
C01  38489934.590          34.712  
C02  39635007.127          30.952  
C03  38556995.158          36.414  
C04  39505547.909          33.584  
C07  38473161.385          33.867  
C08  36160376.841          43.845  
C10  37730802.492          39.181  
C24  22559068.549          42.591  
C26  22329046.884          43.198  
C31  21742322.096          43.813  
C34  25518495.964          31.136  
C35  22281116.274          43.467  
C39  26232538.140          28.718  
> 2026 05 10 00 57  0.0000000  0 13
C01  38488418.683          35.064  
C02  39635253.349          30.785  
C03  38556195.697          33.658  
C04  39503521.429          32.717  
C07  38483209.737          33.885  
C08  36160504.756          44.321  
C10  37739356.628          39.273  
C24  22551903.437          42.742  
C26  22338689.425          40.692  
C31  21736156.213          44.010  
C34  25502476.817          28.153  
C35  22289905.311          42.628  
C39  26251970.804          29.878  
> 2026 05 10 00 57 30.0000000  0 13
C01  38486861.261          36.796  
C02  39635455.997          29.438  
C03  38555352.348          38.056  
C04  39501452.844          29.793  
C07  38493232.186          34.287  
C08  36160594.115          42.484  
C10  37747890.022          38.111  
C24  22544777.303          45.107  
C26  22348374.739          41.451  
C31  21730011.980          42.977  
C34  25486442.443          26.654  
C35  22298700.509          41.293  
C39  26271377.476          28.826  
> 2026 05 10 00 58  0.0000000  0 13
C01  38485311.152          35.984  
C02  39635656.709          34.188  
C03  38554512.393          34.430  
C04  39499391.115          31.632  
C07  38503273.452          35.743  
C08  36160688.085          47.166  
C10  37756451.784          36.605  
C24  22537739.878          39.438  
C26  22358144.132          42.550  
C31  21723934.484          43.069  
C34  25470438.169          30.116  
C35  22307548.078          38.312  
C39  26290803.498          29.571  
> 2026 05 10 00 58 30.0000000  0 13
C01  38483757.359          35.826  
C02  39635854.283          32.765  
C03  38553665.307          35.623  
C04  39497329.625          32.504  
C07  38513328.934          35.494  
C08  36160782.874          44.598  
C10  37765032.808          35.731  
C24  22530783.322          38.846  
C26  22367998.359          45.103  
C31  21717918.340          40.951  
C34  25454458.553          28.198  
C35  22316441.875          41.985  
C39  26310243.959          29.956  
