     3.04           OBSERVATION DATA    C: BDS              RINEX VERSION / TYPE
DataSimulator       BUPT-GNSS           20260518 115355     PGM / RUN BY / DATE
BDS SPP Simulated Observation Data                          COMMENT
BUPT_Shahe                                                  MARKER NAME
 -2161962.4351  4376609.9016  4091389.4091                  APPROX POSITION XYZ
0.0000        0.0000        0.0000                          ANTENNA: DELTA H/E/N
C    2 C2I S2I                                              SYS / # / OBS TYPES
                                                         BDTTIME OF FIRST OBS
    30.000                                                  INTERVAL
                                                            END OF HEADER
> 2026 05 10 00 00  0.0000000  0 13
C01  38491754.570          35.773  
C02  39630995.519          25.848  
C03  38557564.447          36.983  
C04  39519810.355          33.286  
C07  37446395.627          39.188  
C08  36158258.846          43.328  
C10  36914881.446          42.204  
C24  23816257.027          40.309  
C26  21786330.222          45.360  
C29  24424588.199          30.760  
C31  22833496.348          38.417  
C35  21651989.545          48.093  
C39  24198928.120          36.736  
> 2026 05 10 00 00 30.0000000  0 13
C01  38490188.399          36.217  
C02  39631335.062          24.655  
C03  38556836.394          34.072  
C04  39517893.525          23.086  
C07  37454446.006          40.814  
C08  36158074.333          45.425  
C10  36920758.145          42.716  
C24  23802002.048          35.929  
C26  21786366.650          46.825  
C29  24440729.448          28.508  
C31  22820550.834          41.770  
C35  21653889.564          43.723  
C39  24214969.071          35.226  
> 2026 05 10 00 01  0.0000000  0 12
C01  38488593.523          34.093  
C02  39631635.014          25.265  
C04  39515944.029          26.878  
C07  37462488.777          35.012  
C08  36157865.221          43.729  
C10  36926631.866          40.095  
C24  23787759.547          33.815  
C26  21786455.735          44.297  
C29  24456870.968          31.400  
C31  22807633.133          40.596  
C35  21655833.182          47.157  
C39  24231029.048          35.055  
> 2026 05 10 00 01 30.0000000  0  9
C02  39631932.269          29.551  
C04  39513994.484          28.406  
C07  37470560.386          36.573  
C08  36157671.303          44.531  
C26  21786638.024          44.955  
C29  24473043.012          29.695  
C31  22794774.753          38.755  
C35  21657860.098          46.279  
C39  24247139.202          34.550  
> 2026 05 10 00 02  0.0000000  0 13
C01  38485428.848          32.389  
C02  39632237.589          29.125  
C03  38554568.522          36.872  
C04  39512066.087          30.883  
C07  37478673.424          39.982  
C08  36157505.811          45.599  
C10  36938491.875          42.958  
C24  23759432.891          36.209  
C26  21786920.025          44.462  
C29  24489252.587          31.283  
C31  22781990.596          39.894  
C35  21659978.077          44.425  
C39  24263315.283          36.473  
> 2026 05 10 00 02 30.0000000  0 12
C01  38483832.023          37.270  
C02  39632519.001          23.904  
C03  38553793.321          36.329  
C04  39510115.633          23.291  
C07  37486783.169          37.703  
C08  36157315.519          46.268  
C10  36944447.271          37.772  
C24  23745322.629          37.088  
C26  21787263.733          48.997  
C29  24505459.192          31.625  
C35  21662149.239          46.284  
C39  24279510.745          37.507  
> 2026 05 10 00 03  0.0000000  0  7
C01  38482271.576          37.437  
C02  39632838.668          28.033  
C07  37494952.130          38.962  
C08  36157174.866          44.085  
C10  36950465.078          42.424  
C24  23731296.421          38.025  
C29  24521730.208          33.986  
> 2026 05 10 00 03 30.0000000  0 11
C02  39633120.636          30.411  
C03  38552272.048          35.025  
C04  39506258.792          17.674  
C07  37503110.260          38.838  
C08  36157004.260          47.736  
C10  36956477.491          43.218  
C24  23717278.377          36.344  
C26  21788247.349          42.656  
C29  24537980.099          32.942  
C31  22743949.730          37.025  
C39  24312085.561          31.318  
> 2026 05 10 00 04  0.0000000  0  9
C01  38479072.500          36.311  
C02  39633387.972          30.310  
C03  38551482.982          34.259  
C07  37511287.696          39.222  
C08  36156837.825          43.769  
C10  36962510.292          38.199  
C24  23703302.449          36.452  
C31  22731370.779          38.288  
C35  21669145.709          46.930  
> 2026 05 10 00 04 30.0000000  0 10
C01  38477488.862          35.374  
C02  39633668.089          29.298  
C03  38550706.227          32.617  
C04  39502368.893          12.811  
C08  36156695.026          41.284  
C24  23689386.565          39.393  
C29  24570561.784          33.383  
C31  22718865.055          40.696  
C35  21671629.668          44.710  
C39  24344813.305          35.541  
> 2026 05 10 00 05  0.0000000  0 10
C01  38475902.993          33.190  
C02  39633945.231          28.704  
C03  38549928.590          34.507  
C07  37527740.725          38.165  
C08  36156559.537          48.578  
C10  36974692.688          39.743  
C24  23675522.280          37.938  
C26  21790335.965          45.084  
C29  24586889.041          37.005  
C35  21674189.085          45.656  
> 2026 05 10 00 05 30.0000000  0 12
C01  38474302.778          35.919  
C02  39634197.504          29.187  
C03  38549129.784          35.755  
C04  39498470.012          24.253  
C07  37535987.120          36.190  
C08  36156418.681          41.611  
C10  36980807.841          39.313  
C24  23661689.403          34.648  
C26  21791197.040          41.288  
C29  24603222.805          28.282  
C31  22694014.222          36.858  
C35  21676808.023          43.166  
> 2026 05 10 00 06  0.0000000  0 12
C01  38472707.988          32.236  
C02  39634450.589          31.092  
C03  38548334.033          36.035  
C04  39496522.299          24.521  
C07  37544260.105          37.467  
C08  36156286.323          42.849  
C10  36986954.765          40.103  
C24  23647909.742          35.310  
C26  21792149.545          44.299  
C29  24619594.221          26.560  
C31  22681670.634          40.235  
C35  21679503.147          45.725  
> 2026 05 10 00 06 30.0000000  0 11
C02  39634674.682          19.254  
C03  38547516.491          35.563  
C04  39494562.736          16.001  
C08  36156148.961          45.574  
C10  36993117.294          39.698  
C24  23634161.869          36.754  
C26  21793171.151          43.261  
C29  24635956.665          31.523  
C31  22669372.435          41.913  
C35  21682259.214          44.691  
C39  24410800.511          35.977  
> 2026 05 10 00 07  0.0000000  0 11
C01  38469488.813          35.644  
C03  38546699.317          35.173  
C04  39492595.132          23.719  
C07  37560841.841          38.230  
C08  36156018.603          47.274  
C10  36999304.496          42.515  
C24  23620460.566          37.157  
C26  21794280.873          45.150  
C29  24652338.161          32.353  
C35  21685090.649          42.639  
C39  24427391.372          28.912  
> 2026 05 10 00 07 30.0000000  0 11
C01  38467922.101          31.163  
C02  39635185.736          28.822  
C03  38545920.517          33.313  
C04  39490678.235          21.107  
C08  36155938.562          42.550  
C10  37005561.993          40.392  
C24  23606856.915          35.046  
C29  24668782.580          26.312  
C31  22644993.431          37.307  
C35  21688038.253          47.948  
C39  24444077.611          33.133  
> 2026 05 10 00 08  0.0000000  0  9
C01  38466276.548          34.074  
C02  39635375.522          30.353  
C07  37577521.282          38.965  
C08  36155784.500          43.381  
C24  23593218.223          36.045  
C26  21796771.084          45.304  
C29  24685177.154          28.476  
C31  22632834.823          37.705  
C39  24460724.108          31.438  
> 2026 05 10 00 08 30.0000000  0 11
C01  38464688.963          37.143  
C02  39635620.162          27.034  
C03  38544250.723          36.926  
C04  39486741.681          18.456  
C07  37585913.281          39.982  
C10  37018059.043          39.513  
C24  23579691.438          36.174  
C26  21798164.588          40.869  
C29  24701651.458          28.378  
C31  22620792.943          40.409  
C39  24477469.101          27.332  
> 2026 05 10 00 09  0.0000000  0 11
C01  38463057.266          34.538  
C03  38543398.039          33.713  
C04  39484750.112          29.753  
C07  37594281.820          38.586  
C08  36155576.150          42.300  
C10  37024333.988          39.781  
C24  23566172.579          34.556  
C26  21799604.063          45.563  
C29  24718091.379          30.547  
C31  22608771.839          43.063  
C35  21697159.977          44.620  
> 2026 05 10 00 09 30.0000000  0 10
C02  39636021.664          27.600  
C04  39482795.770          27.102  
C07  37602702.706          39.845  
C08  36155485.245          47.021  
C10  37030662.435          43.584  
C24  23552728.204          34.478  
C26  21801152.622          46.024  
C29  24734576.265          30.276  
C31  22596828.322          34.532  
C35  21700359.455          43.558  
> 2026 05 10 00 10  0.0000000  0 11
C01  38459817.602          32.544  
C02  39636210.157          24.936  
C03  38541705.086          34.426  
C04  39480815.336          24.388  
C08  36155376.388          47.930  
C10  37036991.640          42.521  
C24  23539309.965          35.782  
C26  21802765.768          46.733  
C29  24751058.480          30.870  
C31  22584924.719          41.970  
C35  21703611.002          47.681  
> 2026 05 10 00 10 30.0000000  0 10
C01  38458219.443          32.124  
C02  39636422.008          23.684  
C03  38540872.036          34.677  
C04  39478869.128          19.876  
C07  37619584.008          36.536  
C08  36155304.658          42.862  
C10  37043374.996          42.228  
C29  24767584.495          31.906  
C31  22573107.673          40.576  
C39  24544781.524          29.100  
> 2026 05 10 00 11  0.0000000  0 11
C02  39636600.029          25.502  
C03  38540008.497          37.409  
C04  39476892.388          18.746  
C07  37628047.819          37.816  
C08  36155216.431          41.136  
C10  37049766.115          39.803  
C24  23512666.675          38.680  
C29  24784110.358          29.353  
C31  22561326.641          37.968  
C35  21710364.144          40.730  
C39  24561711.974          24.906  
> 2026 05 10 00 11 30.0000000  0 12
C01  38454985.818          35.296  
C02  39636798.376          20.180  
C04  39474930.711          22.004  
C07  37636555.765          33.924  
C08  36155154.991          39.837  
C10  37056200.102          39.679  
C24  23499432.029          38.431  
C26  21808192.046          45.471  
C29  24800669.628          32.439  
C31  22549625.317          40.628  
C35  21713857.004          45.916  
C39  24578700.022          30.891  
> 2026 05 10 00 12  0.0000000  0 12
C02  39636936.342          22.154  
C03  38538259.018          35.131  
C04  39472914.277          30.386  
C07  37645027.992          37.034  
C08  36155047.032          43.727  
C10  37062606.630          40.362  
C24  23486196.316          38.286  
C26  21810126.826          44.505  
C29  24817190.923          33.132  
C31  22537931.235          41.567  
C35  21717368.835          42.335  
C39  24595675.702          26.288  
> 2026 05 10 00 12 30.0000000  0 11
C02  39637122.847          20.511  
C03  38537405.894          32.434  
C04  39470951.707          28.530  
C07  37653575.800          36.405  
C08  36154996.622          43.944  
C10  37069095.390          44.000  
C24  23473067.653          36.220  
C26  21812203.580          42.277  
C29  24833776.404          28.593  
C35  21721004.439          44.523  
C39  24612743.043          27.948  
> 2026 05 10 00 13  0.0000000  0 11
C01  38450087.042          37.872  
C02  39637279.527          24.842  
C03  38536527.408          35.306  
C07  37662125.596          40.209  
C08  36154934.402          44.983  
C10  37075587.141          40.215  
C24  23459969.491          37.304  
C29  24850368.700          29.933  
C31  22514806.429          40.052  
C35  21724691.743          45.405  
C39  24629831.107          23.948  
> 2026 05 10 00 13 30.0000000  0 13
C01  38448452.854          33.007  
C02  39637429.579          26.379  
C03  38535638.745          34.291  
C04  39466989.470          23.236  
C07  37670689.333          37.834  
C08  36154874.658          47.113  
C10  37082102.003          41.229  
C24  23446923.087          36.882  
C26  21816573.786          41.154  
C29  24866960.007          28.859  
C31  22503319.855          38.478  
C35  21728443.788          48.530  
C39  24646963.494          30.426  
> 2026 05 10 00 14  0.0000000  0 11
C01  38446800.091          37.942  
C03  38534732.790          34.752  
C04  39464988.999          25.873  
C07  37679258.854          39.223  
C08  36154801.710          44.602  
C10  37088626.792          38.489  
C24  23433910.003          36.904  
C26  21818870.532          44.676  
C31  22491877.820          44.604  
C35  21732251.461          45.354  
C39  24664118.870          34.594  
> 2026 05 10 00 14 30.0000000  0 12
C01  38445186.687          37.317  
C02  39637733.123          16.944  
C03  38533861.102          39.662  
C07  37687888.462          36.570  
C08  36154779.045          45.384  
C10  37095216.902          38.332  
C24  23420997.245          41.217  
C26  21821294.661          40.974  
C29  24900216.115          30.193  
C31  22480531.759          38.030  
C35  21736166.299          46.095  
C39  24681345.303          30.959  
> 2026 05 10 00 15  0.0000000  0 10
C02  39637846.316          20.149  
C03  38532935.483          38.343  
C04  39461014.874          25.751  
C07  37696491.021          38.289  
C08  36154710.054          43.655  
C10  37101782.284          40.423  
C24  23408084.802          39.667  
C26  21823758.559          44.119  
C29  24916835.638          30.422  
C35  21740105.882          41.661  
> 2026 05 10 00 15 30.0000000  0 10
C03  38532014.925          34.009  
C04  39459004.883          30.427  
C07  37705121.474          38.944  
C08  36154654.228          40.748  
C24  23395240.731          37.865  
C26  21826318.807          46.029  
C29  24933476.566          29.306  
C31  22457936.003          39.614  
C35  21744121.675          44.137  
C39  24715828.361          29.489  
> 2026 05 10 00 16  0.0000000  0 10
C03  38531132.552          36.740  
C07  37713814.298          37.009  
C08  36154651.716          44.672  
C10  37115053.147          39.542  
C24  23382491.209          37.132  
C26  21829005.254          44.354  
C29  24950185.129          15.746  
C31  22446779.258          40.767  
C35  21748250.105          45.335  
C39  24733177.342          32.824  
> 2026 05 10 00 16 30.0000000  0 11
C01  38438594.207          35.067  
C02  39638214.498          23.487  
C03  38530204.640          32.754  
C07  37722485.975          39.970  
C10  37121707.444          40.885  
C24  23369758.677          36.000  
C26  21831741.802          42.187  
C29  24966845.138          22.858  
C31  22435636.921          38.259  
C35  21752404.815          43.872  
C39  24750515.531          28.068  
> 2026 05 10 00 17  0.0000000  0  5
C03  38529262.106          32.711  
C07  37731169.270          39.591  
C24  23357073.634          35.043  
C26  21834557.469          41.145  
C39  24767886.994          25.624  
> 2026 05 10 00 17 30.0000000  0 12
C01  38435252.900          38.981  
C02  39638383.984          31.457  
C03  38528316.412          33.334  
C04  39450991.690          32.958  
C07  37739869.641          36.788  
C08  36154523.696          44.560  
C24  23344440.317          40.143  
C26  21837455.903          46.763  
C29  25000192.885          29.732  
C31  22413516.971          45.346  
C35  21760901.388          44.580  
C39  24785289.353          23.902  
> 2026 05 10 00 18  0.0000000  0 12
C01  38433602.904          36.125  
C02  39638485.351          31.355  
C03  38527384.170          36.844  
C04  39448995.621          31.015  
C07  37748612.161          37.060  
C10  37141813.128          40.043  
C24  23331884.181          40.711  
C26  21840465.638          45.044  
C29  25016906.209          30.983  
C31  22402567.307          40.951  
C35  21765274.405          43.405  
C39  24802765.355          32.282  
> 2026 05 10 00 18 30.0000000  0 11
C01  38431945.127          32.042  
C03  38526446.609          35.709  
C04  39446993.981          27.387  
C07  37757371.049          36.449  
C08  36154498.318          48.388  
C10  37148572.845          39.520  
C24  23319387.931          41.634  
C26  21843557.061          46.598  
C31  22391675.403          43.145  
C35  21769711.020          41.867  
C39  24820266.110          32.042  
> 2026 05 10 00 19  0.0000000  0 11
C01  38430316.471          37.492  
C02  39638698.315          29.594  
C03  38525527.808          35.762  
C04  39445014.657          24.097  
C07  37766176.391          40.084  
C10  37155387.677          44.011  
C24  23306970.858          38.977  
C29  25050396.488          25.544  
C31  22380870.345          40.905  
C35  21774241.299          43.296  
C39  24837828.069          33.065  
> 2026 05 10 00 19 30.0000000  0 10
C01  38428623.640          31.758  
C04  39442976.667          23.392  
C07  37774943.624          34.250  
C08  36154487.268          42.215  
C10  37162172.573          37.877  
C24  23294554.788          39.058  
C26  21850000.292          41.962  
C31  22370067.572          40.763  
C35  21778781.927          43.329  
C39  24855361.990          30.381  
> 2026 05 10 00 20  0.0000000  0 13
C01  38426950.184          38.665  
C02  39638819.106          29.775  
C03  38523589.256          33.732  
C04  39440947.645          25.852  
C07  37783749.616          38.352  
C08  36154480.076          43.585  
C10  37168995.525          41.558  
C24  23282217.006          41.622  
C26  21853342.616          42.200  
C29  25083853.940          31.311  
C31  22359346.682          39.098  
C35  21783406.471          42.183  
C39  24872956.711          29.033  
> 2026 05 10 00 20 30.0000000  0 12
C01  38425265.418          34.182  
C03  38522609.728          37.913  
C04  39438908.063          29.037  
C07  37792564.303          39.074  
C08  36154464.875          45.122  
C10  37175836.509          38.404  
C24  23269928.550          39.099  
C26  21856760.583          40.588  
C29  25100602.733          29.913  
C31  22348677.346          41.282  
C35  21788090.426          45.887  
C39  24890577.295          30.873  
> 2026 05 10 00 21  0.0000000  0 11
C02  39638912.432          23.522  
C03  38521620.600          35.707  
C04  39436863.517          35.010  
C07  37801389.959          36.466  
C08  36154448.903          43.696  
C10  37182695.128          41.453  
C26  21860262.047          47.281  
C29  25117350.668          29.015  
C31  22338061.638          39.902  
C35  21792832.097          42.915  
C39  24908226.047          33.921  
> 2026 05 10 00 21 30.0000000  0 10
C01  38421911.087          37.138  
C03  38520661.643          34.139  
C07  37810274.853          38.573  
C08  36154476.390          42.948  
C24  23245549.456          37.578  
C26  21863888.142          44.734  
C29  25134139.645          21.492  
C31  22327544.592          37.644  
C35  21797679.060          41.710  
C39  24925951.649          31.620  
> 2026 05 10 00 22  0.0000000  0 12
C02  39639055.505          30.600  
C03  38519692.563          32.806  
C04  39432840.240          26.449  
C07  37819167.503          38.773  
C08  36154498.632          46.617  
C10  37196552.535          41.198  
C24  23233458.292          39.702  
C26  21867588.537          44.711  
C29  25150935.640          26.034  
C31  22317079.250          40.987  
C35  21802580.258          46.255  
C39  24943703.584          25.471  
> 2026 05 10 00 22 30.0000000  0  9
C01  38418547.234          36.866  
C02  39639080.741          27.580  
C03  38518695.876          34.366  
C04  39430794.386          33.261  
C07  37828059.463          34.692  
C10  37203494.128          38.669  
C24  23221407.706          37.552  
C31  22306653.200          42.967  
C35  21807529.368          45.876  
> 2026 05 10 00 23  0.0000000  0 11
C01  38416855.215          36.471  
C03  38517696.934          33.769  
C07  37836971.739          34.246  
C08  36154517.086          46.564  
C10  37210459.437          40.303  
C24  23209416.924          41.831  
C26  21875218.747          41.311  
C29  25184512.094          22.965  
C31  22296293.841          42.775  
C35  21812542.125          44.470  
C39  24979253.613          32.326  
> 2026 05 10 00 23 30.0000000  0  8
C02  39639180.557          30.421  
C03  38516726.887          36.029  
C04  39426735.546          31.829  
C07  37845936.917          36.603  
C08  36154568.153          45.176  
C29  25201349.895          23.250  
C35  21817655.865          46.994  
C39  24997110.465          25.833  
> 2026 05 10 00 24  0.0000000  0 11
C01  38413495.610          34.727  
C02  39639194.730          22.307  
C03  38515718.584          34.322  
C04  39424684.408          34.899  
C10  37224499.434          42.465  
C24  23185653.001          36.300  
C26  21883229.588          42.968  
C29  25218161.777          23.410  
C31  22275784.192          44.644  
C35  21822798.865          43.042  
C39  25014958.038          27.592  
> 2026 05 10 00 24 30.0000000  0 10
C01  38411774.253          31.930  
C02  39639181.799          17.049  
C03  38514681.538          37.329  
C04  39422605.784          32.873  
C07  37863831.091          41.469  
C08  36154586.527          48.163  
C24  23173821.670          42.156  
C26  21887324.747          47.953  
C35  21827980.715          43.603  
C39  25032829.225          30.806  
> 2026 05 10 00 25  0.0000000  0 10
C02  39639209.334          14.055  
C03  38513676.923          35.288  
C04  39420560.997          26.187  
C07  37872826.477          35.052  
C08  36154627.758          40.166  
C10  37238595.586          42.901  
C29  25251778.822          15.214  
C31  22255481.908          43.288  
C35  21833266.165          45.114  
C39  25050762.184          28.447  
> 2026 05 10 00 25 30.0000000  0 12
C02  39639215.599          20.262  
C03  38512651.917          34.420  
C04  39418496.021          20.229  
C07  37881827.894          34.524  
C08  36154656.236          47.511  
C10  37245680.058          39.691  
C24  23150402.279          34.886  
C26  21895835.025          45.131  
C29  25268621.260          28.310  
C31  22245422.479          40.311  
C35  21838597.911          43.988  
C39  25068709.253          25.419  
> 2026 05 10 00 26  0.0000000  0 11
C01  38406668.680          36.557  
C02  39639220.728          19.699  
C03  38511624.126          37.759  
C07  37890851.712          37.684  
C08  36154692.558          45.130  
C10  37252790.775          41.376  
C26  21900214.171          43.840  
C29  25285459.837          28.722  
C31  22235426.695          41.321  
C35  21843994.216          42.764  
C39  25086698.862          26.701  
> 2026 05 10 00 26 30.0000000  0 10
C02  39639236.577          32.819  
C03  38510598.665          35.765  
C04  39414373.403          14.489  
C07  37899897.258          37.677  
C08  36154737.210          43.697  
C10  37259937.534          41.757  
C26  21904687.969          43.568  
C29  25302313.359          27.058  
C31  22225503.837          40.432  
C35  21849463.881          44.781  
> 2026 05 10 00 27  0.0000000  0 12
C01  38403271.626          36.040  
C02  39639248.480          30.292  
C03  38509578.627          34.128  
C04  39412330.090          16.973  
C07  37908971.061          39.271  
C08  36154793.998          46.402  
C10  37267110.733          34.992  
C26  21909256.639          43.869  
C29  25319176.784          24.420  
C31  22215646.422          39.133  
C35  21854999.334          42.130  
C39  25122785.098          28.156  
> 2026 05 10 00 27 30.0000000  0 11
C01  38401559.757          34.221  
C04  39410262.235          14.813  
C07  37918049.332          39.011  
C08  36154842.572          45.902  
C10  37274297.201          37.748  
C24  23104310.864          37.780  
C26  21913897.775          41.999  
C29  25336025.175          28.449  
C31  22205839.590          36.230  
C35  21860584.532          44.747  
C39  25140859.977          24.135  
> 2026 05 10 00 28  0.0000000  0 10
C02  39639202.360          27.859  
C03  38507477.963          32.255  
C07  37927131.192          35.085  
C08  36154880.006          46.708  
C10  37281491.574          41.648  
C24  23092925.705          39.985  
C26  21918610.092          44.812  
C29  25352872.175          29.168  
C31  22196078.040          40.642  
C39  25158962.978          32.029  
> 2026 05 10 00 28 30.0000000  0 12
C01  38398136.640          40.231  
C02  39639207.783          26.529  
C03  38506454.026          35.080  
C04  39406129.213          19.904  
C07  37936267.566          41.553  
C08  36154955.414          41.335  
C10  37288750.722          38.696  
C24  23081642.530          40.456  
C29  25369769.981          21.616  
C31  22186417.863          38.590  
C35  21871954.140          46.481  
C39  25177121.043          22.089  
> 2026 05 10 00 29  0.0000000  0 11
C01  38396412.196          38.817  
C03  38505394.203          32.947  
C04  39404054.995          24.653  
C07  37945395.385          38.316  
C08  36155007.661          42.914  
C10  37296003.054          40.354  
C24  23070394.269          36.442  
C26  21928344.340          43.779  
C29  25386631.403          23.925  
C31  22176788.021          41.554  
C39  25195287.514          24.332  
> 2026 05 10 00 29 30.0000000  0 11
C01  38394684.608          35.406  
C02  39639132.855          18.546  
C04  39401965.866          16.682  
C07  37954539.791          35.869  
C08  36155061.216          44.639  
C10  37303282.357          38.512  
C24  23059210.843          43.042  
C26  21933327.549          43.989  
C31  22167222.739          42.228  
C35  21883545.582          43.893  
C39  25213484.231          27.099  
> 2026 05 10 00 30  0.0000000  0  8
C01  38392919.841          37.237  
C02  39639064.294          23.220  
C03  38503227.448          31.446  
C04  39399852.912          19.363  
C08  36155085.291          42.278  
C24  23048057.264          40.391  
C31  22157685.636          41.838  
C39  25231686.330          27.125  
> 2026 05 10 00 30 30.0000000  0 11
C01  38567434.453          35.640  
C02  39615990.445          23.043  
C03  38593333.611          34.488  
C04  39609500.355          23.602  
C08  36155196.525          44.574  
C10  37317920.223          35.817  
C24  23037051.576          41.656  
C26  21943565.324          45.402  
C31  22148291.287          46.301  
C35  21895395.475          41.955  
C39  25249975.985          29.027  
> 2026 05 10 00 31  0.0000000  0  9
C01  38566010.628          34.350  
C02  39616477.058          27.318  
C04  39607583.226          29.484  
C07  37982091.795          37.842  
C08  36155260.609          45.871  
C10  37325267.115          40.347  
C24  23026062.436          36.941  
C26  21948809.085          43.796  
C35  21901406.060          43.820  
> 2026 05 10 00 31 30.0000000  0 10
C01  38564576.985          36.602  
C02  39616961.181          28.271  
C03  38592169.782          35.467  
C04  39605661.548          23.238  
C08  36155321.896          44.511  
C10  37332636.669          36.588  
C24  23015136.559          41.521  
C31  22129586.016          40.061  
C35  21907468.357          42.356  
C39  25286564.032          26.032  
> 2026 05 10 00 32  0.0000000  0 12
C01  38563128.759          37.573  
C02  39617417.939          26.410  
C03  38591565.407          37.411  
C04  39603723.082          21.223  
C07  38000516.245          37.342  
C08  36155375.692          45.584  
C10  37340015.491          41.229  
C24  23004261.641          41.796  
C26  21959529.097          41.224  
C31  22120314.747          41.873  
C35  21913578.809          41.876  
C39  25304888.613          31.986  
> 2026 05 10 00 32 30.0000000  0 10
C01  38561715.395          37.931  
C02  39617926.971          30.162  
C03  38590994.559          33.946  
C07  38009788.149          37.506  
C08  36155465.852          44.683  
C10  37347456.750          37.977  
C24  22993491.046          43.626  
C26  21965053.022          44.574  
C31  22111140.971          40.277  
C39  25323273.095          28.123  
> 2026 05 10 00 33  0.0000000  0 11
C02  39618402.663          31.134  
C03  38590406.706          34.721  
C04  39599877.683          18.589  
C07  38019065.324          34.862  
C08  36155550.617          44.088  
C10  37354909.807          37.684  
C24  22982776.721          38.515  
C26  21970648.534          46.286  
C31  22102017.508          39.922  
C35  21926045.258          42.727  
C39  25341668.983          24.335  
> 2026 05 10 00 33 30.0000000  0 11
C01  38558850.895          33.151  
C02  39618869.259          26.306  
C03  38589808.741          38.118  
C04  39597934.444          22.749  
C07  38028354.838          35.523  
C08  36155632.445          45.225  
C10  37362384.043          39.915  
C24  22972122.024          40.490  
C31  22092951.080          42.403  
C35  21932354.829          45.724  
C39  25360098.795          25.824  
> 2026 05 10 00 34  0.0000000  0  7
C01  38557402.657          36.779  
C04  39595978.215          26.753  
C07  38037652.602          37.509  
C08  36155707.927          46.402  
C10  37369868.921          38.482  
C26  21982081.497          43.612  
C39  25378551.744          28.480  
> 2026 05 10 00 34 30.0000000  0 10
C01  38555948.125          33.976  
C03  38588582.031          33.466  
C04  39594017.504          28.995  
C07  38046967.595          37.928  
C08  36155783.988          44.334  
C24  22950998.458          40.415  
C26  21987924.070          43.172  
C31  22074986.863          42.684  
C35  21945131.882          43.231  
C39  25397019.035          30.601  
> 2026 05 10 00 35  0.0000000  0  9
C01  38554502.930          36.058  
C03  38587968.701          35.862  
C04  39592072.439          32.878  
C07  38056308.322          37.971  
C10  37384922.525          42.015  
C24  22940545.945          38.872  
C26  21993861.064          42.166  
C31  22066107.001          44.124  
C39  25415525.924          29.724  
> 2026 05 10 00 35 30.0000000  0 12
C01  38553055.712          33.594  
C02  39620689.644          28.489  
C03  38587354.344          31.815  
C04  39590115.772          26.895  
C07  38065672.572          35.454  
C08  36155963.789          49.042  
C10  37392491.918          39.923  
C24  22930164.884          40.879  
C26  21999885.489          43.642  
C31  22057291.084          42.679  
C35  21958158.317          43.545  
C39  25434057.243          26.956  
> 2026 05 10 00 36  0.0000000  0  8
C01  38551586.521          34.660  
C02  39621110.144          20.384  
C03  38586712.217          33.681  
C07  38075027.475          38.021  
C10  37400064.129          42.589  
C26  22005971.994          43.946  
C31  22048514.297          45.582  
C39  25452582.901          15.383  
> 2026 05 10 00 36 30.0000000  0 10
C01  38550137.583          36.390  
C02  39621558.095          21.819  
C04  39586188.673          24.382  
C07  38084425.488          37.063  
C08  36156137.570          46.956  
C10  37407682.769          40.914  
C24  22909590.266          40.512  
C26  22012174.469          47.195  
C35  21971402.546          41.969  
C39  25471174.987          15.233  
> 2026 05 10 00 37  0.0000000  0 12
C01  38548679.218          38.158  
C02  39622005.091          28.784  
C03  38585461.864          34.955  
C04  39584229.796          25.899  
C07  38093836.660          32.032  
C08  36156233.174          44.605  
C10  37415321.693          39.665  
C24  22899411.698          39.361  
C26  22018455.927          44.575  
C31  22031195.191          41.340  
C35  21978114.757          42.578  
C39  25489787.671          22.687  
> 2026 05 10 00 37 30.0000000  0  8
C02  39622435.816          27.369  
C04  39582257.405          26.534  
C08  36156325.734          47.833  
C10  37422975.904          36.244  
C26  22024815.079          44.081  
C31  22022620.368          43.957  
C35  21984878.188          40.741  
C39  25508424.123          25.936  
> 2026 05 10 00 38  0.0000000  0  9
C01  38545733.020          33.694  
C03  38584158.206          37.435  
C04  39580272.607          26.395  
C07  38112681.490          35.021  
C08  36156404.623          43.999  
C24  22879238.902          42.360  
C26  22031246.798          43.384  
C35  21991683.700          42.800  
C39  25527064.052          24.429  
> 2026 05 10 00 38 30.0000000  0 11
C01  38544252.880          34.752  
C02  39623256.233          28.829  
C03  38583498.713          34.287  
C04  39578281.793          22.627  
C07  38122130.401          36.082  
C08  36156491.362          45.551  
C10  37438335.044          39.700  
C24  22869254.811          42.318  
C26  22037769.189          46.370  
C31  22005633.956          42.173  
C35  21998551.403          40.533  
> 2026 05 10 00 39  0.0000000  0 12
C01  38542810.963          33.421  
C02  39623704.880          30.763  
C03  38582873.422          36.620  
C04  39576335.643          29.658  
C07  38131630.412          38.903  
C08  36156617.540          43.917  
C10  37446090.170          41.318  
C24  22859378.302          40.287  
C26  22044416.391          41.616  
C31  21997275.221          40.402  
C35  22005511.817          41.927  
C39  25564474.818          27.074  
> 2026 05 10 00 39 30.0000000  0 11
C01  38541324.966          36.713  
C02  39624105.947          26.973  
C03  38582202.924          35.995  
C04  39574331.807          21.474  
C07  38141111.113          38.883  
C08  36156707.567          43.617  
C10  37453832.394          39.391  
C24  22849536.169          41.989  
C26  22051110.860          44.786  
C35  22012489.650          44.155  
C39  25583201.315          30.509  
> 2026 05 10 00 40  0.0000000  0 10
C01  38539850.950          34.320  
C02  39624511.243          32.360  
C03  38581542.965          36.578  
C04  39572350.654          22.789  
C08  36156812.269          42.543  
C24  22839775.908          40.318  
C26  22057902.245          39.851  
C31  21980674.955          44.055  
C35  22019537.820          42.431  
C39  25601954.965          34.622  
> 2026 05 10 00 40 30.0000000  0  9
C01  38538366.093          34.919  
C07  38160140.896          35.766  
C08  36156909.610          45.121  
C10  37469399.466          38.293  
C24  22830077.300          40.163  
C26  22064770.300          44.136  
C31  21972468.379          43.429  
C35  22026629.449          44.745  
C39  25620728.212          31.081  
> 2026 05 10 00 41  0.0000000  0 11
C01  38536896.852          33.398  
C02  39625314.943          27.000  
C03  38580208.441          36.269  
C07  38169693.164          36.794  
C08  36157027.232          45.060  
C10  37477235.543          39.773  
C24  22820470.561          39.978  
C26  22071742.841          48.186  
C31  21964338.757          44.030  
C35  22033796.222          41.960  
C39  25639544.838          30.872  
> 2026 05 10 00 41 30.0000000  0 10
C01  38535410.777          33.743  
C03  38579528.077          33.384  
C04  39566388.140          25.909  
C07  38179248.263          36.647  
C08  36157127.103          42.215  
C10  37485073.841          42.549  
C24  22810920.961          42.093  
C26  22078785.605          46.500  
C31  21956257.139          43.182  
C39  25658368.566          27.631  
> 2026 05 10 00 42  0.0000000  0 11
C02  39626092.941          27.842  
C03  38578836.514          36.323  
C04  39564379.068          24.029  
C07  38188814.909          34.659  
C08  36157225.312          45.251  
C10  37492934.047          40.662  
C24  22801435.661          39.479  
C26  22085905.969          43.049  
C31  21948236.437          45.000  
C35  22048253.117          44.289  
C39  25677205.271          29.519  
> 2026 05 10 00 42 30.0000000  0  9
C02  39626480.709          26.408  
C03  38578165.200          36.240  
C07  38198415.729          36.346  
C08  36157345.061          43.814  
C10  37500836.792          38.614  
C24  22792042.323          41.488  
C26  22093134.564          42.134  
C35  22055579.042          42.838  
C39  25696089.470          28.325  
> 2026 05 10 00 43  0.0000000  0 12
C01  38530949.127          38.008  
C02  39626855.632          26.017  
C03  38577473.585          35.470  
C04  39560395.323          24.782  
C07  38208021.369          37.588  
C08  36157451.912          42.073  
C10  37508750.776          43.539  
C24  22782707.450          39.406  
C26  22100431.415          43.966  
C31  21932396.229          45.942  
C35  22062946.051          40.923  
C39  25714981.015          28.639  
> 2026 05 10 00 43 30.0000000  0 10
C01  38529433.952          34.535  
C02  39627207.982          24.063  
C04  39558370.406          27.769  
C07  38217621.279          34.271  
C08  36157535.318          46.914  
C10  37516660.948          37.513  
C24  22773426.159          41.084  
C26  22107793.226          43.787  
C31  21924541.965          43.664  
C35  22070345.278          40.705  
> 2026 05 10 00 44  0.0000000  0 12
C01  38527921.933          39.403  
C02  39627556.415          22.406  
C03  38576036.510          34.378  
C04  39556337.738          21.069  
C07  38227243.395          35.150  
C08  36157630.176          42.444  
C10  37524604.683          40.387  
C24  22764224.026          42.517  
C26  22115247.408          45.656  
C31  21916754.178          44.345  
C35  22077804.248          42.357  
C39  25752804.685          22.392  
> 2026 05 10 00 44 30.0000000  0 12
C01  38526456.689          35.601  
C02  39627950.023          28.486  
C03  38575362.985          35.933  
C04  39554359.663          22.371  
C07  38236930.162          36.943  
C08  36157773.010          44.776  
C10  37532617.821          39.414  
C24  22755141.060          43.682  
C26  22122830.847          43.459  
C31  21909078.848          43.123  
C35  22085361.809          41.615  
C39  25771795.896          23.176  
> 2026 05 10 00 45  0.0000000  0 11
C01  38524948.877          31.020  
C02  39628296.416          17.990  
C03  38574645.362          34.519  
C04  39552342.663          25.405  
C07  38246589.167          36.826  
C08  36157873.494          45.281  
C10  37540614.553          41.934  
C24  22746091.861          41.128  
C26  22130460.802          45.133  
C35  22092934.334          39.999  
C39  25790765.538          22.270  
> 2026 05 10 00 45 30.0000000  0 10
C02  39628641.344          21.213  
C03  38573923.942          35.230  
C04  39550321.337          19.832  
C08  36157975.795          43.418  
C10  37548631.709          42.576  
C24  22737115.560          36.508  
C26  22138171.747          43.373  
C31  21893827.255          43.200  
C35  22100558.838          45.893  
C39  25809743.956          23.699  
> 2026 05 10 00 46  0.0000000  0 11
C01  38521958.606          34.231  
C02  39629005.833          19.882  
C03  38573227.801          35.445  
C04  39548334.356          26.464  
C07  38265994.586          35.286  
C08  36158111.120          45.221  
C10  37556707.990          38.237  
C24  22728247.333          40.079  
C26  22146002.834          44.980  
C31  21886327.034          42.060  
C35  22108263.932          41.644  
> 2026 05 10 00 46 30.0000000  0 11
C01  38520433.561          36.960  
C02  39629338.231          23.479  
C03  38572484.196          36.561  
C04  39546298.565          27.841  
C07  38275694.780          37.354  
C08  36158203.541          44.684  
C10  37564761.034          36.775  
C24  22719413.332          39.100  
C26  22153874.752          45.149  
C31  21878841.959          44.021  
C35  22115979.281          42.364  
> 2026 05 10 00 47  0.0000000  0 10
C01  38518934.946          34.718  
C02  39629681.681          24.365  
C03  38571761.448          33.434  
C07  38285433.071          35.724  
C08  36158318.232          45.114  
C10  37572860.592          37.965  
C24  22710671.617          43.056  
C26  22161854.409          44.937  
C31  21871446.305          47.323  
C35  22123770.032          45.117  
> 2026 05 10 00 47 30.0000000  0 11
C01  38517413.754          38.259  
C02  39630005.746          24.839  
C03  38571021.073          34.158  
C04  39542252.474          25.955  
C07  38295171.725          36.952  
C08  36158420.754          45.650  
C10  37580969.496          40.590  
C24  22701994.551          40.081  
C26  22169899.746          40.162  
C31  21864096.618          41.212  
C35  22131598.322          43.812  
> 2026 05 10 00 48  0.0000000  0  9
C01  38515902.415          35.808  
C03  38570282.961          35.866  
C07  38304935.867          36.494  
C08  36158534.306          43.130  
C10  37589108.533          35.904  
C24  22693400.879          41.620  
C26  22178040.019          41.243  
C31  21856815.511          42.972  
C35  22139487.900          43.329  
> 2026 05 10 00 48 30.0000000  0 11
C01  38514371.514          40.325  
C02  39630631.007          21.362  
C03  38569519.606          32.997  
C04  39538178.384          25.017  
C07  38314693.017          33.199  
C08  36158626.045          44.536  
C10  37597249.997          42.284  
C24  22684862.377          40.916  
C26  22186243.141          44.773  
C31  21849575.237          44.355  
C35  22147402.913          44.342  
> 2026 05 10 00 49  0.0000000  0  7
C03  38568802.836          36.753  
C04  39536194.833          30.527  
C07  38324522.583          36.503  
C08  36158769.248          41.371  
C10  37605464.809          39.003  
C31  21842449.125          42.346  
C35  22155425.369          46.848  
> 2026 05 10 00 49 30.0000000  0 11
C01  38511383.125          32.196  
C02  39631308.948          29.068  
C03  38568065.553          31.843  
C04  39534177.185          28.358  
C07  38334342.525          34.646  
C08  36158892.448          44.847  
C10  37613683.087          40.353  
C24  22668096.736          40.086  
C26  22202982.790          44.840  
C31  21835365.091          39.825  
C35  22163478.756          41.072  
> 2026 05 10 00 50  0.0000000  0  9
C01  38509847.855          33.421  
C02  39631605.863          28.384  
C03  38567293.964          34.607  
C04  39532123.705          25.492  
C07  38344153.807          32.538  
C08  36158986.848          46.983  
C10  37621897.144          38.913  
C26  22211442.738          45.166  
C35  22171552.106          39.798  
> 2026 05 10 00 50 30.0000000  0  8
C01  38508307.234          36.373  
C02  39631876.968          29.592  
C04  39530065.905          25.087  
C07  38353969.484          34.293  
C10  37630123.526          39.022  
C24  22651555.389          43.196  
C26  22219973.734          45.061  
C35  22179666.951          44.225  
> 2026 05 10 00 51  0.0000000  0  9
C01  38506790.944          34.985  
C02  39632175.312          28.919  
C07  38363831.568          32.132  
C08  36159195.159          41.423  
C10  37638402.122          35.418  
C24  22643424.312          41.463  
C26  22228617.978          41.681  
C31  21814404.525          42.490  
C35  22187862.251          41.591  
> 2026 05 10 00 51 30.0000000  0 10
C01  38505267.522          36.029  
C02  39632465.656          28.756  
C03  38564978.439          33.207  
C04  39526000.993          26.056  
C07  38373698.893          35.398  
C08  36159306.414          48.805  
C10  37646696.601          39.925  
C24  22635367.009          42.594  
C26  22237342.990          43.083  
C35  22196099.165          44.593  
> 2026 05 10 00 52  0.0000000  0 11
C01  38503749.366          38.309  
C02  39632745.618          19.792  
C03  38564213.108          36.699  
C04  39523981.755          31.246  
C07  38383591.047          34.272  
C08  36159424.370          44.068  
C10  37655019.943          38.109  
C24  22627393.145          37.243  
C26  22246152.774          43.602  
C31  21800762.454          43.237  
C35  22204395.104          44.542  
> 2026 05 10 00 52 30.0000000  0 11
C01  38502234.262          34.904  
C02  39633031.334          18.377  
C03  38563442.478          35.554  
C04  39521952.515          29.698  
C07  38393500.381          32.538  
C08  36159544.117          43.410  
C10  37663369.606          36.557  
C24  22619498.391          41.404  
C26  22255051.220          42.481  
C31  21794041.176          42.034  
C35  22212742.820          44.098  
> 2026 05 10 00 53  0.0000000  0  9
C01  38500702.574          35.230  
C02  39633306.455          28.243  
C03  38562652.651          35.047  
C07  38403409.971          36.618  
C08  36159652.012          44.946  
C24  22611666.870          42.484  
C26  22264013.856          43.479  
C31  21787364.100          39.688  
C35  22221118.307          43.288  
> 2026 05 10 00 53 30.0000000  0  9
C02  39633548.530          27.517  
C03  38561842.789          35.539  
C04  39517846.617          25.302  
C07  38413315.429          35.438  
C08  36159738.384          41.744  
C10  37680082.679          36.589  
C26  22273042.942          43.916  
C31  21780732.011          43.994  
C35  22229531.048          42.537  
> 2026 05 10 00 54  0.0000000  0 10
C01  38497635.450          33.733  
C02  39633815.108          26.223  
C03  38561063.523          32.922  
C04  39515818.287          25.203  
C07  38423268.932          34.975  
C08  36159859.863          40.750  
C10  37688499.105          38.403  
C26  22282188.030          42.347  
C31  21774193.137          45.961  
C35  22238024.409          38.082  
> 2026 05 10 00 54 30.0000000  0  9
C01  38496111.823          33.880  
C03  38560273.482          33.536  
C04  39513776.996          30.785  
C07  38433235.540          34.382  
C10  37696930.583          37.927  
C24  22588664.055          42.658  
C26  22291411.782          40.332  
C31  21767713.648          44.896  
C35  22246560.938          39.457  
> 2026 05 10 00 55  0.0000000  0 10
C01  38494534.978          36.251  
C02  39634290.518          30.121  
C03  38559423.653          34.670  
C04  39511683.779          31.186  
C08  36160043.498          45.823  
C10  37705330.951          36.674  
C24  22581107.735          37.545  
C26  22300661.172          45.858  
C31  21761235.225          41.243  
C35  22255092.540          41.421  
> 2026 05 10 00 55 30.0000000  0  8
C01  38493016.186          33.195  
C02  39634544.487          29.983  
C03  38558633.387          33.185  
C04  39509653.262          35.113  
C08  36160166.541          45.434  
C10  37713813.534          36.284  
C26  22310056.030          41.922  
C31  21754885.688          44.310  
> 2026 05 10 00 56  0.0000000  0  9
C01  38491467.995          35.720  
C02  39634772.555          31.622  
C04  39507590.763          29.931  
C07  38463143.532          33.284  
C10  37722288.613          35.910  
C24  22566332.304          37.340  
C26  22319500.553          43.591  
C31  21748563.397          46.512  
C35  22272393.310          44.946  
> 2026 05 10 00 56 30.0000000  0  9
C01  38489930.601          39.372  
C02  39635000.266          30.374  
C03  38556991.534          33.221  
C04  39505549.674          30.371  
C07  38473154.359          35.419  
C10  37730798.716          38.420  
C26  22329041.747          44.526  
C31  21742316.119          45.847  
C35  22281109.535          43.795  
> 2026 05 10 00 57  0.0000000  0 10
C01  38488402.030          41.941  
C02  39635232.168          26.427  
C03  38556180.750          36.756  
C04  39503518.750          23.767  
C07  38483189.736          33.406  
C08  36160485.784          46.951  
C10  37739337.839          39.533  
C24  22551880.394          39.504  
C26  22338671.329          40.747  
C31  21736138.492          41.540  
> 2026 05 10 00 57 30.0000000  0 11
C01  38486850.160          34.308  
C02  39635439.400          24.654  
C03  38555338.592          40.221  
C04  39501453.286          23.135  
C07  38493215.152          34.662  
C08  36160577.391          44.516  
C10  37747873.985          38.982  
C24  22544760.876          38.641  
C26  22348356.799          43.000  
C31  21729995.633          45.666  
C35  22298683.697          41.618  
> 2026 05 10 00 58  0.0000000  0 10
C01  38485304.520          30.079  
C02  39635652.495          31.112  
C03  38554507.285          37.480  
C04  39499395.953          25.816  
C07  38503259.507          23.399  
C08  36160680.805          45.462  
C10  37756445.958          39.407  
C26  22358138.549          43.196  
C31  21723928.026          46.862  
C35  22307541.625          43.879  
> 2026 05 10 00 58 30.0000000  0  9
C02  39635854.254          26.885  
C04  39497334.838          31.166  
C07  38513325.126          25.356  
C08  36160784.949          40.179  
C10  37765036.418          37.731  
C24  22530787.429          39.245  
C26  22367998.041          44.106  
C31  21717919.402          44.105  
C35  22316444.667          44.782  
> 2026 05 10 00 59  0.0000000  0  9
C01  38482212.846          32.773  
C02  39636050.325          28.252  
C03  38552821.755          35.775  
C07  38523402.339          28.821  
C08  36160882.991          47.001  
C10  37773645.033          37.425  
C24  22523915.690          41.452  
C26  22377933.169          44.009  
C31  21711967.177          41.553  
> 2026 05 10 00 59 30.0000000  0  9
C02  39636236.446          25.389  
C03  38551971.123          30.637  
C04  39493217.707          31.291  
C07  38533485.527          31.231  
C10  37782272.058          40.565  
C24  22517129.194          38.506  
C26  22387950.239          41.727  
C31  21706074.022          44.832  
C35  22334381.035          42.041  
> 2026 05 10 01 00  0.0000000  0 11
C01  38479099.121          36.182  
C02  39636407.763          24.487  
C03  38551102.228          35.701  
C04  39491144.674          34.379  
C07  38543576.293          33.423  
C08  36161067.993          41.555  
C10  37790909.459          34.715  
C24  22510413.395          43.152  
C26  22398033.834          45.167  
C31  21700230.555          41.779  
C35  22343404.489          42.491  
> 2026 05 10 01 00 30.0000000  0 11
C01  38477559.151          38.180  
C02  39636589.812          21.126  
C03  38550255.434          33.624  
C04  39489097.335          31.747  
C07  38553701.447          36.293  
C08  36161177.054          43.312  
C10  37799590.776          35.325  
C24  22503803.829          42.069  
C26  22408222.554          43.300  
C31  21694474.983          43.488  
C35  22352499.655          41.527  
> 2026 05 10 01 01  0.0000000  0 10
C01  38475988.570          34.203  
C02  39636751.827          26.160  
C03  38549372.553          37.617  
C04  39487017.811          32.986  
C07  38563814.647          33.793  
C08  36161258.358          42.747  
C10  37808264.681          33.911  
C26  22418461.533          41.106  
C31  21688746.544          41.360  
C35  22361614.365          41.492  
> 2026 05 10 01 01 30.0000000  0  9
C02  39636926.274          24.035  
C03  38548512.608          39.720  
C04  39484968.776          31.240  
C08  36161365.549          44.481  
C10  37816985.643          37.295  
C24  22490803.220          42.093  
C26  22428805.346          41.227  
C31  21683105.622          40.340  
C35  22370793.799          44.959  
> 2026 05 10 01 02  0.0000000  0  9
C01  38472869.987          36.941  
C02  39637074.199          30.553  
C03  38547621.853          37.129  
C07  38584094.676          31.731  
C08  36161440.630          44.913  
C10  37825697.293          41.982  
C26  22439201.046          43.748  
C31  21677495.679          43.910  
C35  22379994.440          43.684  
> 2026 05 10 01 02 30.0000000  0 10
C01  38471299.725          32.452  
C03  38546727.446          31.740  
C04  39480813.674          29.382  
C07  38594240.255          32.804  
C08  36161521.810          45.231  
C10  37834434.661          36.451  
C24  22478111.955          34.862  
C26  22449680.299          45.887  
C31  21671952.250          43.532  
C35  22389242.285          40.890  
> 2026 05 10 01 03  0.0000000  0 10
C01  38469733.113          35.467  
C02  39637346.937          25.606  
C03  38545837.103          34.567  
C04  39478746.297          22.727  
C07  38604407.776          31.023  
C08  36161610.249          44.520  
C10  37843198.782          39.839  
C24  22471905.037          42.365  
C26  22460244.454          43.766  
C31  21666474.187          41.792  
> 2026 05 10 01 03 30.0000000  0 10
C01  38468216.697          39.918  
C02  39637539.373          26.340  
C04  39476715.730          23.934  
C07  38614643.323          35.385  
C08  36161743.006          42.346  
C10  37852030.167          35.992  
C24  22465826.471          43.644  
C26  22470931.551          40.380  
C31  21661105.930          39.138  
C35  22407933.918          44.214  
> 2026 05 10 01 04  0.0000000  0  9
C01  38466625.800          35.067  
C02  39637641.704          31.277  
C03  38544068.033          36.379  
C04  39474627.252          20.295  
C08  36161807.774          41.736  
C10  37860814.298          38.146  
C26  22481633.317          40.428  
C31  21655726.321          40.315  
C35  22417300.533          40.700  
> 2026 05 10 01 04 30.0000000  0 11
C01  38465034.916          34.210  
C02  39637745.320          32.368  
C03  38543140.274          32.639  
C04  39472534.223          17.153  
C07  38634996.823          34.282  
C08  36161870.392          44.867  
C10  37869614.265          39.284  
C24  22453784.256          42.187  
C31  21650408.803          40.328  
C34  25264620.146          28.605  
C35  22426708.497          41.723  
> 2026 05 10 01 05  0.0000000  0 10
C01  38463483.795          33.014  
C03  38542247.813          36.761  
C04  39470467.203          28.736  
C07  38645237.598          30.485  
C10  37878475.382          36.370  
C24  22447933.722          41.608  
C26  22503299.940          38.941  
C31  21645189.899          40.439  
C34  25248978.941          28.328  
C35  22436201.273          45.935  
> 2026 05 10 01 05 30.0000000  0 11
C01  38461902.741          37.322  
C02  39637972.433          25.658  
C03  38541324.514          33.625  
C07  38655452.745          35.113  
C08  36162048.010          43.616  
C10  37887330.989          36.093  
C24  22442141.420          44.382  
C26  22514245.781          37.949  
C31  21640004.292          38.953  
C34  25233336.532          29.285  
C35  22445712.548          43.778  
> 2026 05 10 01 06  0.0000000  0 11
C01  38460328.566          33.316  
C02  39638079.396          28.585  
C03  38540402.386          41.825  
C04  39466311.393          21.397  
C08  36162128.713          43.273  
C10  37896210.534          37.999  
C24  22436439.460          42.248  
C26  22525272.273          40.104  
C31  21634886.554          43.336  
C34  25217727.976          26.652  
C35  22455271.339          42.520  
> 2026 05 10 01 06 30.0000000  0 11
C01  38458745.597          40.165  
C02  39638167.566          28.971  
C03  38539468.671          33.528  
C04  39464218.413          28.634  
C07  38675935.683          33.116  
C10  37905103.486          35.212  
C24  22430816.708          45.596  
C26  22536368.623          40.418  
C31  21629819.703          39.364  
C34  25202141.730          21.732  
C35  22464865.351          43.016  
> 2026 05 10 01 07  0.0000000  0 11
C01  38457181.238          38.785  
C02  39638270.055          22.769  
C03  38538552.146          33.536  
C04  39462149.957          29.090  
C07  38686206.714          34.230  
C08  36162297.542          46.299  
C10  37914036.530          33.704  
C24  22425305.277          40.042  
C26  22547567.205          40.869  
C34  25186593.578          27.700  
C35  22474524.873          42.231  
> 2026 05 10 01 07 30.0000000  0 10
C02  39638326.534          23.874  
C03  38537586.402          36.124  
C04  39460034.208          32.519  
C07  38696449.300          30.408  
C08  36162346.872          40.925  
C10  37922944.641          39.098  
C24  22419835.888          40.734  
C26  22558795.325          41.442  
C31  21619866.382          42.300  
C35  22484180.128          40.848  
> 2026 05 10 01 08  0.0000000  0 11
C01  38454004.232          36.548  
C02  39638425.920          29.330  
C03  38536651.751          34.707  
C07  38706743.634          28.955  
C08  36162432.968          42.163  
C10  37931910.995          35.939  
C24  22414488.541          41.417  
C26  22570139.462          41.133  
C31  21614994.876          43.751  
C34  25155536.558          26.337  
C35  22493917.492          42.512  
> 2026 05 10 01 08 30.0000000  0 11
C01  38452417.650          33.449  
C02  39638492.613          26.582  
C03  38535702.684          33.491  
C04  39455869.793          31.105  
C07  38717031.199          29.825  
C08  36162507.749          41.880  
C10  37940884.167          36.852  
C24  22409217.782          40.576  
C26  22581544.951          41.667  
C31  21610171.911          41.429  
C35  22503683.325          44.286  
> 2026 05 10 01 09  0.0000000  0 10
C01  38450831.808          36.378  
C02  39638553.014          32.689  
C04  39453777.064          24.295  
C07  38727336.672          30.702  
C08  36162581.239          44.073  
C10  37949874.701          37.927  
C24  22404035.487          42.229  
C26  22593027.758          41.467  
C31  21605407.417          42.400  
C35  22513493.079          39.871  
> 2026 05 10 01 09 30.0000000  0 11
C01  38449231.435          37.937  
C02  39638600.050          30.547  
C03  38533778.126          37.955  
C04  39451681.082          30.327  
C07  38737641.238          27.370  
C08  36162639.570          45.081  
C24  22398927.997          40.844  
C26  22604573.673          40.206  
C31  21600693.267          41.189  
C34  25109171.887          21.940  
C35  22523330.325          40.060  
> 2026 05 10 01 10  0.0000000  0  9
C01  38447640.448          34.596  
C02  39638647.438          29.360  
C04  39449592.322          27.049  
C07  38747965.851          30.227  
C08  36162710.242          44.380  
C10  37967902.299          38.571  
C26  22616203.503          41.328  
C31  21596049.612          44.785  
C34  25093757.353          29.286  
> 2026 05 10 01 10 30.0000000  0 11
C01  38446057.536          34.089  
C02  39638708.491          30.099  
C03  38531851.765          33.890  
C04  39447511.888          30.033  
C07  38758304.905          31.224  
C08  36162792.318          45.042  
C10  37976960.858          39.848  
C24  22389010.506          41.521  
C31  21591472.839          47.002  
C34  25078385.531          27.705  
C35  22543157.473          38.137  
> 2026 05 10 01 11  0.0000000  0 11
C01  38444460.513          34.116  
C02  39638745.435          30.783  
C04  39445408.012          28.788  
C07  38768650.943          31.138  
C08  36162858.364          48.252  
C10  37986024.544          35.371  
C24  22384175.268          40.553  
C26  22639698.916          42.756  
C31  21586945.153          43.606  
C34  25063038.251          26.771  
C35  22553127.643          38.127  
> 2026 05 10 01 11 30.0000000  0 10
C01  38442844.390          35.092  
C02  39638760.435          26.811  
C03  38529875.661          35.639  
C04  39443285.891          24.374  
C07  38778985.581          30.923  
C08  36162904.196          47.660  
C24  22379413.157          41.666  
C26  22651534.331          42.568  
C31  21582457.658          39.004  
C34  25047688.972          26.233  
> 2026 05 10 01 12  0.0000000  0 12
C01  38441249.763          33.813  
C02  39638788.388          30.499  
C03  38528892.555          37.281  
C04  39441198.464          31.581  
