     3.04           OBSERVATION DATA    C: BDS              RINEX VERSION / TYPE
DataSimulator       BUPT-GNSS           20260515 050001     PGM / RUN BY / DATE
BDS SPP Simulated Observation Data                          COMMENT
BUPT_Shahe                                                  MARKER NAME
 -2161962.4351  4376609.9016  4091389.4091                  APPROX POSITION XYZ
0.0000        0.0000        0.0000                          ANTENNA: DELTA H/E/N
C    2 C2I S2I                                              SYS / # / OBS TYPES
                                                         BDTTIME OF FIRST OBS
    30.000                                                  INTERVAL
                                                            END OF HEADER
> 2026 05 10 00 00  0.0000000  0  7
C02  39630673.199          28.212  
C03  38557512.486          36.526  
C08  36158136.763          45.129  
C10  36914877.970          40.855  
C29  24424933.103          26.684  
C31  22833228.359          40.728  
C35  21652035.816          45.833  
> 2026 05 10 00 00 30.0000000  0 12
C01  38490365.430          33.444  
C02  39630970.288          30.550  
C03  38556738.217          31.055  
C04  39518220.260          26.844  
C07  37454425.449          35.855  
C08  36157922.120          44.371  
C10  36920712.441          42.224  
C24  23801667.311          35.578  
C29  24441049.356          32.770  
C31  22820242.414          40.738  
C35  21653901.602          46.310  
C39  24215184.532          37.561  
> 2026 05 10 00 01  0.0000000  0 11
C01  38488783.181          36.354  
C02  39631281.139          28.339  
C03  38555986.982          34.077  
C04  39516279.539          28.340  
C07  37462479.729          37.894  
C10  36926602.315          37.093  
C24  23787457.753          36.672  
C26  21786371.235          41.576  
C29  24457227.018          30.847  
C35  21655873.258          45.141  
C39  24231256.299          37.135  
> 2026 05 10 00 01 30.0000000  0  9
C03  38555227.047          37.277  
C07  37470551.023          38.702  
C08  36157561.183          43.049  
C10  36932511.194          44.206  
C24  23773290.105          36.533  
C26  21786564.410          44.428  
C29  24473418.620          27.644  
C31  22794491.227          39.050  
C39  24247366.204          36.715  
> 2026 05 10 00 02  0.0000000  0 11
C01  38485595.058          34.432  
C02  39631888.897          29.718  
C04  39512385.057          25.819  
C07  37478644.963          37.291  
C08  36157384.177          43.410  
C24  23759161.530          34.561  
C26  21786840.315          44.504  
C29  24489632.444          23.996  
C31  22781697.493          37.852  
C35  21660026.458          46.268  
C39  24263520.498          33.909  
> 2026 05 10 00 02 30.0000000  0 13
C01  38484007.248          37.259  
C02  39632198.602          22.809  
C03  38553693.474          35.440  
C04  39510446.568          25.814  
C07  37486765.846          37.783  
C08  36157224.138          39.796  
C10  36944414.175          43.547  
C24  23745086.752          38.714  
C26  21787206.163          45.600  
C29  24505864.719          23.892  
C31  22768964.505          39.043  
C35  21662222.763          45.621  
C39  24279726.853          35.127  
> 2026 05 10 00 03  0.0000000  0 11
C01  38482405.489          40.044  
C02  39632470.162          29.982  
C03  38552916.698          36.372  
C04  39508490.548          30.221  
C07  37494898.707          37.536  
C08  36157058.690          44.142  
C10  36950397.097          40.569  
C24  23731043.992          41.519  
C31  22756282.663          40.931  
C35  21664479.988          43.640  
C39  24295968.910          31.820  
> 2026 05 10 00 03 30.0000000  0 11
C01  38480792.142          37.646  
C02  39632749.060          32.645  
C03  38552122.734          32.875  
C08  36156894.608          41.256  
C10  36956396.265          43.145  
C24  23717039.147          36.772  
C26  21788166.008          46.063  
C29  24538365.441          30.652  
C31  22743646.737          41.493  
C35  21666803.213          43.160  
C39  24312244.420          36.923  
> 2026 05 10 00 04  0.0000000  0 11
C01  38479224.193          32.600  
C02  39633063.948          22.855  
C03  38551367.518          37.805  
C04  39504588.461          31.158  
C07  37511252.231          41.096  
C08  36156774.766          41.770  
C10  36962466.587          40.065  
C26  21788810.589          45.210  
C29  24554680.269          37.378  
C35  21669241.867          43.848  
C39  24328609.780          37.008  
> 2026 05 10 00 04 30.0000000  0 10
C02  39633289.634          19.126  
C03  38550528.039          32.117  
C04  39502590.872          24.337  
C07  37519404.152          39.576  
C08  36156581.748          44.412  
C10  36968481.479          40.096  
C26  21789458.632          42.966  
C29  24570938.945          24.198  
C31  22718549.596          37.679  
C39  24344936.226          35.158  
> 2026 05 10 00 05  0.0000000  0 10
C01  38475981.107          36.475  
C03  38549748.982          35.033  
C04  39500650.803          22.575  
C10  36974587.001          42.569  
C24  23675331.961          38.581  
C26  21790260.014          44.313  
C29  24587277.614          29.539  
C31  22706112.967          41.089  
C35  21674245.039          43.944  
C39  24361372.816          35.628  
> 2026 05 10 00 05 30.0000000  0 12
C01  38474371.704          36.336  
C02  39633819.411          27.425  
C03  38548948.059          34.184  
C04  39498687.742          20.990  
C07  37535880.740          40.014  
C08  36156331.627          45.695  
C10  36980701.865          36.911  
C24  23661519.576          36.653  
C29  24603625.740          29.210  
C31  22693719.319          39.365  
C35  21676870.384          42.513  
C39  24377833.140          38.142  
> 2026 05 10 00 06  0.0000000  0 11
C01  38472748.810          32.957  
C02  39634065.703          31.244  
C03  38548130.166          37.522  
C04  39496709.899          21.223  
C08  36156192.662          43.036  
C24  23647741.929          37.445  
C26  21792066.336          40.630  
C29  24619974.065          24.499  
C31  22681366.584          37.843  
C35  21679556.463          44.237  
C39  24394326.064          36.319  
> 2026 05 10 00 06 30.0000000  0 11
C01  38471115.537          35.967  
C02  39634296.433          28.094  
C03  38547297.084          37.507  
C04  39494717.064          21.591  
C07  37552392.370          37.511  
C08  36156053.219          43.388  
C26  21793081.714          51.372  
C29  24636332.042          22.176  
C31  22669062.801          39.173  
C35  21682306.070          45.447  
C39  24410851.128          37.308  
> 2026 05 10 00 07  0.0000000  0 12
C01  38469542.158          36.401  
C02  39634572.219          28.215  
C04  39492791.180          22.395  
C07  37560736.559          41.502  
C08  36155980.279          47.668  
C10  36999207.447          40.069  
C24  23620373.207          38.609  
C26  21794244.569          47.842  
C29  24652762.720          27.903  
C31  22656880.611          41.976  
C35  21685191.294          41.353  
C39  24427480.297          34.268  
> 2026 05 10 00 07 30.0000000  0 12
C01  38467917.127          33.613  
C02  39634805.784          25.093  
C03  38545695.752          33.378  
C04  39490812.668          20.324  
C07  37569053.280          37.347  
C08  36155864.796          46.843  
C10  37005415.079          42.815  
C24  23606741.125          37.730  
C26  21795444.536          47.852  
C29  24669167.950          22.836  
C31  22644705.892          43.274  
C35  21688098.248          48.581  
> 2026 05 10 00 08  0.0000000  0 13
C01  38466265.537          35.257  
C02  39635001.792          23.774  
C03  38544835.915          36.282  
C04  39488807.267          15.878  
C07  37577365.126          34.414  
C08  36155726.950          43.720  
C10  37011625.970          40.966  
C24  23593132.457          34.216  
C26  21796702.706          45.844  
C29  24685564.261          23.979  
C31  22632562.426          38.476  
C35  21691048.205          44.415  
C39  24460743.195          29.194  
> 2026 05 10 00 08 30.0000000  0 13
C01  38464660.175          36.435  
C02  39635250.267          29.697  
C03  38544019.953          31.958  
C04  39486842.876          19.376  
C07  37585746.000          39.150  
C08  36155645.533          41.964  
C10  37017909.905          42.689  
C24  23579621.314          36.561  
C26  21798098.931          44.352  
C29  24702021.457          19.846  
C31  22620531.403          37.765  
C35  21694121.216          44.678  
C39  24477471.816          32.121  
> 2026 05 10 00 09  0.0000000  0 12
C01  38463028.469          35.152  
C02  39635471.316          30.055  
C03  38543179.476          38.713  
C04  39484857.623          19.310  
C07  37594128.502          40.743  
C10  37024194.680          43.192  
C24  23566136.531          33.032  
C26  21799553.802          42.879  
C29  24718480.311          17.632  
C31  22608530.564          39.493  
C35  21697242.990          41.427  
C39  24494219.647          31.558  
> 2026 05 10 00 09 30.0000000  0 12
C02  39635670.884          33.470  
C03  38542326.401          33.661  
C04  39482862.896          19.937  
C07  37602520.131          39.105  
C08  36155445.586          43.907  
C10  37030501.421          35.125  
C24  23552693.965          41.258  
C26  21801089.515          46.367  
C29  24734936.120          19.889  
C31  22596581.046          37.050  
C35  21700424.860          40.729  
C39  24511009.692          31.157  
> 2026 05 10 00 10  0.0000000  0 11
C01  38459762.930          38.131  
C03  38541477.044          32.063  
C04  39480874.819          20.653  
C07  37610945.131          38.174  
C08  36155361.786          44.356  
C10  37036842.339          42.764  
C24  23539311.147          32.379  
C29  24751420.515          25.575  
C31  22584702.674          34.666  
C35  21703694.752          43.021  
C39  24527846.002          30.509  
> 2026 05 10 00 10 30.0000000  0 11
C01  38458136.878          35.665  
C02  39636081.984          25.808  
C03  38540632.523          35.036  
C04  39478900.838          16.308  
C08  36155289.761          44.145  
C10  37043215.592          37.237  
C24  23525985.268          40.739  
C26  21804445.230          45.662  
C29  24767940.319          15.859  
C31  22572889.662          42.359  
C35  21707038.560          46.097  
> 2026 05 10 00 11  0.0000000  0 10
C01  38456502.090          36.863  
C02  39636276.487          25.266  
C03  38539770.848          34.534  
C04  39476904.834          16.601  
C08  36155213.526          45.009  
C24  23512700.267          39.089  
C26  21806246.091          41.460  
C29  24784447.675          23.160  
C31  22561124.159          38.411  
C39  24561639.598          28.165  
> 2026 05 10 00 11 30.0000000  0 12
C01  38454836.719          34.150  
C02  39636442.065          25.840  
C03  38538880.853          36.168  
C04  39474879.938          23.484  
C07  37636320.743          39.883  
C08  36155119.139          45.659  
C10  37055996.625          39.032  
C24  23499439.184          33.573  
C26  21808108.075          43.942  
C31  22549393.604          44.572  
C35  21713893.794          42.466  
C39  24578565.868          27.063  
> 2026 05 10 00 12  0.0000000  0 11
C01  38453209.842          35.656  
C02  39636641.001          26.287  
C03  38538022.851          34.108  
C04  39472895.811          21.181  
C07  37644834.648          37.378  
C08  36155063.296          42.457  
C10  37062447.125          39.867  
C24  23486267.597          37.711  
C26  21810090.943          47.262  
C35  21717451.872          44.686  
C39  24595571.009          28.781  
> 2026 05 10 00 12 30.0000000  0 12
C01  38451569.343          33.026  
C02  39636818.445          25.436  
C03  38537150.997          36.159  
C04  39470899.144          23.254  
C07  37653361.960          36.322  
C10  37068915.752          40.456  
C24  23473135.294          39.814  
C26  21812153.261          45.396  
C29  24834069.860          16.047  
C31  22526170.996          36.152  
C35  21721068.470          46.839  
C39  24612615.228          28.879  
> 2026 05 10 00 13  0.0000000  0 11
C01  38449948.254          37.151  
C02  39637010.987          20.197  
C03  38536290.996          33.253  
C07  37661927.694          35.785  
C08  36154967.487          41.359  
C10  37075424.459          38.618  
C24  23460075.838          36.339  
C26  21814318.257          45.734  
C29  24850659.004          20.351  
C31  22514660.771          43.395  
C39  24629708.931          29.833  
> 2026 05 10 00 13 30.0000000  0 10
C02  39637136.622          17.726  
C03  38535368.105          32.784  
C04  39466879.519          18.349  
C07  37670451.025          37.939  
C08  36154876.578          44.728  
C24  23447008.654          36.088  
C26  21816508.732          44.702  
C29  24867208.088          17.666  
C31  22503151.254          40.488  
C35  21728485.815          42.520  
> 2026 05 10 00 14  0.0000000  0 10
C01  38446628.851          37.072  
C03  38534495.482          32.639  
C04  39464888.647          21.361  
C07  37679052.308          35.612  
C08  36154845.340          47.330  
C10  37088457.280          41.133  
C24  23434045.789          37.025  
C26  21818839.214          46.156  
C29  24883818.632          18.575  
C35  21732325.152          44.152  
> 2026 05 10 00 14 30.0000000  0 12
C01  38444969.138          30.748  
C02  39637463.586          23.321  
C03  38533591.844          30.004  
C04  39462868.533          24.469  
C07  37687645.511          36.666  
C08  36154791.563          46.168  
C10  37095013.601          38.814  
C24  23421114.556          35.242  
C29  24900409.729          26.507  
C31  22480392.325          42.336  
C35  21736202.508          43.077  
C39  24681126.548          32.386  
> 2026 05 10 00 15  0.0000000  0 11
C01  38443307.372          36.004  
C02  39637612.559          30.114  
C03  38532681.059          37.866  
C04  39460847.154          26.620  
C07  37696259.042          35.961  
C08  36154744.946          45.479  
C24  23408229.996          36.367  
C26  21823713.069          42.789  
C29  24917027.439          17.847  
C31  22469086.595          43.516  
C35  21740152.259          45.330  
> 2026 05 10 00 15 30.0000000  0 11
C01  38441666.227          35.345  
C02  39637774.090          31.216  
C04  39458843.871          33.192  
C07  37704914.392          38.614  
C08  36154721.168          47.986  
C10  37108220.030          39.994  
C24  23395421.425          37.695  
C26  21826296.073          43.589  
C29  24933669.982          20.487  
C31  22457861.387          38.601  
C39  24715614.372          24.059  
> 2026 05 10 00 16  0.0000000  0 11
C01  38439979.703          35.117  
C03  38530852.912          36.963  
C04  39456802.762          25.778  
C07  37713551.174          39.285  
C08  36154664.058          45.063  
C10  37114833.599          39.320  
C24  23382629.892          38.552  
C26  21828932.572          45.429  
C29  24950293.791          17.936  
C35  21748256.449          42.500  
C39  24732888.288          26.059  
> 2026 05 10 00 16 30.0000000  0 10
C01  38438323.024          34.657  
C03  38529939.210          35.149  
C04  39454786.882          27.210  
C07  37722233.121          37.885  
C10  37121499.345          42.586  
C26  21831677.110          45.055  
C29  24966950.650          21.076  
C31  22435542.352          38.698  
C35  21752418.192          45.622  
C39  24750226.951          23.541  
> 2026 05 10 00 17  0.0000000  0 12
C02  39638152.852          28.348  
C03  38529029.816          30.296  
C04  39452776.195          28.207  
C07  37730942.991          38.770  
C08  36154627.746          45.174  
C10  37128200.588          37.545  
C24  23357274.372          36.521  
C26  21834521.438          45.388  
C29  24983621.647          21.477  
C31  22424493.791          36.959  
C35  21756656.718          42.464  
C39  24767618.643          24.190  
> 2026 05 10 00 17 30.0000000  0 12
C01  38434999.502          34.535  
C02  39638263.453          27.746  
C04  39450751.983          28.546  
C07  37739656.387          37.182  
C08  36154599.329          43.099  
C10  37134903.783          39.969  
C24  23344661.946          37.138  
C26  21837430.236          47.784  
C29  25000292.250          20.659  
C31  22413485.897          40.059  
C35  21760942.313          43.253  
C39  24785034.230          34.676  
> 2026 05 10 00 18  0.0000000  0  9
C01  38433320.024          36.661  
C03  38527149.774          35.760  
C04  39448711.898          24.513  
C07  37748378.632          38.935  
C10  37141625.495          38.404  
C24  23332099.303          35.667  
C31  22402529.309          42.274  
C35  21765288.602          44.958  
C39  24802463.447          28.037  
> 2026 05 10 00 18 30.0000000  0  8
C01  38431671.609          35.506  
C02  39638489.435          21.739  
C03  38526232.318          37.299  
C07  37757156.099          35.241  
C10  37148408.869          36.029  
C26  21843530.733          45.365  
C35  21769734.185          47.789  
C39  24819971.159          34.725  
> 2026 05 10 00 19  0.0000000  0  7
C01  38429995.790          35.091  
C02  39638593.393          27.131  
C03  38525286.727          32.461  
C08  36154567.987          41.024  
C26  21846702.107          44.517  
C35  21774224.349          43.556  
C39  24837488.736          33.117  
> 2026 05 10 00 19 30.0000000  0 12
C01  38428310.073          35.080  
C03  38524324.767          35.975  
C04  39442635.071          25.475  
C07  37774709.030          40.640  
C08  36154548.073          41.050  
C10  37161986.304          38.470  
C24  23294787.027          35.037  
C26  21849950.858          42.071  
C29  25067095.830          19.390  
C31  22370065.926          38.416  
C35  21778769.810          45.256  
C39  24855028.138          30.422  
> 2026 05 10 00 20  0.0000000  0 10
C01  38426652.821          35.161  
C02  39638796.164          26.040  
C04  39440618.333          29.062  
C10  37168840.266          38.850  
C24  23282480.881          37.050  
C26  21853317.507          42.327  
C29  25083842.021          20.185  
C31  22359382.988          38.497  
C35  21783411.276          40.360  
C39  24872633.892          30.086  
> 2026 05 10 00 20 30.0000000  0 11
C01  38424958.467          33.877  
C02  39638864.999          27.032  
C04  39438568.160          25.652  
C07  37792358.769          37.111  
C08  36154553.511          45.470  
C10  37175681.855          40.647  
C26  21856734.603          43.195  
C29  25100554.538          22.956  
C31  22348723.310          41.445  
C35  21788085.329          44.865  
C39  24890239.742          23.878  
> 2026 05 10 00 21  0.0000000  0 11
C01  38423297.953          37.311  
C02  39638964.819          26.653  
C03  38521473.847          38.268  
C04  39436543.490          27.177  
C07  37801228.884          35.848  
C10  37182581.721          38.768  
C26  21860273.150          48.769  
C29  25117323.620          20.521  
C31  22338157.290          38.750  
C35  21792858.462          43.150  
C39  24907915.543          22.248  
> 2026 05 10 00 21 30.0000000  0 10
C02  39639034.950          20.395  
C03  38520497.719          34.393  
C04  39434492.537          29.931  
C07  37810091.099          37.775  
C08  36154578.154          44.322  
C26  21863871.827          42.760  
C29  25134059.398          27.147  
C31  22327623.343          41.660  
C35  21797668.920          43.123  
C39  24925604.352          25.108  
> 2026 05 10 00 22  0.0000000  0  8
C01  38419938.157          38.157  
C02  39639114.871          24.359  
C10  37196428.101          38.337  
C24  23233756.383          38.602  
C26  21867582.188          45.079  
C29  25150829.884          30.836  
C35  21802567.030          46.846  
C39  24943344.955          21.921  
> 2026 05 10 00 22 30.0000000  0 10
C01  38418217.771          39.460  
C03  38518530.450          36.265  
C04  39430387.155          30.152  
C07  37827868.519          37.080  
C08  36154587.829          47.393  
C24  23221683.683          39.471  
C26  21871327.155          42.907  
C31  22306739.299          42.482  
C35  21807482.231          45.605  
C39  24961078.021          22.354  
> 2026 05 10 00 23  0.0000000  0 11
C01  38416585.533          38.795  
C02  39639254.754          22.033  
C03  38517601.145          33.202  
C04  39428391.071          29.345  
C07  37836849.725          34.810  
C08  36154661.598          45.748  
C10  37210385.699          42.267  
C26  21875248.517          42.984  
C31  22296449.164          43.136  
C35  21812552.300          48.764  
C39  24978925.392          23.082  
> 2026 05 10 00 23 30.0000000  0 10
C01  38414869.885          34.263  
C04  39426314.472          29.993  
C07  37845768.558          35.386  
C08  36154663.721          46.446  
C10  37217364.693          40.907  
C24  23197812.707          38.219  
C26  21879178.277          43.888  
C29  25201161.365          30.033  
C31  22286140.898          39.025  
C35  21817603.036          44.678  
> 2026 05 10 00 24  0.0000000  0 12
C01  38413167.734          36.003  
C02  39639319.686          18.310  
C03  38515585.860          33.172  
C04  39424248.863          23.283  
C07  37854719.693          39.484  
C08  36154673.300          47.285  
C10  37224382.688          40.612  
C24  23185937.733          37.941  
C26  21883205.042          42.663  
C29  25217945.577          27.863  
C35  21822732.856          46.536  
C39  25014582.250          21.860  
> 2026 05 10 00 24 30.0000000  0 11
C01  38411470.491          36.228  
C03  38514588.989          34.196  
C04  39422200.336          26.023  
C07  37863699.772          36.277  
C08  36154702.356          47.261  
C10  37231433.864          40.797  
C24  23174137.001          38.945  
C26  21887329.095          43.274  
C29  25234745.269          30.631  
C31  22265741.920          37.620  
C35  21827934.996          45.304  
> 2026 05 10 00 25  0.0000000  0 12
C01  38409777.117          36.657  
C02  39639396.840          15.724  
C03  38513586.996          32.581  
C04  39420144.198          23.318  
C07  37872701.802          33.663  
C08  36154736.340          41.541  
C10  37238511.485          40.891  
C24  23162391.434          42.862  
C26  21891543.019          45.636  
C31  22255640.184          38.146  
C35  21833205.343          50.026  
C39  25050405.643          19.244  
> 2026 05 10 00 25 30.0000000  0 12
C01  38408088.244          34.965  
C02  39639437.693          11.815  
C03  38512589.152          39.600  
C04  39418090.673          20.356  
C07  37881731.411          36.337  
C10  37245622.456          42.378  
C24  23150722.283          36.271  
C26  21895853.104          46.947  
C29  25268373.336          24.658  
C31  22245607.870          40.034  
C35  21838544.694          42.085  
C39  25068374.263          17.694  
> 2026 05 10 00 26  0.0000000  0 11
C02  39639464.154          13.886  
C03  38511585.075          38.216  
C04  39416046.956          24.820  
C07  37890770.567          35.416  
C08  36154823.914          47.196  
C10  37252754.821          35.523  
C24  23139107.162          37.764  
C26  21900245.397          43.531  
C29  25285204.573          29.876  
C31  22235632.323          40.121  
C39  25086368.854          10.000  
> 2026 05 10 00 26 30.0000000  0 12
C01  38404703.963          36.535  
C02  39639491.388          13.283  
C03  38510575.900          35.539  
C04  39413998.686          26.465  
C07  37899833.807          38.926  
C08  36154872.778          44.441  
C24  23127556.153          38.702  
C26  21904725.084          45.816  
C29  25302035.729          26.283  
C31  22225719.509          43.986  
C35  21849410.400          47.926  
C39  25104402.328          10.000  
> 2026 05 10 00 27  0.0000000  0 13
C01  38402981.469          31.550  
C02  39639482.530          15.420  
C03  38509536.503          37.263  
C04  39411925.418          30.503  
C07  37908888.197          39.941  
C08  36154897.934          43.013  
C10  37267065.422          42.408  
C24  23116039.885          35.818  
C26  21909266.255          44.129  
C29  25318857.016          31.230  
C31  22215841.314          42.318  
C35  21854909.581          44.782  
C39  25122451.216          17.595  
> 2026 05 10 00 27 30.0000000  0 11
C02  39639497.132          21.427  
C03  38508526.833          34.655  
C04  39409880.057          32.036  
C07  37917999.579          33.308  
C08  36154965.756          42.110  
C10  37274283.814          37.455  
C24  23104625.378          40.545  
C26  21913931.106          46.192  
C31  22206064.358          38.852  
C35  21860511.030          44.690  
C39  25140562.450          19.712  
> 2026 05 10 00 28  0.0000000  0 11
C01  38399575.490          36.119  
C02  39639479.678          27.935  
C03  38507483.377          31.899  
C04  39407801.745          25.617  
C08  36155001.848          41.466  
C10  37281490.806          38.534  
C24  23093234.281          41.226  
C29  25352558.005          19.761  
C31  22196307.660          40.868  
C35  21866140.591          42.907  
C39  25158663.698          23.380  
> 2026 05 10 00 28 30.0000000  0 10
C01  38397856.974          39.508  
C03  38506439.195          32.516  
C07  37936210.460          38.257  
C10  37288727.591          38.340  
C24  23081917.450          38.725  
C26  21923455.987          47.895  
C29  25369403.034          20.839  
C31  22186621.638          43.686  
C35  21871834.525          43.402  
C39  25176817.072          27.504  
> 2026 05 10 00 29  0.0000000  0 13
C01  38396146.604          38.597  
C02  39639441.344          31.591  
C03  38505395.499          34.992  
C04  39403662.168          29.243  
C07  37945353.148          34.114  
C08  36155097.854          41.427  
C10  37295993.781          38.523  
C24  23070666.872          42.143  
C26  21928362.458          44.528  
C29  25386261.607          14.716  
C31  22177003.240          43.245  
C35  21877597.938          44.191  
C39  25194999.013          31.377  
> 2026 05 10 00 29 30.0000000  0 10
C01  38394439.212          36.934  
C02  39639426.597          29.947  
C03  38504355.627          30.781  
C07  37954520.229          38.425  
C08  36155159.059          41.071  
C10  37303292.392          39.347  
C26  21933356.233          42.502  
C31  22167452.204          43.485  
C35  21883428.941          46.890  
C39  25213219.121          33.651  
> 2026 05 10 00 30  0.0000000  0 12
C01  38392726.884          35.517  
C02  39639412.922          28.161  
C03  38503306.554          36.081  
C04  39399519.357          27.744  
C07  37963697.890          36.411  
C08  36155219.587          42.960  
C10  37310609.268          38.774  
C24  23048366.357          43.984  
C26  21938432.315          41.845  
C31  22157956.358          40.358  
C35  21889317.778          44.751  
C39  25231450.800          23.607  
> 2026 05 10 00 30 30.0000000  0 10
C01  38567214.072          32.409  
C02  39616309.779          31.257  
C04  39609131.856          26.974  
C07  37972903.211          38.346  
C08  36155286.522          44.082  
C10  37317952.094          38.171  
C24  23037312.271          37.980  
C26  21943602.992          45.054  
C35  21895270.780          45.796  
C39  25249727.153          28.710  
> 2026 05 10 00 31  0.0000000  0  9
C01  38565810.456          37.579  
C03  38592831.937          35.069  
C04  39607234.484          30.751  
C07  37982119.713          31.162  
C08  36155354.301          45.574  
C10  37325320.685          37.150  
C26  21948855.368          41.356  
C35  21901282.133          45.455  
C39  25268032.861          26.743  
> 2026 05 10 00 31 30.0000000  0 11
C01  38564376.853          36.219  
C03  38592244.575          37.471  
C04  39605297.540          30.369  
C07  37991331.090          38.618  
C08  36155399.767          43.623  
C10  37332685.482          37.736  
C24  23015374.667          39.307  
C26  21954170.780          44.357  
C31  22129823.767          40.624  
C35  21907327.997          44.279  
C39  25286344.846          30.192  
> 2026 05 10 00 32  0.0000000  0 10
C01  38562989.249          36.558  
C02  39617812.604          27.808  
C03  38591702.245          33.677  
C04  39603418.533          23.507  
C07  38000608.181          37.374  
C08  36155495.903          41.101  
C10  37340124.852          39.506  
C26  21959619.741          40.261  
C31  22120598.713          40.817  
C39  25304729.925          27.542  
> 2026 05 10 00 32 30.0000000  0 12
C01  38561531.385          34.151  
C02  39618260.941          28.378  
C03  38591082.953          31.946  
C04  39601464.228          21.986  
C07  38009833.869          36.998  
C08  36155526.809          46.169  
C10  37347517.199          36.535  
C24  22993699.936          37.571  
C26  21965087.734          45.281  
C31  22111366.303          42.136  
C35  21919630.940          44.647  
C39  25323076.925          24.643  
> 2026 05 10 00 33  0.0000000  0 11
C01  38560130.567          31.151  
C02  39618758.909          26.096  
C03  38590523.258          34.784  
C07  38019136.165          40.295  
C08  36155620.145          40.868  
C10  37354994.708          38.681  
C24  22982989.563          39.805  
C26  21970701.316          44.054  
C31  22102258.171          39.136  
C35  21925897.371          43.191  
C39  25341514.660          25.142  
> 2026 05 10 00 33 30.0000000  0 11
C02  39619227.154          23.208  
C03  38589924.922          38.279  
C04  39597621.989          27.514  
C07  38028425.050          39.043  
C08  36155684.385          45.731  
C10  37362464.498          40.890  
C24  22972312.554          40.409  
C26  21976371.130          43.471  
C31  22093178.937          43.233  
C35  21932191.192          46.690  
C39  25359943.715          25.556  
> 2026 05 10 00 34  0.0000000  0 11
C01  38557273.528          31.244  
C02  39619693.679          27.407  
C04  39595702.959          26.097  
C07  38037748.744          37.577  
C08  36155768.870          42.479  
C10  37369973.448          42.135  
C24  22961719.288          37.931  
C26  21982145.147          42.382  
C31  22084176.365          41.989  
C35  21938559.980          42.316  
C39  25378411.147          29.309  
> 2026 05 10 00 34 30.0000000  0 10
C01  38555838.254          37.264  
C02  39620146.319          29.726  
C03  38588730.707          35.166  
C08  36155838.247          43.281  
C10  37377494.017          39.858  
C24  22951177.397          38.888  
C26  21987985.970          43.930  
C31  22075222.863          44.235  
C35  21944974.897          43.641  
C39  25396898.063          26.449  
> 2026 05 10 00 35  0.0000000  0  8
C01  38554399.002          36.803  
C02  39620595.939          31.204  
C03  38588119.363          35.690  
C04  39591824.765          26.298  
C24  22940702.343          40.248  
C26  21993917.775          44.573  
C35  21951447.136          39.776  
C39  25415406.007          26.057  
> 2026 05 10 00 35 30.0000000  0 12
C01  38552992.976          34.281  
C02  39621071.000          32.814  
C03  38587539.110          36.384  
C04  39589909.908          27.613  
C07  38065815.210          33.586  
C08  36156022.810          43.059  
C10  37392638.052          40.598  
C24  22930332.254          39.804  
C26  21999971.472          43.712  
C31  22057534.096          42.624  
C35  21958015.328          43.407  
C39  25433977.131          21.445  
> 2026 05 10 00 36  0.0000000  0 10
C01  38551541.255          33.898  
C02  39621502.243          28.599  
C04  39587960.430          30.704  
C07  38075187.128          33.712  
C08  36156093.057          40.563  
C24  22919990.718          36.745  
C26  22006067.491          47.279  
C31  22048759.332          43.503  
C35  21964596.433          45.744  
C39  25452538.138          23.346  
> 2026 05 10 00 36 30.0000000  0 12
C01  38550102.004          31.075  
C02  39621945.702          32.787  
C03  38586293.724          36.808  
C04  39586015.684          32.759  
C07  38084589.724          35.084  
C08  36156181.373          45.600  
C10  37407844.021          38.652  
C24  22909730.780          42.551  
C26  22012265.038          43.318  
C31  22040059.277          41.479  
C35  21971252.339          43.816  
C39  25471142.733          25.311  
> 2026 05 10 00 37  0.0000000  0 10
C01  38548639.794          36.564  
C02  39622364.028          26.201  
C03  38585645.618          31.894  
C04  39584060.018          23.809  
C07  38093985.943          37.167  
C08  36156248.693          40.884  
C24  22899515.842          40.846  
C31  22031396.420          45.957  
C35  21977941.975          47.583  
C39  25489745.450          22.971  
> 2026 05 10 00 37 30.0000000  0 12
C01  38547189.285          31.000  
C02  39622785.854          23.866  
C03  38585011.533          38.235  
C04  39582098.132          30.147  
C07  38103415.934          33.965  
C08  36156334.255          45.718  
C10  37423127.324          40.996  
C24  22889387.228          37.731  
C26  22024886.187          42.743  
C31  22022814.249          41.410  
C35  21984705.120          43.831  
C39  25508394.815          28.161  
> 2026 05 10 00 38  0.0000000  0 11
C02  39623224.398          32.893  
C03  38584393.530          35.766  
C04  39580171.897          27.870  
C07  38112884.068          33.127  
C08  36156443.174          44.814  
C10  37430835.972          36.696  
C24  22879349.881          38.445  
C26  22031355.282          41.554  
C31  22014311.999          43.508  
C35  21991546.759          42.753  
C39  25527095.502          27.695  
> 2026 05 10 00 38 30.0000000  0  9
C01  38544302.193          37.053  
C02  39623630.613          30.076  
C07  38122346.566          38.263  
C08  36156530.159          45.608  
C10  37438542.946          36.601  
C24  22869357.534          36.347  
C26  22037887.661          42.825  
C35  21998421.161          41.685  
C39  25545788.687          24.286  
> 2026 05 10 00 39  0.0000000  0 11
C01  38542863.591          39.411  
C02  39624070.806          26.813  
C03  38583118.045          29.886  
C04  39576272.737          29.146  
C07  38131846.612          36.826  
C08  36156638.779          43.650  
C10  37446293.086          39.171  
C24  22859458.039          39.340  
C31  21997474.010          38.951  
C35  22005373.042          45.524  
C39  25564528.329          28.632  
> 2026 05 10 00 39 30.0000000  0 11
C02  39624449.759          24.175  
C03  38582435.677          32.487  
C04  39574282.223          29.207  
C07  38141315.859          34.390  
C08  36156704.843          44.016  
C10  37454019.777          36.819  
C24  22849581.847          43.991  
C26  22051203.476          42.785  
C31  21989109.931          37.501  
C35  22012335.747          43.445  
C39  25583252.146          28.380  
> 2026 05 10 00 40  0.0000000  0  9
C01  38539930.097          34.632  
C07  38150842.524          37.681  
C08  36156814.684          43.712  
C10  37461813.677          39.091  
C24  22839817.656          40.383  
C26  22058008.959          44.192  
C31  21980848.131          41.463  
C35  22019395.181          43.769  
C39  25602037.088          27.964  
> 2026 05 10 00 40 30.0000000  0  9
C02  39625285.577          22.062  
C03  38581154.140          36.189  
C04  39570394.387          29.257  
C08  36156939.300          43.552  
C10  37469641.325          38.854  
C24  22830138.791          41.010  
C26  22064912.832          41.944  
C31  21972664.504          41.093  
C35  22026523.906          44.738  
> 2026 05 10 00 41  0.0000000  0  9
C01  38537001.848          30.935  
C02  39625643.799          19.720  
C04  39568393.198          27.393  
C07  38169921.426          38.906  
C10  37477439.006          42.246  
C26  22071847.331          41.977  
C31  21964485.550          40.517  
C35  22033653.539          44.448  
C39  25639652.063          22.871  
> 2026 05 10 00 41 30.0000000  0  9
C01  38535522.943          34.169  
C03  38579773.796          35.571  
C04  39566407.521          29.769  
C07  38179472.492          37.432  
C08  36157096.691          44.456  
C24  22810907.309          37.042  
C26  22078885.071          42.793  
C31  21956387.204          47.948  
C39  25658485.109          28.113  
> 2026 05 10 00 42  0.0000000  0  8
C01  38534070.368          36.068  
C02  39626408.650          24.593  
C04  39564455.047          33.411  
C08  36157215.526          44.960  
C10  37493164.498          39.034  
C26  22086034.140          48.621  
C31  21948378.884          45.045  
C39  25677368.527          22.983  
> 2026 05 10 00 42 30.0000000  0  9
C03  38578424.757          35.039  
C04  39562481.680          25.667  
C07  38198658.892          39.804  
C08  36157315.143          45.355  
C24  22792012.149          47.284  
C26  22093248.745          43.417  
C31  21940412.190          44.964  
C35  22055455.033          45.721  
C39  25696258.329          27.981  
> 2026 05 10 00 43  0.0000000  0 11
C01  38531117.463          35.731  
C02  39627151.673          19.978  
C03  38577734.981          38.647  
C04  39560503.581          21.543  
C07  38208270.928          35.456  
C08  36157416.915          46.159  
C10  37508968.381          37.827  
C26  22100548.420          40.832  
C31  21932505.210          42.105  
C35  22062830.467          44.164  
C39  25715166.448          23.798  
> 2026 05 10 00 43 30.0000000  0 12
C01  38529633.039          34.154  
C02  39627511.429          14.622  
C03  38577030.254          35.867  
C04  39558509.450          31.712  
C07  38217889.258          37.828  
C08  36157513.531          41.024  
C10  37516897.603          33.547  
C24  22773383.478          41.139  
C26  22107928.104          41.488  
C31  21924654.388          47.963  
C35  22070251.159          40.441  
C39  25734098.167          25.937  
> 2026 05 10 00 44  0.0000000  0 12
C01  38528157.565          36.011  
C02  39627872.736          16.082  
C03  38576337.385          34.584  
C04  39556529.194          29.969  
C07  38227535.891          37.398  
C08  36157624.021          44.104  
C10  37524865.116          35.705  
C24  22764193.038          42.654  
C26  22115402.290          40.848  
C31  21916878.692          43.128  
C35  22077738.163          44.210  
C39  25753056.984          29.463  
> 2026 05 10 00 44 30.0000000  0 11
C01  38526667.707          32.874  
C02  39628212.142          16.344  
C03  38575624.069          33.095  
C04  39554529.007          32.814  
C07  38237182.437          32.176  
C08  36157723.830          43.709  
C24  22755059.673          38.357  
C26  22122950.373          43.429  
C31  21909150.623          43.769  
C35  22085265.403          38.675  
C39  25772031.227          23.634  
> 2026 05 10 00 45  0.0000000  0  9
C03  38574902.195          35.388  
C07  38246844.225          34.533  
C08  36157816.503          46.093  
C10  37540831.074          41.196  
C24  22745993.445          39.514  
C26  22130577.803          45.046  
C31  21901481.903          41.527  
C35  22092843.180          40.622  
C39  25791020.801          20.331  
> 2026 05 10 00 45 30.0000000  0  9
C01  38523676.257          37.924  
C04  39550530.502          33.954  
C07  38256525.136          33.699  
C08  36157921.551          45.988  
C10  37548853.713          37.422  
C24  22737011.893          39.606  
C26  22138294.271          43.529  
C31  21893877.871          41.779  
C39  25810030.903          19.430  
> 2026 05 10 00 46  0.0000000  0  8
C02  39629215.002          22.690  
C03  38573475.878          33.978  
C04  39548550.501          31.767  
C07  38266241.489          36.709  
C08  36158041.025          47.739  
C10  37556914.547          37.263  
C24  22728120.545          42.451  
C35  22108184.563          40.749  
> 2026 05 10 00 46 30.0000000  0  8
C01  38520705.081          37.840  
C03  38572749.759          36.043  
C07  38275959.764          33.564  
C08  36158149.319          45.046  
C10  37564986.779          39.262  
C26  22154005.942          41.265  
C31  21878882.671          44.959  
C35  22115929.281          42.678  
> 2026 05 10 00 47  0.0000000  0  8
C03  38572016.886          35.133  
C04  39544550.684          29.921  
C07  38285692.135          40.384  
C08  36158258.359          42.920  
C24  22710539.987          38.395  
C26  22161979.506          41.302  
C31  21871466.960          41.190  
C35  22123725.548          44.378  
> 2026 05 10 00 47 30.0000000  0 11
C01  38517676.146          34.214  
C02  39630146.995          22.476  
C03  38571246.404          35.315  
C04  39542510.879          26.194  
C07  38295405.038          34.898  
C08  36158334.856          42.855  
C10  37581158.423          40.611  
C24  22701826.465          44.568  
C26  22170001.532          43.260  
C31  21864081.992          42.253  
C35  22131539.367          43.301  
> 2026 05 10 00 48  0.0000000  0  9
C01  38516198.677          36.512  
C02  39630470.480          28.575  
C03  38570528.354          31.658  
C07  38305188.280          39.615  
C08  36158465.191          45.662  
C10  37589317.698          37.762  
C24  22693247.288          40.334  
C31  21856813.132          43.619  
C35  22139462.389          42.081  
> 2026 05 10 00 48 30.0000000  0 10
C01  38514676.512          36.696  
C02  39630760.509          27.714  
C03  38569764.195          32.587  
C04  39538507.542          30.678  
C07  38314948.695          34.484  
C08  36158559.709          45.140  
C10  37597459.243          33.782  
C26  22186371.688          43.003  
C31  21849567.804          42.711  
C35  22147395.042          45.011  
> 2026 05 10 00 49  0.0000000  0  9
C01  38513179.556          37.072  
C02  39631071.438          23.037  
C04  39536498.300          30.658  
C07  38324745.852          32.957  
C08  36158677.278          44.749  
C10  37605645.511          39.044  
C24  22676260.557          40.329  
C26  22194685.609          45.421  
C31  21842405.006          43.146  
> 2026 05 10 00 49 30.0000000  0  9
C02  39631351.751          22.209  
C03  38568248.781          38.610  
C04  39534467.347          22.811  
C07  38334537.417          37.602  
C08  36158776.425          40.887  
C24  22667875.338          42.603  
C26  22203060.991          41.038  
C31  21835289.330          45.320  
C35  22163440.719          42.282  
> 2026 05 10 00 50  0.0000000  0  8
C01  38510137.445          37.801  
C03  38567476.710          31.382  
C04  39532450.524          29.811  
C07  38344348.644          39.984  
C10  37622048.043          40.440  
C24  22659567.030          44.455  
C31  21828229.920          43.128  
C35  22171531.834          43.133  
> 2026 05 10 00 50 30.0000000  0  8
C01  38508635.777          37.078  
C02  39631913.805          29.401  
C03  38566719.494          34.234  
C07  38354194.318          35.604  
C08  36158999.770          43.355  
C10  37630302.881          34.998  
C26  22220091.294          41.662  
C35  22179695.570          45.250  
> 2026 05 10 00 51  0.0000000  0 10
C01  38507088.424          37.102  
C02  39632158.976          31.748  
C03  38565919.807          34.110  
C04  39528382.163          24.553  
C08  36159083.258          43.266  
C10  37638542.383          40.466  
C24  22643190.475          43.271  
C26  22228700.621          41.713  
C31  21814305.916          43.861  
C35  22187868.698          41.893  
> 2026 05 10 00 51 30.0000000  0 10
C01  38505605.135          33.397  
C02  39632462.397          29.710  
C03  38565176.002          34.821  
C04  39526399.434          23.135  
C07  38373911.717          36.000  
C08  36159230.965          42.274  
C10  37646863.059          39.487  
C24  22635162.500          39.167  
C31  21807479.305          43.343  
C35  22196152.788          43.209  
> 2026 05 10 00 52  0.0000000  0 11
C01  38504055.763          34.916  
C02  39632713.815          22.700  
C03  38564360.893          35.880  
C04  39524336.554          22.414  
C07  38383757.052          35.429  
C08  36159311.535          46.679  
C10  37655139.895          35.659  
C24  22627143.150          41.227  
C26  22246225.119          40.847  
C31  21800646.091          41.394  
C35  22204421.895          44.037  
> 2026 05 10 00 52 30.0000000  0  8
C01  38502544.767          34.345  
C04  39522326.785          30.831  
C07  38393660.172          32.110  
C08  36159435.826          42.899  
C10  37663482.589          40.348  
C26  22255121.871          43.084  
C31  21793918.199          40.636  
C35  22212783.663          42.804  
> 2026 05 10 00 53  0.0000000  0 10
C01  38501012.934          32.929  
C02  39633231.362          20.052  
C03  38562785.114          32.774  
C04  39520289.442          28.946  
C07  38403559.453          34.938  
C08  36159541.637          42.292  
C10  37671828.187          36.726  
C24  22611414.052          40.194  
C26  22264080.891          46.432  
C31  21787234.632          44.162  
> 2026 05 10 00 53 30.0000000  0 10
C01  38499456.945          34.324  
C02  39633456.887          23.897  
C03  38561959.766          32.107  
C04  39518230.091          33.018  
C07  38413450.575          35.168  
C08  36159625.342          44.823  
C10  37680173.289          38.373  
C24  22603639.036          42.725  
C26  22273102.638          42.900  
C35  22229591.441          44.319  
> 2026 05 10 00 54  0.0000000  0  8
C01  38497935.851          35.369  
C02  39633701.243          29.135  
C04  39516204.103          32.036  
C08  36159747.395          39.630  
C24  22595976.886          41.170  
C26  22282240.989          41.708  
C31  21774042.452          40.723  
C35  22238094.558          44.396  
> 2026 05 10 00 54 30.0000000  0  8
C02  39633926.876          32.504  
C03  38560348.820          37.119  
C04  39514154.094          31.242  
C07  38433332.237          36.383  
C24  22588378.909          43.188  
C26  22291443.122          41.026  
C31  21767536.381          42.228  
C35  22246627.799          42.391  
> 2026 05 10 00 55  0.0000000  0 10
C01  38494873.083          33.676  
C02  39634171.976          26.843  
C03  38559547.442          35.871  
C04  39512127.683          29.099  
C07  38443302.456          32.124  
C08  36159973.994          42.403  
C10  37705430.887          36.962  
C26  22300747.415          41.400  
C31  21761116.150          42.318  
C35  22255227.313          38.285  
> 2026 05 10 00 55 30.0000000  0 10
C01  38493323.266          34.675  
C03  38558714.024          38.333  
C04  39510063.901          27.921  
C07  38453254.021          32.265  
C08  36160069.227          41.007  
C10  37713873.412          39.853  
C24  22573437.004          42.590  
C26  22310105.914          38.908  
C31  21754727.586          38.968  
C35  22263848.324          45.614  
> 2026 05 10 00 56  0.0000000  0  8
C02  39634595.624          31.264  
C03  38557883.009          34.122  
C04  39508020.665          31.535  
C07  38463231.105          26.376  
C08  36160175.142          46.760  
C10  37722342.912          37.528  
C24  22566077.484          40.437  
C26  22319550.811          42.988  
> 2026 05 10 00 56 30.0000000  0 11
C01  38490228.574          35.329  
C02  39634813.932          23.936  
C03  38557048.119          39.201  
C04  39505961.715          32.119  
C07  38473215.368          21.139  
C08  36160277.582          46.366  
C10  37730834.359          36.431  
C24  22558804.000          40.975  
C26  22329080.031          43.968  
C31  21742147.828          42.856  
C35  22281247.355          42.778  
> 2026 05 10 00 57  0.0000000  0  9
C01  38488697.769          38.222  
C02  39635035.861          25.214  
C04  39503930.263          29.958  
C07  38483244.693          23.823  
C08  36160402.833          42.443  
C10  37739366.805          38.744  
C24  22551629.183          42.649  
C26  22338709.200          38.646  
C35  22290036.959          40.933  
> 2026 05 10 00 57 30.0000000  0 10
C01  38487132.138          35.989  
C02  39635221.008          24.693  
C03  38555370.855          37.075  
C04  39501859.879          32.992  
C07  38493258.329          27.038  
C08  36160492.973          41.230  
C10  37747888.473          40.079  
C24  22544505.585          42.295  
C26  22348386.757          46.229  
C31  21729821.534          45.340  
> 2026 05 10 00 58  0.0000000  0 10
C01  38485568.843          36.357  
C02  39635402.792          25.676  
C04  39499790.080          27.837  
C07  38503277.967          23.773  
C08  36160587.945          41.879  
C10  37756433.401          39.451  
C24  22537462.465          38.768  
C26  22358144.016          40.786  
C31  21723738.211          44.494  
C35  22307694.744          40.572  
> 2026 05 10 00 58 30.0000000  0 10
C02  39635599.558          21.882  
C03  38553656.573          35.709  
C04  39497727.889          30.115  
C07  38513332.205          29.807  
C08  36160690.491          44.980  
C10  37765008.905          36.448  
C24  22530515.802          41.958  
C26  22367995.877          40.459  
C31  21717724.930          42.536  
C35  22316603.697          43.865  
> 2026 05 10 00 59  0.0000000  0 10
C01  38482449.784          37.826  
C02  39635767.991          27.869  
C04  39495661.122          31.294  
C07  38523388.977          32.886  
C08  36160788.417          45.229  
C10  37773599.050          38.173  
C24  22523645.055          41.692  
C26  22377919.737          41.766  
C31  21711765.420          45.439  
C35  22325552.540          40.963  
> 2026 05 10 00 59 30.0000000  0 10
C01  38480889.986          33.883  
C02  39635947.398          25.697  
C03  38551928.275          38.222  
C04  39493599.076          26.205  
C07  38533463.031          31.666  
C08  36160889.849          44.427  
C10  37782215.030          38.767  
C26  22387929.196          41.008  
C31  21705872.528          41.321  
C35  22334551.191          47.381  
> 2026 05 10 01 00  0.0000000  0 10
C01  38479325.701          35.659  
C02  39636117.873          18.876  
C04  39491531.253          21.919  
C07  38543551.070          35.849  
C08  36160990.229          43.332  
C10  37790849.954          34.777  
C24  22510159.953          44.036  
C26  22398014.553          44.259  
C31  21700037.196          38.778  
C35  22343592.343          44.247  
> 2026 05 10 01 00 30.0000000  0 11
C01  38477758.638          33.422  
C02  39636276.058          27.978  
C03  38550180.559          36.633  
C04  39489451.630          27.712  
C07  38553638.469          32.174  
C08  36161086.367          43.413  
C10  37799504.099          40.026  
C24  22503539.199          40.709  
C26  22408179.978          42.958  
C31  21694263.250          43.160  
C35  22352680.367          41.905  
> 2026 05 10 01 01  0.0000000  0  9
C01  38476203.232          34.571  
C02  39636453.828          21.412  
C04  39487406.581          14.736  
C07  38563759.139          26.184  
C08  36161200.646          43.237  
C24  22497017.672          42.446  
C26  22418439.383          41.257  
C31  21688565.089          43.348  
C35  22361825.194          40.965  
> 2026 05 10 01 01 30.0000000  0  9
C01  38474641.537          38.147  
C02  39636604.703          29.889  
C04  39485337.215          16.096  
C07  38573891.175          24.901  
C10  37816897.424          37.087  
C24  22490572.394          45.657  
C26  22428773.120          38.990  
C31  21682918.147          41.506  
C35  22371008.707          43.234  
> 2026 05 10 01 02  0.0000000  0 10
C01  38473053.748          35.570  
C02  39636733.183          27.885  
C03  38547530.625          35.971  
C04  39483238.218          19.028  
C07  38584009.298          26.467  
C10  37825597.085          38.426  
C24  22484189.148          42.202  
C26  22439160.616          43.471  
C31  21677311.009          43.636  
C35  22380213.672          44.694  
> 2026 05 10 01 02 30.0000000  0  9
C01  38471486.023          37.109  
C02  39636878.005          30.527  
C03  38546639.503          34.271  
C04  39481162.500          18.872  
C07  38594163.643          27.975  
C10  37834337.580          35.665  
C26  22449643.873          45.289  
C31  21671784.990          42.256  
C35  22389481.166          42.252  
> 2026 05 10 01 03  0.0000000  0 10
C01  38469896.674          30.639  
C02  39637005.937          25.579  
C03  38545727.219          35.309  
C04  39479069.350          15.459  
C07  38604308.551          28.859  
C08  36161572.146          45.669  
C10  37843081.242          37.550  
C24  22471696.801          39.234  
C31  21666303.094          43.225  
C35  22398776.104          39.904  
> 2026 05 10 01 03 30.0000000  0  9
C01  38468309.152          36.354  
C03  38544815.046          37.161  
C04  39476979.941          12.406  
C07  38614470.509          30.040  
C08  36161658.355          44.643  
C24  22465574.629          45.359  
C26  22470822.163          44.289  
C31  21660884.167          44.298  
C35  22408117.128          43.566  
> 2026 05 10 01 04  0.0000000  0  9
C01  38466740.791          36.822  
C02  39637270.474          25.855  
C03  38543917.182          33.737  
C04  39474907.999          12.477  
C07  38624672.016          34.940  
C24  22459555.904          38.819  
C26  22481549.027          42.813  
C31  21655543.566          45.459  
C35  22417522.993          38.891  
> 2026 05 10 01 04 30.0000000  0 11
C01  38465162.676          30.661  
C02  39637391.500          21.665  
C04  39472821.977          10.000  
C07  38634868.108          34.549  
C08  36161859.792          46.102  
C10  37869478.675          37.038  
C24  22453613.295          39.677  
C26  22492341.074          41.449  
C31  21650258.113          44.760  
C34  25264198.145          30.330  
C35  22426961.636          42.066  
> 2026 05 10 01 05  0.0000000  0 10
C01  38463574.606          35.960  
C02  39637503.901          25.232  
C03  38542082.568          37.198  
C04  39470720.103          18.343  
C07  38645073.764          32.163  
C08  36161948.673          47.206  
C24  22447750.368          43.265  
C26  22503211.659          39.499  
C34  25248539.497          29.651  
C35  22436435.932          41.231  
> 2026 05 10 01 05 30.0000000  0 10
C02  39637611.107          27.681  
C03  38541152.258          36.120  
C04  39468621.502          20.450  
C07  38655290.391          30.705  
C10  37887155.941          36.512  
C24  22441969.557          40.153  
C26  22514150.691          39.798  
C31  21639848.938          41.469  
C34  25232904.736          24.035  
C35  22445950.162          39.953  
> 2026 05 10 01 06  0.0000000  0 10
C01  38460392.261          38.591  
C02  39637701.899          20.766  
C04  39466518.089          27.988  
C07  38665509.495          36.409  
C10  37896026.310          35.727  
C24  22436277.274          43.100  
C26  22525171.613          38.233  
C31  21634734.570          41.282  
C34  25217301.946          25.928  
C35  22455506.120          39.765  
> 2026 05 10 01 06 30.0000000  0 10
C01  38458792.278          38.333  
C03  38539277.684          36.542  
C04  39464411.949          24.460  
C07  38675749.647          31.777  
C08  36162198.683          44.544  
C10  37904913.726          39.706  
C26  22536263.013          42.548  
C31  21629674.999          43.816  
C34  25201723.909          30.469  
C35  22465102.086          39.639  
> 2026 05 10 01 07  0.0000000  0 11
C01  38457169.504          30.746  
C02  39637857.211          21.250  
C03  38538309.798          37.161  
C04  39462286.395          25.302  
C07  38685969.313          32.183  
C08  36162255.739          45.418  
C24  22425120.693          39.675  
C26  22547409.585          41.552  
C31  21624654.590          43.585  
C34  25186134.828          20.262  
C35  22474717.489          42.399  
> 2026 05 10 01 07 30.0000000  0 11
C01  38455604.357          35.526  
C02  39637973.307          20.637  
C03  38537394.084          33.438  
C04  39460210.527          26.467  
C07  38696265.896          31.177  
C08  36162368.964          42.846  
C24  22419719.598          44.163  
C26  22558690.698          38.675  
C31  21619750.425          42.109  
C34  25170648.196          20.641  
C35  22484432.506          40.556  
> 2026 05 10 01 08  0.0000000  0 10
C01  38453999.902          35.086  
C03  38536437.383          31.751  
C04  39458098.796          24.981  
C08  36162443.861          41.480  
C10  37931698.585          34.736  
C24  22414366.214          44.447  
C26  22570010.795          37.509  
C31  21614869.978          43.574  
C34  25155156.123          27.015  
C35  22494148.598          43.065  
> 2026 05 10 01 08 30.0000000  0 11
C01  38452388.272          35.190  
C02  39638113.831          14.413  
C03  38535471.928          34.257  
C04  39455979.208          24.650  
C08  36162514.606          45.313  
C10  37940656.258          39.195  
C24  22409098.432          42.799  
C26  22581403.457          44.071  
C31  21610048.115          48.371  
C34  25139674.701          29.053  
C35  22503903.114          40.096  
> 2026 05 10 01 09  0.0000000  0 10
C01  38450778.745          37.386  
C02  39638182.995          21.991  
C03  38534506.049          32.994  
C04  39453863.563          26.250  
C07  38727095.732          35.037  
C10  37949635.840          33.138  
C26  22592874.037          40.611  
C31  21605285.390          44.469  
C34  25124232.175          29.609  
C35  22513701.440          38.267  
> 2026 05 10 01 09 30.0000000  0  9
C02  39638240.154          24.212  
C04  39451751.249          27.567  
C08  36162660.499          45.946  
C10  37958639.192          37.521  
C24  22398833.195          42.447  
C26  22604422.512          39.063  
C31  21600587.176          44.585  
C34  25108810.949          24.528  
C35  22523542.108          44.911  
> 2026 05 10 01 10  0.0000000  0  9
C01  38447565.819          36.891  
C03  38532569.491          35.370  
C04  39449636.238          26.135  
C08  36162740.153          43.027  
C10  37967666.581          37.419  
C24  22393839.315          40.709  
C26  22616051.564          44.178  
C34  25093431.047          34.461  
C35  22533425.862          40.242  
> 2026 05 10 01 10 30.0000000  0 10
C01  38445962.175          36.424  
C02  39638359.439          19.248  
C03  38531597.221          35.840  
C04  39447534.828          24.189  
C07  38758046.558          32.272  
C08  36162818.885          46.629  
C10  37976713.057          37.467  
C24  22388935.597          40.924  
C26  22627757.243          39.805  
C31  21591381.613          42.373  
> 2026 05 10 01 11  0.0000000  0  9
C04  39445410.606          27.429  
C07  38768376.518          34.370  
C08  36162885.880          44.412  
C10  37985769.581          37.337  
C24  22384109.612          42.938  
C26  22639527.430          41.917  
C31  21586859.067          43.610  
C34  25062739.949          24.645  
C35  22553312.196          46.244  
> 2026 05 10 01 11 30.0000000  0 11
C01  38442735.339          35.725  
C02  39638449.813          23.642  
C03  38529629.275          34.198  
C04  39443288.998          26.302  
C07  38778728.184          34.640  
C08  36162954.129          43.018  
C10  37994850.550          37.879  
C24  22379376.254          40.575  
C26  22651375.944          42.444  
C34  25047425.103          20.137  
C35  22563313.768          39.769  
> 2026 05 10 01 12  0.0000000  0 10
C01  38441111.654          37.704  
C03  38528633.478          35.740  
C04  39441167.719          20.279  
C07  38789077.033          35.100  
C08  36163019.140          41.061  
C10  38003940.626          36.412  
C26  22663292.331          45.404  
C31  21577990.892          43.491  
C34  25032141.948          26.343  
C35  22573345.524          41.818  
> 2026 05 10 01 12 30.0000000  0 12
C01  38439471.994          39.092  
C02  39638488.272          25.589  
C03  38527615.582          33.942  
C04  39439017.346          26.472  
