     3.04           OBSERVATION DATA    C: BDS              RINEX VERSION / TYPE
DataSimulator       BUPT-GNSS           20260518 115311     PGM / RUN BY / DATE
BDS SPP Simulated Observation Data                          COMMENT
BUPT_Shahe                                                  MARKER NAME
 -2161962.4351  4376609.9016  4091389.4091                  APPROX POSITION XYZ
0.0000        0.0000        0.0000                          ANTENNA: DELTA H/E/N
C    2 C2I S2I                                              SYS / # / OBS TYPES
                                                         BDTTIME OF FIRST OBS
    30.000                                                  INTERVAL
                                                            END OF HEADER
> 2026 05 10 00 00  0.0000000  0 13
C01  38491974.616          32.881  
C02  39630675.930          34.753  
C03  38557512.615          35.345  
C04  39520178.045          33.464  
C07  37446421.331          40.425  
C08  36158138.213          47.926  
C10  36914878.661          41.603  
C24  23815948.545          36.647  
C26  21786258.873          41.105  
C29  24424927.192          36.223  
C31  22833229.671          38.394  
C35  21652037.787          43.723  
C39  24199187.123          31.514  
> 2026 05 10 00 00 30.0000000  0 13
C01  38490392.981          36.791  
C02  39630995.527          27.211  
C03  38556765.614          35.431  
C04  39518242.583          32.388  
C07  37454454.008          36.456  
C08  36157949.109          45.706  
C10  36920740.002          40.109  
C24  23801693.527          41.152  
C26  21786285.773          45.677  
C29  24441079.160          31.673  
C31  22820271.520          39.246  
C35  21653933.212          43.484  
C39  24215209.945          37.680  
> 2026 05 10 00 01  0.0000000  0 13
C01  38488779.447          34.484  
C02  39631281.206          29.657  
C03  38555984.172          35.622  
C04  39516273.188          32.929  
C07  37462479.161          39.120  
C08  36157737.617          45.477  
C10  36926600.086          40.376  
C24  23787456.839          37.782  
C26  21786370.373          41.568  
C29  24457222.603          30.960  
C31  22807340.342          41.073  
C35  21655873.883          46.472  
C39  24231252.495          35.474  
> 2026 05 10 00 01 30.0000000  0 13
C01  38487236.446          35.963  
C02  39631634.873          31.499  
C03  38555274.000          34.301  
C04  39514378.062          32.698  
C07  37470600.129          36.851  
C08  36157609.528          39.828  
C10  36932559.804          38.397  
C24  23773336.184          37.572  
C26  21786614.774          41.664  
C29  24473462.454          30.392  
C31  22794538.809          34.045  
C35  21657964.369          44.848  
C39  24247414.690          37.759  
> 2026 05 10 00 02  0.0000000  0 13
C01  38485581.402          36.508  
C02  39631872.808          32.647  
C03  38554445.589          35.298  
C04  39512367.466          31.196  
C07  37478630.034          35.269  
C08  36157370.867          45.160  
C10  36938431.391          42.475  
C24  23759148.264          37.362  
C26  21786827.520          42.907  
C29  24489609.799          33.296  
C31  22781683.494          37.919  
C35  21660016.138          46.943  
C39  24263507.801          32.525  
> 2026 05 10 00 02 30.0000000  0 13
C01  38483999.944          36.777  
C02  39632180.667          32.892  
C03  38553687.369          35.843  
C04  39510430.426          30.294  
C07  37486759.508          40.894  
C08  36157219.245          44.601  
C10  36944405.942          42.609  
C24  23745079.476          37.191  
C26  21787201.046          44.859  
C29  24505852.891          36.564  
C31  22768959.595          35.364  
C35  21662216.151          46.040  
C39  24279721.393          35.128  
> 2026 05 10 00 03  0.0000000  0 13
C01  38482398.437          35.165  
C02  39632464.738          31.012  
C03  38552910.533          35.138  
C04  39508475.205          30.011  
C07  37494891.214          39.054  
C08  36157054.976          44.489  
C10  36950391.518          43.935  
C24  23731038.869          38.450  
C26  21787643.664          45.640  
C29  24522097.423          33.083  
C31  22756275.770          39.847  
C35  21664475.066          44.431  
C39  24295961.586          34.684  
> 2026 05 10 00 03 30.0000000  0 13
C01  38480837.266          34.528  
C02  39632785.562          32.693  
C03  38552165.944          37.338  
C04  39506557.101          28.443  
C07  37503084.912          36.918  
C08  36156937.097          39.913  
C10  36956439.626          35.013  
C24  23717082.176          33.897  
C26  21788208.255          46.545  
C29  24538402.205          33.639  
C31  22743688.858          38.841  
C35  21666847.446          44.289  
C39  24312286.796          33.234  
> 2026 05 10 00 04  0.0000000  0 13
C01  38479205.944          33.507  
C02  39633037.398          28.608  
C03  38551351.639          35.499  
C04  39504573.142          31.858  
C07  37511236.377          33.308  
C08  36156760.239          44.706  
C10  36962449.877          39.188  
C24  23703105.941          36.735  
C26  21788794.993          43.502  
C29  24554661.429          34.721  
C31  22731095.039          35.267  
C35  21669226.152          42.613  
C39  24328590.785          32.184  
> 2026 05 10 00 04 30.0000000  0 13
C01  38477582.718          34.030  
C02  39633288.099          30.357  
C03  38550540.703          32.466  
C04  39502593.423          30.338  
C07  37519416.067          38.475  
C08  36156598.021          44.610  
C10  36968496.157          43.492  
C24  23689184.725          35.300  
C26  21789474.246          44.010  
C29  24570948.977          31.464  
C31  22718563.845          40.384  
C35  21671687.413          44.415  
C39  24344948.059          35.374  
> 2026 05 10 00 05  0.0000000  0 13
C01  38475995.214          35.177  
C02  39633573.154          32.443  
C03  38549764.287          33.735  
C04  39500650.080          32.212  
C07  37527655.356          40.115  
C08  36156480.407          39.258  
C10  36974604.467          40.910  
C24  23675344.381          36.514  
C26  21790275.654          40.986  
C29  24587288.317          34.056  
C31  22706130.361          36.866  
C35  21674261.377          46.321  
C39  24361385.432          35.271  
> 2026 05 10 00 05 30.0000000  0 13
C01  38474352.718          35.637  
C02  39633801.922          30.818  
C03  38548929.559          32.531  
C04  39498654.655          30.875  
C07  37535862.556          39.246  
C08  36156316.170          44.223  
C10  36980686.245          41.759  
C24  23661499.801          37.213  
C26  21791109.099          45.242  
C29  24603596.699          33.298  
C31  22693700.435          38.905  
C35  21676853.549          42.105  
C39  24377814.687          36.686  
> 2026 05 10 00 06  0.0000000  0 13
C01  38472762.361          33.505  
C02  39634075.642          37.026  
C03  38548142.271          35.929  
C04  39496707.177          33.299  
C07  37544144.273          37.516  
C08  36156209.254          50.018  
C10  36986842.866          40.200  
C24  23647755.612          33.681  
C26  21792080.811          44.801  
C29  24619975.376          31.950  
C31  22681380.370          42.039  
C35  21679571.813          42.457  
C39  24394338.599          35.099  
> 2026 05 10 00 06 30.0000000  0 13
C01  38471111.855          37.343  
C02  39634288.993          35.304  
C03  38547293.884          33.603  
C04  39494703.096          31.913  
C07  37552390.178          39.793  
C08  36156050.506          42.764  
C10  36992970.736          44.694  
C24  23633999.385          37.454  
C26  21793080.382          43.388  
C29  24636314.208          30.214  
C31  22669060.855          37.938  
C35  21682303.978          45.426  
C39  24410849.364          32.446  
> 2026 05 10 00 07  0.0000000  0 13
C01  38469512.854          34.644  
C02  39634551.732          30.023  
C03  38546495.299          36.249  
C04  39492748.270          29.663  
C07  37560708.987          35.751  
C08  36155955.913          46.001  
C10  36999181.329          36.946  
C24  23620345.922          37.809  
C26  21794218.012          46.100  
C29  24652724.800          32.053  
C31  22656854.039          43.034  
C35  21685164.929          43.905  
C39  24427454.730          34.342  
> 2026 05 10 00 07 30.0000000  0 13
C01  38467902.186          36.301  
C02  39634795.419          32.011  
C03  38545681.907          34.901  
C04  39490782.274          31.669  
C07  37569040.737          39.122  
C08  36155851.297          46.944  
C10  37005403.389          42.349  
C24  23606728.118          36.580  
C26  21795434.408          44.267  
C29  24669140.930          34.991  
C31  22644693.701          40.003  
C35  21688083.571          43.875  
C39  24444093.449          35.396  
> 2026 05 10 00 08  0.0000000  0 13
C01  38466293.878          35.835  
C02  39635036.056          28.737  
C03  38544864.725          39.495  
C04  39488816.214          31.786  
C07  37577395.789          38.702  
C08  36155758.618          40.365  
C10  37011656.141          38.255  
C24  23593164.456          36.278  
C26  21796733.718          46.967  
C29  24685578.260          34.423  
C31  22632594.235          39.909  
C35  21691079.808          43.764  
C39  24460775.348          32.933  
> 2026 05 10 00 08 30.0000000  0 13
C01  38464653.961          34.627  
C02  39635244.040          31.494  
C03  38544015.555          34.753  
C04  39486818.446          29.691  
C07  37585743.694          37.040  
C08  36155641.866          44.336  
C10  37017904.463          40.877  
C24  23579616.547          37.853  
C26  21798093.350          45.852  
C29  24702001.741          29.485  
C31  22620525.099          37.204  
C35  21694117.221          44.896  
C39  24477471.613          38.086  
> 2026 05 10 00 09  0.0000000  0 13
C01  38463040.014          33.478  
C02  39635477.258          28.829  
C03  38543189.902          39.136  
C04  39484851.012          32.760  
C07  37594137.986          39.863  
C08  36155559.965          45.783  
C10  37024206.933          40.758  
C24  23566146.294          36.664  
C26  21799566.412          45.716  
C29  24718466.455          30.001  
C31  22608539.860          39.176  
C35  21697255.275          45.994  
C39  24494237.708          31.538  
> 2026 05 10 00 09 30.0000000  0 13
C01  38461408.935          35.798  
C02  39635686.929          31.713  
C03  38542342.310          33.788  
C04  39482861.228          30.666  
C07  37602537.637          36.547  
C08  36155465.656          40.406  
C10  37030518.827          44.167  
C24  23552711.799          37.201  
C26  21801106.752          44.872  
C29  24734936.299          32.913  
C31  22596597.511          43.103  
C35  21700446.004          42.125  
C39  24511027.674          32.012  
> 2026 05 10 00 10  0.0000000  0 13
C01  38459760.920          37.439  
C02  39635878.659          28.327  
C03  38541477.032          36.624  
C04  39480857.872          27.447  
C07  37610944.992          37.661  
C08  36155363.267          45.118  
C10  37036843.139          40.835  
C24  23539310.583          37.784  
C26  21802722.232          42.394  
C29  24751408.597          31.100  
C31  22584703.324          35.567  
C35  21703696.050          43.410  
C39  24527846.972          37.125  
> 2026 05 10 00 10 30.0000000  0 13
C01  38458110.574          35.572  
C02  39636063.088          30.698  
C03  38540606.104          34.884  
C04  39478853.381          31.197  
C07  37619373.017          36.347  
C08  36155267.493          42.369  
C10  37043190.766          38.422  
C24  23525960.569          36.478  
C26  21804422.250          48.483  
C29  24767891.140          36.906  
C31  22572864.288          36.090  
C35  21707015.666          45.865  
C39  24544705.435          37.188  
> 2026 05 10 00 11  0.0000000  0 13
C01  38456478.039          34.083  
C02  39636263.721          28.616  
C03  38539751.379          37.624  
C04  39476865.384          31.712  
C07  37627841.135          37.015  
C08  36155194.721          44.458  
C10  37049585.198          41.299  
C24  23512679.183          36.915  
C26  21806227.241          44.705  
C29  24784408.242          31.792  
C31  22561103.123          38.919  
C35  21710423.918          44.667  
C39  24561625.604          34.350  
> 2026 05 10 00 11 30.0000000  0 13
C01  38454858.641          37.854  
C02  39636472.303          31.187  
C03  38538903.933          33.275  
C04  39474887.524          31.333  
C07  37636340.028          37.746  
C08  36155140.160          45.683  
C10  37056017.464          37.750  
C24  23499461.427          38.173  
C26  21808129.216          45.513  
C29  24800955.934          33.052  
C31  22549415.991          41.057  
C35  21713917.319          43.342  
C39  24578597.732          33.366  
> 2026 05 10 00 12  0.0000000  0 13
C01  38453204.316          34.117  
C02  39636641.325          34.711  
C03  38538018.978          37.056  
C04  39472874.629          31.317  
C07  37644830.492          38.838  
C08  36155059.737          43.638  
C10  37062442.661          41.754  
C24  23486263.585          37.651  
C26  21810088.345          46.041  
C29  24817484.246          35.520  
C31  22537754.876          42.332  
C35  21717449.706          42.642  
C39  24595574.341          35.278  
> 2026 05 10 00 12 30.0000000  0 13
C01  38451542.113          33.277  
C02  39636800.312          30.922  
C03  38537123.600          35.749  
C04  39470855.713          36.030  
C07  37653333.799          36.546  
C08  36154976.502          43.883  
C10  37068887.015          40.000  
C24  23473109.285          37.221  
C26  21812126.868          45.555  
C29  24834020.750          32.062  
C31  22526144.706          41.808  
C35  21721042.647          40.826  
C39  24612588.795          36.522  
> 2026 05 10 00 13  0.0000000  0 13
C01  38449930.808          34.662  
C02  39637004.860          32.465  
C03  38536276.308          35.193  
C04  39468889.980          31.857  
C07  37661911.194          38.088  
C08  36154954.740          42.126  
C10  37075412.157          42.513  
C24  23460063.513          39.689  
C26  21814303.925          41.761  
C29  24850626.034          31.904  
C31  22514647.210          40.324  
C35  21724760.784          44.893  
C39  24629696.691          35.442  
> 2026 05 10 00 13 30.0000000  0 13
C01  38448264.149          36.213  
C02  39637152.927          32.607  
C03  38535371.042          36.323  
C04  39466865.729          30.857  
C07  37670456.425          39.447  
C08  36154882.602          44.648  
C10  37081904.258          40.001  
C24  23447011.589          39.599  
C26  21816512.645          46.317  
C29  24867190.300          30.964  
C31  22503154.143          40.405  
C35  21728489.444          45.146  
C39  24646786.925          36.244  
> 2026 05 10 00 14  0.0000000  0 13
C01  38446605.468          33.924  
C02  39637303.903          35.728  
C03  38534472.018          34.012  
C04  39464849.875          34.968  
C07  37679028.856          36.911  
C08  36154822.972          43.054  
C10  37088436.733          39.362  
C24  23434023.858          40.219  
C26  21818817.449          46.223  
C29  24883773.960          32.975  
C31  22491731.536          40.063  
C35  21732302.289          47.366  
C39  24663928.355          35.163  
> 2026 05 10 00 14 30.0000000  0 13
C01  38444973.693          38.114  
C02  39637476.921          34.771  
C03  38533593.962          33.915  
C04  39462859.890          30.802  
C07  37687649.340          38.998  
C08  36154797.136          41.589  
C10  37095017.183          38.748  
C24  23421114.822          34.651  
C26  21821237.105          43.379  
C29  24900399.438          26.392  
C31  22480394.485          40.232  
C35  21736207.124          43.776  
C39  24681134.652          31.701  
> 2026 05 10 00 15  0.0000000  0 13
C01  38443295.685          35.578  
C02  39637604.287          31.707  
C03  38532672.078          35.724  
C04  39460826.014          30.712  
C07  37696250.480          36.812  
C08  36154733.895          41.945  
C10  37101583.077          39.090  
C24  23408221.013          38.998  
C26  21823701.500          42.525  
C29  24916997.984          29.260  
C31  22469075.234          40.232  
C35  21740142.440          46.712  
C39  24698336.880          35.112  
> 2026 05 10 00 15 30.0000000  0 13
C01  38441652.909          37.723  
C02  39637761.704          34.057  
C03  38531777.467          35.292  
C04  39458826.962          35.276  
C07  37704902.330          38.705  
C08  36154713.612          45.198  
C10  37108210.633          42.137  
C24  23395415.207          31.786  
C26  21826288.685          41.585  
C29  24933644.206          32.216  
C31  22457852.529          41.033  
C35  21744180.821          43.015  
C39  24715614.447          34.534  
> 2026 05 10 00 16  0.0000000  0 13
C01  38439985.389          33.930  
C02  39637889.102          32.500  
C03  38530856.560          33.021  
C04  39456802.726          31.549  
C07  37713555.752          35.148  
C08  36154672.129          46.476  
C10  37114839.798          39.284  
C24  23382637.503          37.164  
C26  21828937.685          44.225  
C29  24950278.669          35.094  
C31  22446665.013          37.348  
C35  21748263.461          46.237  
C39  24732906.786          35.978  
> 2026 05 10 00 16 30.0000000  0 13
C01  38438322.187          40.153  
C02  39638018.211          30.251  
C03  38529938.185          37.342  
C04  39454781.274          32.597  
C07  37722231.863          34.931  
C08  36154641.671          40.670  
C10  37121500.756          40.346  
C24  23369921.991          39.781  
C26  21831678.550          46.893  
C29  24966931.682          31.016  
C31  22435542.040          41.862  
C35  21752420.325          44.463  
C39  24750242.131          35.189  
> 2026 05 10 00 17  0.0000000  0 13
C01  38436667.560          37.375  
C02  39638151.194          32.896  
C03  38529024.362          30.425  
C04  39452768.052          31.762  
C07  37730938.257          39.396  
C08  36154626.882          44.060  
C10  37128196.374          40.436  
C24  23357270.791          39.367  
C26  21834519.149          43.152  
C29  24983604.711          31.903  
C31  22424489.087          41.730  
C35  21756654.039          44.546  
C39  24767624.916          33.619  
> 2026 05 10 00 17 30.0000000  0 13
C01  38435001.444          37.103  
C02  39638270.791          30.624  
C03  38528096.062          36.439  
C04  39450747.251          32.392  
C07  37739656.664          36.227  
C08  36154605.011          43.971  
C10  37134907.150          43.770  
C24  23344666.122          39.736  
C26  21837435.310          41.322  
C29  25000282.348          26.637  
C31  22413487.960          43.516  
C35  21760945.260          41.248  
C39  24785034.022          31.245  
> 2026 05 10 00 18  0.0000000  0 13
C01  38433348.609          37.165  
C02  39638398.301          30.765  
C03  38527179.425          34.679  
C04  39448737.030          30.452  
C07  37748408.628          39.674  
C08  36154602.909          46.996  
C10  37141655.515          40.383  
C24  23332131.172          38.538  
C26  21840450.196          46.548  
C29  25016982.088          30.357  
C31  22402563.313          39.654  
C35  21765320.840          42.805  
C39  24802497.543          34.351  
> 2026 05 10 00 18 30.0000000  0 13
C01  38431673.262          35.852  
C02  39638500.850          29.818  
C03  38526232.979          37.522  
C04  39446702.278          31.356  
C07  37757159.152          40.508  
C08  36154583.471          43.674  
C10  37148410.724          37.742  
C24  23319628.386          38.906  
C26  21843535.132          43.328  
C29  25033673.702          33.096  
C31  22391671.901          45.224  
C35  21769737.895          46.756  
C39  24819974.284          32.470  
> 2026 05 10 00 19  0.0000000  0 13
C01  38429996.661          33.048  
C02  39638597.379          29.617  
C03  38525285.543          33.220  
C04  39444667.129          31.626  
C07  37765929.264          36.961  
C08  36154571.889          45.728  
C10  37155192.344          39.190  
C24  23307185.235          39.119  
C26  21846705.039          41.640  
C29  25050376.061          30.586  
C31  22380845.189          40.427  
C35  21774226.018          43.792  
C39  24837489.334          35.234  
> 2026 05 10 00 19 30.0000000  0 13
C01  38428323.130          38.932  
C02  39638694.800          29.958  
C03  38524341.041          35.064  
C04  39442636.902          30.234  
C07  37774724.487          35.879  
C08  36154565.962          42.489  
C10  37162000.840          40.367  
C24  23294802.172          42.785  
C26  21849966.263          44.573  
C29  25067093.337          34.136  
C31  22370082.759          39.669  
C35  21778783.175          43.301  
C39  24855044.016          36.048  
> 2026 05 10 00 20  0.0000000  0 13
C01  38426647.869          34.845  
C02  39638785.098          32.334  
C03  38523387.270          36.867  
C04  39440602.725          31.188  
C07  37783538.218          37.646  
C08  36154563.360          43.251  
C10  37168835.164          42.149  
C24  23282476.766          35.203  
C26  21853314.844          41.872  
C29  25083819.742          32.696  
C31  22359378.933          40.306  
C35  21783407.304          45.350  
C39  24872635.485          33.103  
> 2026 05 10 00 20 30.0000000  0 13
C01  38424965.937          36.631  
C02  39638868.252          33.284  
C03  38522428.990          36.364  
C04  39438566.782          30.357  
C07  37792370.357          40.792  
C08  36154563.908          42.652  
C10  37175692.714          38.477  
C24  23270206.821          34.923  
C26  21856747.630          43.491  
C29  25100555.298          31.718  
C31  22348732.619          36.885  
C35  21788095.606          42.018  
C39  24890259.775          35.952  
> 2026 05 10 00 21  0.0000000  0 13
C01  38423289.570          34.511  
C02  39638949.763          31.032  
C03  38521465.729          38.246  
C04  39436529.758          32.908  
C07  37801222.120          32.891  
C08  36154572.222          41.721  
C10  37182574.542          38.990  
C24  23257994.147          42.691  
C26  21860267.957          47.486  
C29  25117301.105          30.151  
C31  22338150.183          42.151  
C35  21792851.350          44.116  
C39  24907922.163          35.152  
> 2026 05 10 00 21 30.0000000  0 13
C01  38421611.004          36.232  
C02  39639025.684          32.481  
C03  38520504.791          33.570  
C04  39434495.644          30.145  
C07  37810096.761          35.201  
C08  36154585.039          43.493  
C10  37189489.106          37.138  
C24  23245845.161          36.037  
C26  21863880.206          42.934  
C29  25134059.157          31.510  
C31  22327631.836          37.286  
C35  21797674.937          44.569  
C39  24925618.381          34.984  
> 2026 05 10 00 22  0.0000000  0 13
C01  38419938.753          35.320  
C02  39639106.022          32.522  
C03  38519542.661          33.016  
C04  39432462.677          30.507  
C07  37818997.020          39.755  
C08  36154608.880          44.142  
C10  37196429.706          41.379  
C24  23233757.570          35.945  
C26  21867586.005          44.679  
C29  25150832.670          30.334  
C31  22317177.615          43.710  
C35  21802570.720          45.879  
C39  24943359.096          31.574  
> 2026 05 10 00 22 30.0000000  0 13
C01  38418238.197          37.812  
C02  39639153.327          30.953  
C03  38518550.122          35.118  
C04  39430404.091          27.984  
C07  37827888.230          34.607  
C08  36154608.930          41.468  
C10  37203372.234          41.180  
C24  23221704.193          38.838  
C26  21871350.330          41.283  
C29  25167587.425          32.790  
C31  22306759.715          41.399  
C35  21807506.001          40.735  
C39  24961108.630          33.525  
> 2026 05 10 00 23  0.0000000  0 13
C01  38416559.095          35.138  
C02  39639217.225          34.302  
C03  38517575.262          34.176  
C04  39428368.111          33.333  
C07  37836821.912          38.667  
C08  36154636.766          45.868  
C10  37210359.492          38.762  
C24  23209731.284          37.223  
C26  21875224.570          43.279  
C29  25184373.995          34.355  
C31  22296426.256          41.166  
C35  21812527.328          46.366  
C39  24978914.633          30.601  
> 2026 05 10 00 23 30.0000000  0 13
C01  38414885.706          36.709  
C02  39639287.556          30.540  
C03  38516605.617          30.822  
C04  39426336.511          34.101  
C07  37845784.592          38.226  
C08  36154677.862          46.030  
C10  37217383.848          41.921  
C24  23197829.610          41.492  
C26  21879195.317          44.983  
C29  25201179.087          30.970  
C31  22286158.753          41.240  
C35  21817621.533          45.677  
C39  24996763.350          33.206  
> 2026 05 10 00 24  0.0000000  0 13
C01  38413181.296          33.153  
C02  39639319.290          32.606  
C03  38515600.787          35.716  
C04  39424274.037          33.847  
C07  37854736.855          36.668  
C08  36154693.233          44.288  
C10  37224397.712          42.166  
C24  23185954.735          40.233  
C26  21883224.098          44.743  
C29  25217959.801          31.884  
C31  22275924.017          38.780  
C35  21822752.250          45.284  
C39  25014614.798          32.522  
> 2026 05 10 00 24 30.0000000  0 13
C01  38411480.389          33.666  
C02  39639350.128          32.712  
C03  38514595.661          35.111  
C04  39422215.285          31.854  
C07  37863709.156          33.024  
C08  36154711.805          42.495  
C10  37231443.279          41.753  
C24  23174145.668          39.276  
C26  21887339.878          44.607  
C29  25234753.200          30.132  
C31  22265751.571          40.202  
C35  21827946.263          42.771  
C39  25032502.864          30.243  
> 2026 05 10 00 25  0.0000000  0 13
C01  38409778.442          34.136  
C02  39639376.823          35.710  
C03  38513590.420          35.032  
C04  39420156.495          34.798  
C07  37872702.999          34.134  
C08  36154738.768          45.488  
C10  37238514.115          42.407  
C24  23162395.636          39.423  
C26  21891546.470          46.774  
C29  25251554.036          30.011  
C31  22255642.670          41.132  
C35  21833207.907          44.492  
C39  25050424.701          31.710  
> 2026 05 10 00 25 30.0000000  0 13
C01  38408085.859          36.301  
C02  39639408.588          27.100  
C03  38512585.062          32.969  
C04  39418104.581          31.432  
C07  37881726.067          35.694  
C08  36154777.832          44.693  
C10  37245619.866          39.227  
C24  23150716.376          37.477  
C26  21895848.750          44.870  
C29  25268372.599          30.645  
C31  22245604.682          37.768  
C35  21838542.605          42.722  
C39  25068391.030          33.867  
> 2026 05 10 00 26  0.0000000  0 13
C01  38406381.339          34.569  
C02  39639430.247          33.602  
C03  38511569.676          35.729  
C04  39416045.026          33.797  
C07  37890757.341          38.687  
C08  36154813.503          40.951  
C10  37252741.216          39.009  
C24  23139096.452          40.077  
C26  21900233.095          44.242  
C29  25285191.874          33.429  
C31  22235621.377          43.065  
C35  21843934.450          43.696  
C39  25086381.086          32.251  
> 2026 05 10 00 26 30.0000000  0 13
C01  38404679.924          35.106  
C02  39639443.713          30.879  
C03  38510554.606          34.225  
C04  39413982.524          30.894  
C07  37899810.418          36.367  
C08  36154853.830          47.380  
C10  37259889.786          38.230  
C24  23127535.277          41.120  
C26  21904703.446          44.591  
C29  25302017.035          31.719  
C31  22225698.892          41.856  
C35  21849388.561          44.398  
C39  25104404.364          33.697  
> 2026 05 10 00 27  0.0000000  0 13
C01  38402958.599          38.094  
C02  39639439.000          31.475  
C03  38509515.088          40.885  
C04  39411905.531          33.218  
C07  37908866.961          35.898  
C08  36154879.303          42.049  
C10  37267044.581          39.448  
C24  23116020.076          40.582  
C26  21909246.418          45.873  
C29  25318835.235          32.227  
C31  22215821.175          41.800  
C35  21854891.181          43.902  
C39  25122447.426          34.365  
> 2026 05 10 00 27 30.0000000  0 13
C01  38401258.112          35.438  
C02  39639447.398          30.933  
C03  38508491.412          33.074  
C04  39409846.334          31.597  
C07  37917962.687          38.755  
C08  36154930.359          44.174  
C10  37274248.021          39.693  
C24  23104588.579          38.222  
C26  21913894.047          39.870  
C29  25335680.054          30.910  
C31  22206027.570          40.783  
C35  21860475.897          44.318  
C39  25140540.509          33.447  
> 2026 05 10 00 28  0.0000000  0 13
C01  38399576.437          34.185  
C02  39639474.038          32.615  
C03  38507484.339          35.895  
C04  39407805.467          32.046  
C07  37927094.100          38.700  
C08  36155003.325          45.065  
C10  37281494.276          38.752  
C24  23093238.127          40.998  
C26  21918650.111          43.346  
C29  25352547.747          31.397  
C31  22196312.961          41.043  
C35  21866141.499          43.218  
C39  25158682.645          30.165  
> 2026 05 10 00 28 30.0000000  0 13
C01  38397830.086          35.526  
C02  39639428.553          30.795  
C03  38506411.514          36.127  
C04  39405701.680          33.700  
C07  37936183.400          40.079  
C08  36155019.014          43.331  
C10  37288701.053          36.771  
C24  23081890.187          39.790  
C26  21923431.622          43.331  
C29  25369360.469          30.442  
C31  22186595.934          41.447  
C35  21871807.910          44.722  
C39  25176795.085          32.499  
> 2026 05 10 00 29  0.0000000  0 13
C01  38396185.439          32.972  
C02  39639482.265          28.062  
C03  38505434.575          33.354  
C04  39403699.495          32.250  
C07  37945394.357          37.725  
C08  36155137.887          47.281  
C10  37296034.208          40.540  
C24  23070707.624          35.283  
C26  21928400.008          46.566  
C29  25386278.765          34.697  
C31  22177043.802          41.690  
C35  21877638.903          43.249  
C39  25195038.717          28.371  
> 2026 05 10 00 29 30.0000000  0 13
C01  38394423.123          35.188  
C02  39639416.960          31.028  
C03  38504339.712          34.334  
C04  39401578.306          30.582  
C07  37954505.288          39.888  
C08  36155147.263          42.196  
C10  37303276.551          40.250  
C24  23059471.625          37.178  
C26  21933341.427          43.161  
C29  25403089.023          33.402  
C31  22167437.302          41.283  
C35  21883416.303          44.021  
C39  25213201.237          31.788  
> 2026 05 10 00 30  0.0000000  0 13
C01  38392724.837          38.065  
C02  39639409.421          30.788  
C03  38503308.197          35.950  
C04  39399523.282          31.214  
C07  37963702.056          38.261  
C08  36155222.000          42.194  
C10  37310610.987          38.206  
C24  23048368.839          39.211  
C26  21938435.797          43.673  
C29  25419972.024          34.532  
C31  22157958.636          41.412  
C35  21889320.516          47.669  
C39  25231457.947          28.342  
> 2026 05 10 00 30 30.0000000  0 13
C01  38567192.280          37.234  
C02  39616285.834          30.841  
C03  38593364.706          35.575  
C04  39609113.042          31.041  
C07  37972877.599          33.049  
C08  36155264.452          44.145  
C10  37317930.428          38.193  
C24  23037291.498          40.453  
C26  21943580.968          42.398  
C29  25436821.954          33.644  
C31  22148504.739          40.435  
C35  21895249.480          42.893  
C39  25249707.953          31.586  
> 2026 05 10 00 31  0.0000000  0 13
C01  38565775.269          33.777  
C02  39616780.086          32.217  
C03  38592798.432          32.219  
C04  39607197.031          29.138  
C07  37982087.246          34.595  
C08  36155322.056          43.757  
C10  37325288.022          39.363  
C24  23026290.376          41.030  
C26  21948823.253          47.929  
C29  25453689.228          28.310  
C31  22139124.752          43.943  
C35  21901252.535          46.831  
C39  25268000.109          35.579  
> 2026 05 10 00 31 30.0000000  0 13
C01  38564381.229          33.860  
C02  39617295.014          30.943  
C03  38592248.847          32.412  
C04  39605303.246          34.303  
C07  37991336.237          36.906  
C08  36155406.244          42.242  
C10  37332691.592          39.664  
C24  23015380.323          39.352  
C26  21954177.223          43.816  
C29  25470581.694          28.140  
C31  22129829.638          36.916  
C35  21907335.274          44.311  
C39  25286346.505          36.272  
> 2026 05 10 00 32  0.0000000  0 13
C01  38562965.858          37.475  
C02  39617783.387          31.874  
C03  38591678.056          37.544  
C04  39603388.714          31.751  
C07  38000584.363          34.849  
C08  36155475.946          44.576  
C10  37340101.986          40.763  
C24  23004517.901          40.114  
C26  21959597.489          45.729  
C29  25487462.006          28.784  
C31  22120576.097          41.111  
C35  21913463.306          43.042  
C39  25304701.517          34.896  
> 2026 05 10 00 32 30.0000000  0 13
C01  38561551.229          36.998  
C02  39618272.933          32.445  
C03  38591105.714          34.210  
C04  39601473.276          30.704  
C07  38009852.196          35.502  
C08  36155550.838          44.997  
C10  37347539.698          41.685  
C24  22993722.329          40.755  
C26  21965111.912          43.032  
C29  25504351.031          26.715  
C31  22111390.932          41.406  
C35  21919653.721          44.428  
C39  25323092.392          33.364  
> 2026 05 10 00 33  0.0000000  0 13
C01  38560129.068          34.792  
C02  39618750.932          31.207  
C03  38590521.062          35.846  
C04  39599551.067          35.606  
C07  38019135.104          36.039  
C08  36155621.061          43.098  
C10  37354995.299          41.073  
C24  22982988.536          41.693  
C26  21970702.863          41.720  
C29  25521235.906          25.501  
C31  22102260.154          39.370  
C35  21925898.570          42.051  
C39  25341500.009          36.531  
> 2026 05 10 00 33 30.0000000  0 13
C01  38558703.129          36.793  
C02  39619219.926          33.594  
C03  38589933.442          34.619  
C04  39597624.431          30.454  
C07  38028433.074          36.902  
C08  36155694.436          43.295  
C10  37362475.018          40.941  
C24  22972321.303          36.865  
C26  21976380.248          45.082  
C29  25538125.195          29.431  
C31  22093187.495          39.569  
C35  21932200.968          42.973  
C39  25359938.772          32.339  
> 2026 05 10 00 34  0.0000000  0 13
C01  38557273.723          35.749  
C02  39619685.916          32.457  
C03  38589335.919          36.713  
C04  39595693.562          32.684  
C07  38037747.369          37.616  
C08  36155766.806          46.370  
C10  37369974.657          42.701  
C24  22961716.097          43.438  
C26  21982142.941          44.037  
C29  25555010.884          31.317  
C31  22084175.843          39.502  
C35  21938560.102          45.009  
C39  25378403.482          28.611  
> 2026 05 10 00 34 30.0000000  0 13
C01  38555845.630          37.353  
C02  39620150.928          29.849  
C03  38588740.411          29.248  
C04  39593766.442          34.300  
C07  38047083.134          37.561  
C08  36155848.256          41.830  
C10  37377505.098          37.145  
C24  22951187.211          38.295  
C26  21987999.451          45.047  
C29  25571909.622          28.426  
C31  22075233.820          44.241  
C35  21944986.265          42.770  
C39  25396901.016          31.412  
> 2026 05 10 00 35  0.0000000  0 13
C01  38554414.492          33.350  
C02  39620608.168          31.592  
C03  38588134.594          38.440  
C04  39591832.304          30.660  
C07  38056436.259          35.250  
C08  36155930.135          47.157  
C10  37385054.816          38.758  
C24  22940723.498          37.389  
C26  21993936.594          42.416  
C29  25588807.283          28.577  
C31  22066346.711          40.119  
C35  21951466.595          43.296  
C39  25415424.475          29.473  
> 2026 05 10 00 35 30.0000000  0 13
C01  38552976.533          31.924  
C02  39621055.872          31.481  
C03  38587522.206          32.878  
C04  39589894.850          31.766  
C07  38065799.654          36.205  
C08  36156009.625          48.056  
C10  37392624.985          39.970  
C24  22930322.469          37.576  
C26  21999957.612          43.161  
C29  25605703.361          28.403  
C31  22057521.042          42.430  
C35  21958001.116          44.626  
C39  25433969.225          29.697  
> 2026 05 10 00 36  0.0000000  0 13
C01  38551534.361          35.382  
C02  39621496.923          34.580  
C03  38586903.412          34.010  
C04  39587949.755          30.952  
C07  38075179.342          35.692  
C08  36156088.957          41.626  
C10  37400217.844          37.734  
C24  22919985.870          40.828  
C26  22006064.201          44.706  
C29  25622599.091          29.754  
C31  22048753.179          44.976  
C35  21964592.393          41.999  
C39  25452537.960          34.264  
> 2026 05 10 00 36 30.0000000  0 13
C01  38550107.440          35.890  
C02  39621950.203          31.582  
C03  38586297.570          34.566  
C04  39586020.087          30.508  
C07  38084595.218          35.380  
C08  36156186.979          41.034  
C10  37407849.637          42.740  
C24  22909735.331          37.091  
C26  22012269.901          43.557  
C29  25639516.107          31.085  
C31  22040065.597          43.424  
C35  21971259.229          41.283  
C39  25471151.996          32.706  
> 2026 05 10 00 37  0.0000000  0 13
C01  38548637.891          35.074  
C02  39622357.117          29.352  
C03  38585648.746          36.111  
C04  39584049.474          30.318  
C07  38093987.580          38.245  
C08  36156250.917          45.042  
C10  37415467.160          40.855  
C24  22899517.024          40.748  
C26  22018525.535          41.787  
C29  25656393.931          29.346  
C31  22031397.536          43.936  
C35  21977942.885          46.148  
C39  25489752.917          29.899  
> 2026 05 10 00 37 30.0000000  0 13
C01  38547214.872          35.968  
C02  39622808.342          30.034  
C03  38585037.105          32.193  
C04  39582123.455          31.096  
C07  38103441.707          38.483  
C08  36156359.813          45.678  
C10  37423155.220          41.636  
C24  22889413.184          38.491  
C26  22024912.750          43.001  
C29  25673321.342          31.369  
C31  22022841.181          42.882  
C35  21984731.079          44.606  
C39  25508424.914          29.701  
> 2026 05 10 00 38  0.0000000  0 13
C01  38545731.605          38.549  
C02  39623195.655          31.282  
C03  38584368.433          34.422  
C04  39580137.231          30.673  
C07  38112857.937          37.271  
C08  36156419.131          46.014  
C10  37430810.768          40.255  
C24  22879322.841          39.770  
C26  22031331.554          42.050  
C29  25690194.283          31.533  
C31  22014289.825          44.015  
C35  21991522.342          45.594  
C39  25527068.180          28.254  
> 2026 05 10 00 38 30.0000000  0 13
C01  38544300.467          36.253  
C02  39623634.516          34.240  
C03  38583746.073          33.712  
C04  39578205.277          30.687  
C07  38122345.547          37.428  
C08  36156529.914          44.131  
C10  37438541.165          41.776  
C24  22869358.957          41.781  
C26  22037888.996          46.139  
C29  25707121.008          26.746  
C31  22005852.371          40.843  
C35  21998422.080          43.715  
C39  25545789.089          28.886  
> 2026 05 10 00 39  0.0000000  0 13
C01  38542854.175          36.393  
C02  39624053.765          32.348  
C03  38583107.994          35.419  
C04  39576257.073          30.464  
C07  38131835.709          39.478  
C08  36156632.718          45.512  
C10  37446286.149          40.576  
C24  22859449.814          38.957  
C26  22044519.234          43.891  
C29  25724037.370          29.654  
C31  21997465.748          39.226  
C35  22005366.275          44.148  
C39  25564526.095          25.875  
> 2026 05 10 00 39 30.0000000  0 13
C01  38541387.740          38.514  
C02  39624448.662          33.412  
C03  38582445.301          31.449  
C04  39574286.333          29.308  
C07  38141325.183          38.482  
C08  36156717.542          42.279  
C10  37454033.040          38.908  
C24  22849592.163          41.136  
C26  22051216.021          42.734  
C29  25740935.177          30.894  
C31  21989123.486          43.350  
C35  22012347.953          45.834  
C39  25583264.601          25.928  
> 2026 05 10 00 40  0.0000000  0 13
C01  38539922.896          32.850  
C02  39624844.109          34.392  
C03  38581783.509          38.422  
C04  39572318.942          32.597  
C07  38150837.689          34.574  
C08  36156808.868          45.612  
C10  37461808.366          37.909  
C24  22839812.613          39.723  
C26  22058004.204          44.031  
C29  25757838.286          33.030  
C31  21980845.022          41.562  
C35  22019392.117          43.876  
C39  25602034.035          32.599  
> 2026 05 10 00 40 30.0000000  0 13
C01  38538459.819          35.397  
C02  39625236.831          31.444  
C03  38581119.368          35.422  
C04  39570352.832          29.577  
C07  38160367.928          35.308  
C08  36156904.432          45.928  
C10  37469609.028          39.493  
C24  22830110.455          41.726  
C26  22064881.320          43.802  
C29  25774744.204          28.727  
C31  21972633.058          42.441  
C35  22026490.921          41.238  
C39  25620830.811          30.616  
> 2026 05 10 00 41  0.0000000  0 13
C01  38537007.984          34.713  
C02  39625640.458          31.569  
C03  38580465.245          33.894  
C04  39568400.146          33.755  
C07  38169928.859          37.786  
C08  36157019.137          45.288  
C10  37477449.501          41.334  
C24  22820488.847          42.339  
C26  22071858.263          44.745  
C29  25791666.181          27.757  
C31  21964497.451          40.321  
C35  22033664.549          42.622  
C39  25639665.941          31.535  
> 2026 05 10 00 41 30.0000000  0 13
C01  38535528.829          37.797  
C02  39626010.962          27.692  
C03  38579779.185          35.497  
C04  39566414.968          33.536  
C07  38179478.103          34.268  
C08  36157104.203          43.485  
C10  37485281.365          37.788  
C24  22810913.758          42.657  
C26  22078891.165          43.149  
C29  25808558.493          27.097  
C31  21956394.359          40.520  
C35  22040861.632          44.416  
C39  25658494.870          30.870  
> 2026 05 10 00 42  0.0000000  0 13
C01  38534057.309          34.912  
C02  39626386.075          32.938  
C03  38579099.182          33.406  
C04  39564439.815          30.631  
C07  38189056.678          32.258  
C08  36157204.317          45.437  
C10  37493153.431          41.017  
C24  22801422.813          39.216  
C26  22086022.281          42.238  
C29  25825464.420          29.532  
C31  21948367.008          44.578  
C35  22048127.537          45.716  
C39  25677359.535          30.347  
> 2026 05 10 00 42 30.0000000  0 13
C01  38532580.655          35.907  
C02  39626755.673          30.192  
C03  38578412.243          35.728  
C04  39562461.793          31.441  
C07  38198648.245          34.184  
C08  36157304.069          46.737  
C10  37501040.835          39.447  
C24  22792001.051          39.796  
C26  22093236.742          43.790  
C29  25842366.792          28.857  
C31  21940398.693          40.800  
C35  22055446.481          42.281  
C39  25696246.290          31.316  
> 2026 05 10 00 43  0.0000000  0 13
C01  38531083.609          31.526  
C02  39627100.290          30.569  
C03  38577701.004          33.684  
C04  39560460.659          32.352  
C07  38208238.342          39.638  
C08  36157385.640          46.865  
C10  37508935.004          39.338  
C24  22782633.258          40.103  
C26  22100517.077          43.287  
C29  25859251.752          29.405  
C31  21932472.702          44.917  
C35  22062800.061          43.623  
C39  25715135.540          28.445  
> 2026 05 10 00 43 30.0000000  0 13
C01  38529639.651          33.514  
C02  39627494.285          31.865  
C03  38577040.580          36.342  
C04  39558511.047          29.925  
C07  38217896.277          35.979  
C08  36157523.611          43.509  
C10  37516906.584          37.735  
C24  22773395.250          39.561  
C26  22107935.738          42.251  
C29  25876186.316          27.857  
C31  21924663.578          44.616  
C35  22070260.269          42.669  
C39  25734101.199          25.922  
> 2026 05 10 00 44  0.0000000  0 13
C01  38528133.682          35.728  
C02  39627826.148          29.926  
C03  38576315.140          33.035  
C04  39556501.129          35.042  
C07  38227513.396          32.885  
C08  36157601.991          46.512  
C10  37524840.084          42.694  
C24  22764168.850          40.280  
C26  22115381.155          44.231  
C29  25893062.235          29.018  
C31  21916857.260          43.439  
C35  22077717.453          46.449  
C39  25753030.705          28.742  
> 2026 05 10 00 44 30.0000000  0 13
C01  38526655.100          36.008  
C02  39628177.113          30.838  
C03  38575612.419          34.555  
C04  39554518.659          28.995  
C07  38237171.920          34.374  
C08  36157713.720          42.625  
C10  37532827.857          38.201  
C24  22755046.831          40.601  
C26  22122940.909          46.597  
C29  25909966.655          31.743  
C31  21909141.335          41.968  
C35  22085256.484          45.957  
C39  25772009.096          33.702  
> 2026 05 10 00 45  0.0000000  0 12
C01  38525147.165          34.839  
C02  39628500.185          30.490  
C03  38574881.303          33.024  
C04  39552507.475          32.956  
C07  38246821.579          36.367  
C08  36157796.300          46.600  
C10  37540810.153          40.246  
C24  22745972.611          46.281  
C26  22130555.179          39.380  
C31  21901458.977          39.114  
C35  22092820.702          45.570  
C39  25790982.137          30.937  
> 2026 05 10 00 45 30.0000000  0 12
C01  38523653.699          30.389  
C02  39628834.335          31.867  
C03  38574161.798          35.390  
C04  39550510.915          31.141  
C07  38256505.792          33.223  
C08  36157900.441          44.447  
C10  37548834.141          39.445  
C24  22736992.097          36.552  
C26  22138275.452          43.087  
C31  21893860.408          43.585  
C35  22100457.846          43.289  
C39  25809996.505          30.238  
> 2026 05 10 00 46  0.0000000  0 12
C01  38522171.221          35.539  
C02  39629175.276          31.167  
C03  38573448.794          38.240  
C04  39548521.767          33.043  
C07  38266213.891          36.316  
C08  36158017.310          46.147  
C10  37556888.771          41.057  
C24  22728096.368          36.338  
C26  22146087.368          44.110  
C31  21886330.352          42.183  
C35  22108157.903          40.760  
C39  25829040.826          32.918  
> 2026 05 10 00 46 30.0000000  0 12
C01  38520688.577          35.353  
C02  39629513.484          29.896  
C03  38572731.993          35.347  
C04  39546533.888          31.654  
C07  38275944.200          33.830  
C08  36158134.846          40.336  
C10  37564969.662          40.807  
C24  22719276.171          42.601  
C26  22153987.694          44.906  
C31  21878865.207          44.137  
C35  22115913.712          40.683  
C39  25848105.568          27.733  
> 2026 05 10 00 47  0.0000000  0 12
C01  38519179.207          34.619  
C02  39629822.578          29.151  
C03  38571987.790          34.214  
C04  39544521.512          33.765  
C07  38285661.716          38.325  
C08  36158232.071          44.567  
C10  37573051.970          37.303  
C24  22710510.512          38.350  
C26  22161952.098          42.035  
C31  21871441.654          44.113  
C35  22123698.963          48.352  
C39  25867169.163          27.801  
> 2026 05 10 00 47 30.0000000  0 12
C01  38517676.808          33.707  
C02  39630132.873          28.567  
C03  38571247.083          34.978  
C04  39542513.557          33.231  
C07  38295403.435          34.234  
C08  36158336.033          45.358  
C10  37581158.524          41.008  
C24  22701830.557          40.967  
C26  22170001.941          41.515  
C31  21864082.571          39.820  
C35  22131541.394          44.209  
C39  25886260.974          28.367  
> 2026 05 10 00 48  0.0000000  0 12
C01  38516198.354          33.166  
C02  39630467.137          31.080  
C03  38570529.530          33.042  
C04  39540528.604          31.471  
C07  38305190.738          36.758  
C08  36158469.958          43.253  
C10  37589321.288          38.251  
C24  22693247.970          38.469  
C26  22178168.299          43.700  
C31  21856817.977          46.998  
C35  22139463.411          43.918  
C39  25905400.157          27.935  
> 2026 05 10 00 48 30.0000000  0 13
C01  38514678.176          34.520  
C02  39630754.648          31.024  
C03  38569764.519          36.324  
C04  39538504.620          33.220  
C07  38314947.974          33.558  
C08  36158562.326          41.273  
C10  37597460.810          37.185  
C24  22684705.591          39.529  
C26  22186373.670          42.519  
C31  21849568.961          43.652  
C34  25778344.576          29.606  
C35  22147397.004          45.590  
C39  25924514.400          29.216  
> 2026 05 10 00 49  0.0000000  0 13
C01  38513147.612          33.764  
C02  39631028.150          32.295  
C03  38568989.261          35.719  
C04  39536468.330          30.071  
C07  38324715.696          29.865  
C08  36158650.278          46.773  
C10  37605615.530          41.712  
C24  22676230.458          41.205  
C26  22194655.110          43.236  
C31  21842377.758          43.238  
C34  25761889.463          29.724  
C35  22155373.454          42.131  
C39  25943642.120          28.755  
> 2026 05 10 00 49 30.0000000  0 13
C01  38511644.830          35.055  
C02  39631329.173          30.712  
C03  38568237.060          34.362  
C04  39534462.230          32.620  
C07  38334526.897          35.614  
C08  36158768.344          46.499  
C10  37613825.257          38.079  
C24  22667864.830          41.013  
C26  22203052.156          41.140  
C31  21835277.429          42.784  
C34  25745487.320          28.541  
C35  22163431.911          41.150  
C39  25962817.807          29.819  
> 2026 05 10 00 50  0.0000000  0 13
C01  38510156.578          35.244  
C02  39631637.298          33.412  
C03  38567497.887          36.175  
C04  39532468.543          33.181  
C07  38344370.130          36.854  
C08  36158900.119          44.392  
C10  37622069.201          38.226  
C24  22659589.987          38.879  
C26  22211547.536          44.563  
C31  21828253.232          40.780  
C34  25729122.166          27.087  
C35  22171555.780          39.706  
C39  25982025.699          28.097  
> 2026 05 10 00 50 30.0000000  0 13
C01  38508638.244          35.011  
C02  39631915.786          33.439  
C03  38566724.366          34.042  
C04  39530443.446          33.279  
C07  38354197.072          38.904  
C08  36159008.006          43.167  
C10  37630308.690          38.287  
C24  22651367.015          40.796  
C26  22220096.387          41.042  
C31  21821265.268          45.319  
C34  25712753.849          27.551  
C35  22179701.540          39.853  
C39  26001226.446          28.168  
> 2026 05 10 00 51  0.0000000  0 13
C01  38507074.243          35.723  
C02  39632144.955          27.484  
C03  38565903.703          29.874  
C04  39528373.754          32.042  
C07  38363998.387          34.568  
C08  36159070.718          41.852  
C10  37638525.129          38.061  
C24  22643173.930          42.071  
C26  22228685.679          42.214  
C31  21814293.208          41.737  
C34  25696364.604          29.416  
C35  22187852.699          44.016  
C39  26020397.495          27.602  
> 2026 05 10 00 51 30.0000000  0 13
C01  38505619.671          35.038  
C02  39632478.532          31.647  
C03  38565187.774          32.487  
C04  39526413.057          33.656  
C07  38373924.908          37.428  
C08  36159243.733          43.534  
C10  37646876.757          38.614  
C24  22635175.272          45.403  
C26  22237468.971          43.590  
C31  21807492.655          42.361  
C34  25680110.345          27.908  
C35  22196169.278          44.433  
C39  26039700.933          32.485  
> 2026 05 10 00 52  0.0000000  0 13
C01  38504067.855          34.096  
C02  39632710.018          29.361  
C03  38564373.869          36.698  
C04  39524355.411          28.083  
C07  38383769.025          36.100  
C08  36159325.503          39.994  
C10  37655152.599          37.302  
C24  22627156.025          41.497  
C26  22246237.981          42.022  
C31  21800658.733          40.496  
C34  25663784.293          29.415  
C35  22204434.148          41.954  
C39  26058922.844          30.755  
> 2026 05 10 00 52 30.0000000  0 13
C01  38502531.923          31.654  
C02  39632959.925          31.045  
C03  38563572.960          37.143  
C04  39522315.372          29.365  
C07  38393647.885          34.803  
C08  36159425.697          46.101  
C10  37663471.502          36.479  
C24  22619236.445          44.524  
C26  22255111.829          45.566  
C31  21793909.297          39.906  
C34  25647502.629          27.185  
C35  22212772.408          42.366  
C39  26078183.320          28.099  
> 2026 05 10 00 53  0.0000000  0 13
C01  38501015.040          35.054  
C02  39633222.657          29.147  
C03  38562786.654          35.082  
C04  39520292.180          34.773  
C07  38403559.474          34.319  
C08  36159544.004          42.689  
C10  37671830.768          39.158  
C24  22611417.470          40.430  
C26  22264085.457          44.251  
C31  21787236.068          44.408  
C34  25631262.282          27.277  
C35  22221176.304          43.990  
C39  26097477.597          28.391  
> 2026 05 10 00 53 30.0000000  0 13
C01  38499471.068          36.474  
C02  39633455.518          31.183  
C03  38561974.588          35.055  
C04  39518241.982          33.117  
C07  38413464.957          32.067  
C08  36159642.041          42.153  
C10  37680189.120          36.212  
C24  22603653.158          38.889  
C26  22273117.483          40.561  
C31  21780604.272          44.232  
C34  25615022.490          31.113  
C35  22229606.519          41.252  
C39  26116765.476          29.219  
> 2026 05 10 00 54  0.0000000  0 13
C01  38497915.465          33.062  
C02  39633673.112          29.265  
C03  38561145.174          32.245  
C04  39516181.447          25.109  
C07  38423372.255          35.916  
C08  36159729.556          41.557  
C10  37688556.389          38.040  
C24  22595957.368          40.364  
C26  22282221.940          40.207  
C31  21774023.311          38.842  
C34  25598796.721          27.123  
C35  22238075.658          40.295  
C39  26136057.723          30.312  
> 2026 05 10 00 54 30.0000000  0 13
C01  38496405.489          33.778  
C02  39633932.589          36.790  
C03  38560357.896          32.232  
C04  39514164.476          28.617  
C07  38433338.751          38.065  
C08  36159859.975          45.490  
C10  37696992.564          34.548  
C24  22588387.304          43.194  
C26  22291452.320          43.360  
C31  21767549.154          42.398  
C34  25582640.874          29.455  
C35  22246636.301          41.674  
C39  26155411.559          27.029  
> 2026 05 10 00 55  0.0000000  0 13
C01  38494857.743          31.452  
C02  39634152.234          30.672  
C03  38559531.484          31.995  
C04  39512111.204          28.539  
C07  38443284.227          34.036  
C08  36159959.334          47.255  
C10  37705415.827          37.847  
C24  22580866.403          46.978  
C26  22300733.150          42.652  
C31  21761101.092          38.516  
C34  25566477.777          27.014  
C35  22255215.360          42.078  
C39  26174747.012          30.038  
> 2026 05 10 00 55 30.0000000  0 13
C01  38493326.942          32.092  
C02  39634384.624          34.028  
C03  38558720.117          33.793  
C04  39510074.318          31.035  
C07  38453267.400          33.644  
C08  36160076.210          49.304  
C10  37713878.336          41.240  
C24  22573441.285          40.856  
C26  22310112.976          44.187  
C31  21754733.169          44.061  
C34  25550356.053          26.530  
C35  22263854.767          42.478  
C39  26194114.150          31.075  
> 2026 05 10 00 56  0.0000000  0 13
C01  38491764.751          33.119  
C02  39634579.462          30.994  
C03  38557869.474          33.484  
C04  39508003.226          32.304  
C07  38463227.548          37.241  
C08  36160162.366          42.633  
C10  37722331.081          40.949  
C24  22566067.638          42.392  
C26  22319541.970          42.938  
C31  21748396.254          36.250  
C34  25534227.478          27.809  
C35  22272512.666          40.951  
C39  26213465.307          32.532  
> 2026 05 10 00 56 30.0000000  0 13
C01  38490216.249          36.190  
C02  39634791.328          31.564  
C03  38557036.774          32.466  
C04  39505952.306          32.910  
C07  38473221.761          37.225  
C08  36160267.118          44.340  
C10  37730823.792          40.210  
C24  22558794.114          45.611  
C26  22329070.577          43.556  
C31  21742138.624          44.061  
C34  25518142.571          26.193  
C35  22281239.038          44.622  
C39  26232849.263          30.606  
> 2026 05 10 00 57  0.0000000  0 13
C01  38488665.987          35.659  
C02  39634994.549          30.911  
C03  38556196.454          34.780  
C04  39503895.617          32.808  
C07  38483228.956          33.818  
C08  36160373.085          44.865  
C10  37739337.386          34.681  
C24  22551600.621          40.915  
C26  22338679.086          40.694  
C31  21735943.192          45.001  
C34  25502082.754          27.680  
C35  22290008.599          42.402  
C39  26252248.130          28.434  
> 2026 05 10 00 57 30.0000000  0 13
C01  38487121.366          34.667  
C02  39635198.518          30.902  
C03  38555358.406          35.680  
C04  39501844.755          29.911  
C07  38493256.025          32.955  
C08  36160483.218          42.909  
C10  37747878.840          36.851  
C24  22544495.679          38.282  
C26  22348375.574          41.101  
C31  21729813.858          41.515  
C34  25486053.859          28.411  
C35  22298832.048          41.270  
C39  26271661.623          29.602  
> 2026 05 10 00 58  0.0000000  0 13
C01  38485571.606          34.841  
C02  39635397.526          31.869  
C03  38554512.449          32.356  
C04  39499787.980          30.565  
C07  38503295.888          38.450  
C08  36160591.469          45.133  
C10  37756437.138          35.776  
C24  22537469.133          40.087  
C26  22358149.915          44.304  
C31  21723741.485          41.869  
C34  25470048.094          33.584  
C35  22307698.907          45.242  
C39  26291089.763          25.220  
> 2026 05 10 00 58 30.0000000  0 13
C01  38484022.993          35.913  
C02  39635593.758          31.118  
C03  38553663.913          34.797  
C04  39497731.909          32.383  
C07  38513348.265          35.753  
C08  36160700.855          45.314  
C10  37765019.164          40.856  
C24  22530528.133          39.478  
C26  22368005.166          42.843  
C31  21717733.895          41.573  
C34  25454069.494          29.775  
C35  22316613.888          41.239  
C39  26310530.916          25.662  
