     3.04           OBSERVATION DATA    C: BDS              RINEX VERSION / TYPE
DataSimulator       BUPT-GNSS           20260518 115336     PGM / RUN BY / DATE
BDS SPP Simulated Observation Data                          COMMENT
BUPT_Shahe                                                  MARKER NAME
 -2161962.4351  4376609.9016  4091389.4091                  APPROX POSITION XYZ
0.0000        0.0000        0.0000                          ANTENNA: DELTA H/E/N
C    2 C2I S2I                                              SYS / # / OBS TYPES
                                                         BDTTIME OF FIRST OBS
    30.000                                                  INTERVAL
                                                            END OF HEADER
> 2026 05 10 00 00  0.0000000  0  8
C01  38491979.502          29.563  
C03  38557514.809          35.199  
C04  39520182.775          34.018  
C10  36914875.958          38.502  
C26  21786256.155          45.535  
C29  24424931.316          32.178  
C31  22833228.122          38.694  
C39  24199191.252          30.051  
> 2026 05 10 00 00 30.0000000  0 10
C03  38556779.494          29.492  
C04  39518255.197          31.331  
C07  37454462.113          37.381  
C08  36157955.040          46.893  
C24  23801704.479          33.711  
C26  21786292.558          47.173  
C29  24441080.274          25.647  
C31  22820280.177          40.957  
C35  21653939.474          47.970  
C39  24215226.911          28.571  
> 2026 05 10 00 01  0.0000000  0 10
C01  38488801.250          35.123  
C03  38556008.350          34.706  
C04  39516296.400          35.701  
C07  37462497.790          38.715  
C08  36157753.144          42.317  
C10  36926616.123          38.481  
C26  21786386.401          42.687  
C31  22807355.127          40.700  
C35  21655888.436          42.438  
C39  24231280.458          30.149  
> 2026 05 10 00 01 30.0000000  0 11
C01  38487196.564          32.618  
C03  38555230.833          31.631  
C04  39514335.231          31.754  
C07  37470554.765          36.956  
C08  36157561.825          42.607  
C24  23773291.207          39.775  
C26  21786566.483          44.415  
C29  24473414.095          25.573  
C31  22794493.970          36.523  
C35  21657917.585          44.938  
C39  24247379.799          28.179  
> 2026 05 10 00 02  0.0000000  0  6
C03  38554489.190          33.499  
C07  37478671.946          39.368  
C24  23759190.342          35.939  
C29  24489651.049          29.551  
C35  21660056.913          47.753  
C39  24263558.075          28.941  
> 2026 05 10 00 02 30.0000000  0  7
C03  38553697.097          31.391  
C04  39510445.497          23.649  
C07  37486761.874          39.804  
C10  36944410.402          38.512  
C26  21787203.230          46.869  
C35  21662219.196          45.979  
C39  24279733.958          23.658  
> 2026 05 10 00 03  0.0000000  0 10
C01  38482418.673          31.781  
C03  38552931.523          28.807  
C04  39508515.519          14.728  
C07  37494907.492          36.998  
C08  36157066.833          44.112  
C24  23731055.206          39.332  
C26  21787657.321          44.787  
C29  24522111.586          29.328  
C35  21664488.537          46.428  
C39  24295995.414          19.892  
> 2026 05 10 00 03 30.0000000  0  7
C01  38480828.271          31.980  
C04  39506559.829          20.902  
C07  37503072.140          40.165  
C08  36156921.697          41.517  
C10  36956426.210          39.561  
C24  23717069.550          37.832  
C39  24312291.195          25.461  
> 2026 05 10 00 04  0.0000000  0 10
C03  38551353.526          29.653  
C04  39504577.147          28.378  
C07  37511232.040          38.812  
C08  36156753.354          41.984  
C10  36962443.436          42.487  
C24  23703101.776          36.903  
C26  21788787.649          46.339  
C29  24554652.122          22.730  
C35  21669220.145          45.708  
C39  24328603.847          21.094  
> 2026 05 10 00 04 30.0000000  0  9
C03  38550573.723          33.975  
C04  39502626.769          34.160  
C07  37519443.855          35.495  
C08  36156623.664          46.408  
C10  36968521.823          42.115  
C29  24570964.955          22.576  
C31  22718591.989          43.498  
C35  21671713.940          46.542  
C39  24344997.519          15.179  
> 2026 05 10 00 05  0.0000000  0  8
C01  38475985.096          32.901  
C03  38549758.337          33.109  
C07  37527639.761          36.860  
C08  36156461.789          45.720  
C10  36974587.252          40.827  
C29  24587265.287          22.025  
C31  22706114.973          38.852  
C39  24361395.041          17.216  
> 2026 05 10 00 05 30.0000000  0  9
C01  38474400.393          33.299  
C04  39498688.263          23.834  
C08  36156357.692          45.506  
C10  36980729.978          42.562  
C24  23661544.039          33.617  
C26  21791151.500          45.049  
C29  24603629.893          23.209  
C31  22693743.401          35.752  
C35  21676897.276          47.456  
> 2026 05 10 00 06  0.0000000  0 11
C01  38472767.781          28.214  
C03  38548140.768          33.651  
C04  39496694.886          24.781  
C07  37544137.301          39.452  
C08  36156199.974          42.367  
C10  36986836.205          40.580  
C24  23647750.687          37.515  
C26  21792073.223          46.269  
C31  22681375.958          42.125  
C35  21679562.701          43.241  
C39  24394358.786          14.575  
> 2026 05 10 00 06 30.0000000  0  9
C01  38471166.678          31.272  
C04  39494737.295          21.735  
C07  37552432.537          35.115  
C08  36156092.196          45.639  
C10  36993014.547          38.875  
C24  23634044.924          35.804  
C26  21793120.913          44.984  
C35  21682346.819          47.210  
C39  24410907.269          23.764  
> 2026 05 10 00 07  0.0000000  0 11
C01  38469529.259          26.433  
C03  38546502.063          33.149  
C07  37560712.906          39.706  
C08  36155956.440          47.244  
C10  36999181.981          37.900  
C24  23620349.965          41.252  
C26  21794219.816          43.893  
C29  24652722.494          26.653  
C31  22656854.871          38.028  
C35  21685164.025          43.197  
C39  24427474.241          18.436  
> 2026 05 10 00 07 30.0000000  0 11
C01  38467926.286          25.872  
C03  38545690.062          32.734  
C04  39490786.830          25.240  
C07  37569050.077          35.314  
C08  36155859.975          46.606  
C24  23606740.042          37.271  
C26  21795442.041          41.948  
C29  24669151.324          28.555  
C31  22644701.570          37.244  
C35  21688093.620          42.987  
C39  24444115.595          28.320  
> 2026 05 10 00 08  0.0000000  0  7
C01  38466286.692          29.326  
C07  37577380.985          37.564  
C08  36155743.443          42.581  
C10  37011638.029          39.517  
C24  23593146.057          38.805  
C31  22632578.774          37.602  
C39  24460781.630          22.758  
> 2026 05 10 00 08 30.0000000  0  9
C01  38464674.930          28.123  
C04  39486830.625          29.032  
C08  36155652.545          46.196  
C24  23579626.696          39.838  
C26  21798103.054          42.069  
C29  24702016.573          31.384  
C31  22620534.711          35.866  
C35  21694129.085          42.024  
C39  24477507.484          20.103  
> 2026 05 10 00 09  0.0000000  0 11
C01  38463004.095          32.910  
C03  38543138.552          23.649  
C04  39484800.387          21.935  
C07  37594095.495          40.739  
C08  36155515.353          45.759  
C10  37024161.658          41.238  
C24  23566105.602          39.879  
C26  21799520.911          42.258  
C31  22608499.270          38.168  
C35  21697210.212          48.105  
C39  24494221.078          12.139  
> 2026 05 10 00 09 30.0000000  0 10
C01  38461394.587          31.890  
C03  38542314.143          27.346  
C04  39482836.259          23.531  
C08  36155444.966          42.921  
C10  37030498.132          40.787  
C26  21801086.614          44.616  
C29  24734930.732          23.205  
C31  22596581.756          39.083  
C35  21700426.315          44.514  
C39  24511036.005          17.200  
> 2026 05 10 00 10  0.0000000  0 11
C03  38541466.757          24.476  
C04  39480852.962          27.329  
C07  37610944.056          35.791  
C08  36155359.424          41.632  
C10  37036840.551          39.194  
C24  23539308.361          36.498  
C26  21802721.312          47.102  
C29  24751413.003          29.065  
C31  22584700.477          40.834  
C35  21703693.324          40.823  
C39  24527870.910          20.747  
> 2026 05 10 00 10 30.0000000  0  7
C01  38458131.276          34.980  
C04  39478878.286          28.132  
C07  37619388.466          41.270  
C08  36155279.505          43.709  
C26  21804436.231          41.293  
C29  24767912.940          34.110  
C39  24544742.552          17.345  
> 2026 05 10 00 11  0.0000000  0  7
C01  38456489.134          29.591  
C04  39476874.246          27.694  
C07  37627841.008          40.692  
C24  23512676.813          38.715  
C26  21806223.466          44.980  
C29  24784406.944          27.819  
C31  22561102.793          40.131  
> 2026 05 10 00 11 30.0000000  0  8
C03  38538873.186          25.641  
C04  39474881.041          22.063  
C07  37636323.392          38.735  
C08  36155117.833          46.674  
C10  37055996.428          43.734  
C26  21808109.285          45.897  
C29  24800938.444          29.569  
C35  21713895.472          43.508  
> 2026 05 10 00 12  0.0000000  0  6
C04  39472898.477          27.463  
C07  37644841.966          36.265  
C08  36155067.159          42.692  
C24  23486272.131          38.514  
C26  21810098.684          46.469  
C39  24595608.603          20.883  
> 2026 05 10 00 12 30.0000000  0  5
C24  23473136.153          38.817  
C26  21812150.049          42.992  
C29  24834042.294          24.957  
C31  22526167.201          38.322  
C39  24612632.160          18.018  
> 2026 05 10 00 13  0.0000000  0 11
C01  38449935.710          31.808  
C03  38536262.885          25.143  
C04  39468896.470          24.910  
C07  37661912.223          39.722  
C08  36154949.682          41.622  
C10  37075410.389          41.346  
C24  23460062.433          39.973  
C26  21814303.056          45.789  
C31  22514644.711          39.033  
C35  21724754.586          43.680  
C39  24629713.610          25.940  
> 2026 05 10 00 13 30.0000000  0 10
C01  38448290.726          36.415  
C03  38535393.519          33.637  
C04  39466903.257          25.678  
C07  37670479.847          39.890  
C10  37081927.411          39.932  
C24  23447035.580          36.232  
C26  21816532.977          43.960  
C31  22503177.872          39.383  
C35  21728511.007          46.394  
C39  24646830.896          17.934  
> 2026 05 10 00 14  0.0000000  0  9
C01  38446627.381          31.289  
C03  38534493.253          33.032  
C04  39464877.138          23.703  
C07  37679047.301          37.967  
C10  37088453.560          38.394  
C26  21818833.869          43.912  
C29  24883793.246          28.889  
C35  21732317.634          44.542  
C39  24663963.249          22.666  
> 2026 05 10 00 14 30.0000000  0 10
C01  38444980.225          28.366  
C03  38533588.180          35.873  
C04  39462866.219          27.333  
C07  37687646.950          38.603  
C08  36154791.268          42.672  
C24  23421113.836          37.255  
C26  21821233.875          41.640  
C29  24900401.167          26.850  
C35  21736202.664          45.635  
C39  24681154.075          15.191  
> 2026 05 10 00 15  0.0000000  0 11
C01  38443334.477          29.958  
C03  38532690.162          30.919  
C04  39460852.849          26.853  
C07  37696273.658          37.732  
C08  36154757.387          41.583  
C10  37101608.309          44.891  
C24  23408246.346          36.526  
C26  21823727.216          45.282  
C31  22469100.988          38.689  
C35  21740165.919          42.450  
C39  24698380.967          24.139  
> 2026 05 10 00 15 30.0000000  0 10
C01  38441674.199          26.715  
C03  38531783.512          33.691  
C04  39458839.378          32.991  
C07  37704911.825          36.688  
C08  36154719.778          40.201  
C10  37108220.034          39.423  
C24  23395421.221          34.583  
C26  21826296.250          45.221  
C31  22457861.218          42.697  
C35  21744188.283          45.732  
> 2026 05 10 00 16  0.0000000  0  7
C04  39456819.188          31.164  
C08  36154683.064          47.021  
C24  23382649.664          40.115  
C26  21828947.670          47.572  
C31  22446677.130          43.006  
C35  21748273.551          45.872  
C39  24732934.747          19.479  
> 2026 05 10 00 16 30.0000000  0  6
C01  38438342.560          30.947  
C03  38529946.002          28.261  
C04  39454798.037          31.582  
C07  37722245.543          38.134  
C31  22435552.121          40.570  
C35  21752426.859          41.750  
> 2026 05 10 00 17  0.0000000  0  7
C04  39452768.099          19.649  
C08  36154636.055          43.533  
C10  37128206.296          39.656  
C24  23357282.480          39.535  
C31  22424502.581          40.269  
C35  21756665.440          41.594  
C39  24767653.691          20.887  
> 2026 05 10 00 17 30.0000000  0  9
C01  38435017.479          30.392  
C03  38528097.037          29.746  
C04  39450747.957          22.567  
C08  36154611.743          41.784  
C10  37134915.555          41.144  
C26  21837440.400          48.541  
C31  22413495.369          39.913  
C35  21760954.530          46.973  
C39  24785059.547          23.561  
> 2026 05 10 00 18  0.0000000  0  8
C03  38527173.871          34.153  
C04  39448718.431          18.591  
C07  37748407.860          37.838  
C08  36154598.320          44.522  
C10  37141654.895          41.236  
C24  23332129.473          38.160  
C31  22402561.220          40.934  
C39  24802512.829          21.479  
> 2026 05 10 00 18 30.0000000  0  9
C01  38431676.649          30.782  
C03  38526228.791          33.937  
C04  39446697.418          27.386  
C07  37757155.687          38.617  
C08  36154577.327          43.571  
C10  37148404.154          41.895  
C26  21843527.753          44.287  
C31  22391665.406          42.874  
C35  21769732.515          45.247  
> 2026 05 10 00 19  0.0000000  0  7
C01  38430026.170          30.268  
C03  38525295.111          22.346  
C07  37765949.699          38.603  
C08  36154587.405          42.672  
C26  21846721.092          44.092  
C31  22380865.630          44.014  
C35  21774244.270          42.700  
> 2026 05 10 00 19 30.0000000  0  8
C01  38428323.274          27.047  
C04  39442629.125          29.277  
C07  37774714.511          39.950  
C08  36154553.104          43.139  
C24  23294791.628          39.375  
C26  21849954.346          48.347  
C31  22370069.911          41.866  
C39  24855052.329          23.000  
> 2026 05 10 00 20  0.0000000  0  9
C01  38426639.533          30.420  
C03  38523365.193          26.017  
C04  39440583.745          24.670  
C07  37783526.187          38.289  
C08  36154549.580          42.504  
C10  37168822.410          41.874  
C24  23282466.013          39.788  
C26  21853300.838          44.917  
C35  21783395.843          43.573  
> 2026 05 10 00 20 30.0000000  0  9
C01  38424977.864          33.676  
C03  38522424.538          25.644  
C07  37792375.267          37.330  
C08  36154571.422          43.643  
C24  23270212.048          40.189  
C26  21856751.578          46.874  
C31  22348739.946          36.337  
C35  21788101.763          43.786  
C39  24890275.976          31.526  
> 2026 05 10 00 21  0.0000000  0  5
C01  38423299.524          27.868  
C03  38521454.206          27.548  
C07  37801225.313          34.164  
C24  23257996.958          38.010  
C35  21792851.663          43.752  
> 2026 05 10 00 21 30.0000000  0  9
C01  38421604.110          35.637  
C03  38520479.785          23.803  
C08  36154572.529          42.042  
C10  37189478.668          40.839  
C24  23245831.656          40.550  
C26  21863865.854          42.738  
C31  22327619.726          43.817  
C35  21797664.362          45.684  
C39  24925622.002          25.317  
> 2026 05 10 00 22  0.0000000  0  9
C01  38419925.938          36.389  
C03  38519511.528          20.533  
C04  39432447.883          29.988  
C07  37818983.976          37.083  
C10  37196415.903          42.599  
C24  23233745.925          39.409  
C26  21867572.882          47.931  
C31  22317163.689          36.929  
C35  21802557.012          46.302  
> 2026 05 10 00 22 30.0000000  0  7
C01  38418248.981          30.933  
C03  38518551.177          22.910  
C04  39430420.525          32.769  
C07  37827903.737          35.961  
C08  36154622.859          45.579  
C24  23221716.559          40.191  
C26  21871359.696          44.293  
> 2026 05 10 00 23  0.0000000  0  6
C01  38416536.848          31.738  
C10  37210339.649          45.025  
C24  23209711.457          40.769  
C31  22296405.269          40.698  
C35  21812503.514          44.227  
C39  24978909.740          25.000  
> 2026 05 10 00 23 30.0000000  0  8
C01  38414874.181          32.276  
C07  37845778.852          35.648  
C08  36154670.301          44.470  
C24  23197819.853          39.693  
C26  21879184.919          40.883  
C31  22286151.985          42.172  
C35  21817609.018          46.827  
C39  24996770.043          23.677  
> 2026 05 10 00 24  0.0000000  0  6
C03  38515567.165          18.606  
C07  37854722.119          36.579  
C24  23185938.495          41.376  
C31  22275905.182          39.125  
C35  21822735.085          45.022  
C39  25014604.678          27.673  
> 2026 05 10 00 24 30.0000000  0  9
C01  38411483.857          33.327  
C07  37863712.854          36.322  
C08  36154715.295          43.023  
C10  37231447.286          36.825  
C24  23174147.698          36.531  
C26  21887341.427          47.101  
C31  22265754.757          42.718  
C35  21827949.892          43.449  
C39  25032507.293          33.932  
> 2026 05 10 00 25  0.0000000  0  8
C01  38409787.142          29.474  
C04  39420171.606          27.202  
C07  37872720.527          38.057  
C08  36154752.063          42.297  
C10  37238528.038          37.337  
C24  23162412.654          40.104  
C31  22255659.089          41.506  
C35  21833223.215          43.234  
> 2026 05 10 00 25 30.0000000  0 10
C03  38512568.520          23.399  
C04  39418099.556          31.809  
C07  37881721.185          36.024  
C08  36154770.384          44.498  
C10  37245615.443          37.481  
C24  23150712.364          37.501  
C26  21895844.115          44.702  
C31  22245599.625          42.047  
C35  21838536.300          45.528  
C39  25068388.350          31.040  
> 2026 05 10 00 26  0.0000000  0  6
C01  38406383.186          30.548  
C03  38511574.742          26.869  
C08  36154816.303          44.643  
C10  37252746.472          40.900  
C24  23139101.975          34.906  
C39  25086405.091          24.266  
> 2026 05 10 00 26 30.0000000  0  7
C01  38404678.133          34.702  
C03  38510544.368          27.428  
C04  39413979.918          27.682  
C07  37899812.724          35.657  
C24  23127531.199          41.835  
C26  21904701.499          44.308  
C35  21849388.417          44.969  
> 2026 05 10 00 27  0.0000000  0 10
C01  38402976.765          35.062  
C03  38509517.324          24.218  
C04  39411928.779          27.850  
C07  37908883.904          35.931  
C08  36154894.295          41.211  
C10  37267062.743          42.998  
C24  23116035.003          36.386  
C26  21909260.378          42.695  
C35  21854905.921          43.586  
C39  25122466.288          30.875  
> 2026 05 10 00 27 30.0000000  0 10
C01  38401300.910          32.068  
C03  38508511.281          22.299  
C04  39409887.868          26.121  
C07  37917997.617          36.497  
C08  36154964.243          45.667  
C10  37274281.260          37.832  
C24  23104623.252          36.044  
C26  21913928.378          45.162  
C31  22206059.419          38.057  
C35  21860510.075          43.387  
> 2026 05 10 00 28  0.0000000  0 10
C01  38399568.770          38.225  
C03  38507452.624          20.124  
C04  39407799.651          26.944  
C07  37927085.309          33.436  
C08  36154991.785          44.650  
C24  23093228.357          36.919  
C26  21918640.101          45.644  
C31  22196302.577          38.366  
C35  21866131.772          42.593  
C39  25158694.869          17.773  
> 2026 05 10 00 28 30.0000000  0  9
C01  38397844.144          31.747  
C03  38506398.793          13.686  
C04  39405718.881          28.922  
C10  37288713.597          39.803  
C24  23081906.377          40.864  
C26  21923443.427          44.773  
C31  22186609.124          38.472  
C35  21871823.447          41.038  
C39  25176828.070          19.855  
> 2026 05 10 00 29  0.0000000  0  9
C01  38396158.450          35.635  
C04  39403664.915          21.895  
C07  37945365.367          36.752  
C08  36155108.288          45.294  
C10  37296003.768          38.116  
C24  23070676.159          41.663  
C26  21928369.280          45.536  
C31  22177013.156          40.862  
C39  25195037.265          18.753  
> 2026 05 10 00 29 30.0000000  0 10
C01  38394436.468          34.922  
C03  38504327.817          13.871  
C04  39401579.707          21.686  
C07  37954515.266          35.670  
C08  36155153.518          40.714  
C10  37303285.081          37.591  
C24  23059481.372          35.194  
C26  21933351.423          40.250  
C35  21883425.219          43.639  
C39  25213233.511          17.996  
> 2026 05 10 00 30  0.0000000  0  9
C03  38503301.894          25.436  
C04  39399526.726          23.773  
C07  37963714.049          37.400  
C10  37310620.991          40.143  
C24  23048377.947          38.993  
C26  21938446.844          42.119  
C31  22157968.480          41.287  
C35  21889333.003          44.748  
C39  25231486.001          22.185  
> 2026 05 10 00 30 30.0000000  0  5
C03  38593346.977          19.749  
C08  36155263.563          44.901  
C10  37317929.011          38.681  
C24  23037288.827          38.461  
C31  22148503.155          43.235  
> 2026 05 10 00 31  0.0000000  0  6
C03  38592797.368          24.969  
C07  37982101.443          34.615  
C08  36155334.416          42.517  
C24  23026303.359          36.578  
C26  21948835.751          47.882  
C39  25268023.329          30.169  
> 2026 05 10 00 31 30.0000000  0  6
C01  38564387.039          36.021  
C08  36155408.461          46.925  
C10  37332693.860          40.397  
C24  23015382.288          37.020  
C31  22129831.038          39.245  
C39  25286359.586          27.464  
> 2026 05 10 00 32  0.0000000  0  9
C01  38562969.142          27.068  
C03  38591665.127          25.232  
C07  38000581.255          35.171  
C10  37340098.192          38.662  
C24  23004513.412          38.639  
C26  21959596.423          43.167  
C31  22120573.555          40.707  
C35  21913459.821          42.031  
C39  25304710.308          23.945  
> 2026 05 10 00 32 30.0000000  0  8
C01  38561547.066          35.958  
C03  38591085.649          26.776  
C07  38009845.813          37.741  
C08  36155537.600          48.381  
C24  22993713.860          36.047  
C31  22111377.704          41.844  
C35  21919641.173          44.764  
C39  25323093.027          25.498  
> 2026 05 10 00 33  0.0000000  0  9
C01  38560128.036          32.938  
C03  38590514.216          32.050  
C07  38019135.136          38.114  
C08  36155617.083          46.073  
C10  37354993.891          40.787  
C24  22982988.949          37.572  
C26  21970700.566          45.066  
C31  22102256.258          40.397  
C35  21925896.360          42.334  
> 2026 05 10 00 33 30.0000000  0  8
C01  38558714.509          31.792  
C03  38589930.368          27.716  
C07  38028433.099          35.475  
C08  36155693.227          47.831  
C10  37362474.970          40.393  
C24  22972320.452          38.643  
C31  22093186.072          41.797  
C35  21932200.263          43.551  
> 2026 05 10 00 34  0.0000000  0  4
C08  36155761.282          45.936  
C10  37369971.066          40.358  
C26  21982138.351          44.781  
C35  21938555.408          40.439  
> 2026 05 10 00 34 30.0000000  0  9
C01  38555855.837          29.852  
C03  38588735.927          31.759  
C07  38047079.708          31.574  
C08  36155847.811          45.400  
C10  37377503.198          35.769  
C24  22951187.922          39.446  
C26  21987997.559          42.884  
C31  22075231.565          40.420  
C35  21944985.943          45.857  
> 2026 05 10 00 35  0.0000000  0  5
C01  38554422.256          27.487  
C03  38588125.257          30.158  
C08  36155926.786          43.698  
C24  22940718.695          40.441  
C26  21993933.692          45.451  
> 2026 05 10 00 35 30.0000000  0  7
C01  38552977.765          30.197  
C03  38587504.246          27.121  
C08  36155999.045          46.945  
C10  37392617.356          42.564  
C24  22930311.034          39.021  
C26  21999945.530          41.598  
C31  22057508.450          43.056  
> 2026 05 10 00 36  0.0000000  0  6
C01  38551560.644          27.045  
C03  38586921.408          34.187  
C07  38075187.232          27.489  
C10  37400234.911          38.652  
C24  22920001.906          39.730  
C35  21964607.927          44.500  
> 2026 05 10 00 36 30.0000000  0  8
C03  38586277.274          36.893  
C07  38084561.674          24.861  
C08  36156163.515          45.262  
C10  37407827.134          35.816  
C24  22909712.024          39.138  
C26  22012244.536          43.971  
C31  22040040.011          39.212  
C35  21971235.261          41.595  
> 2026 05 10 00 37  0.0000000  0  7
C01  38548652.983          30.067  
C03  38585663.599          32.845  
C07  38093986.638          25.109  
C08  36156257.665          41.652  
C24  22899526.706          41.183  
C26  22018533.836          45.929  
C31  22031406.020          43.428  
> 2026 05 10 00 37 30.0000000  0  7
C01  38547181.649          33.176  
C03  38585003.785          33.581  
C07  38103391.159          26.723  
C08  36156321.973          45.398  
C10  37423119.704          39.084  
C24  22889376.078          35.866  
C31  22022803.493          40.382  
> 2026 05 10 00 38 30.0000000  0  7
C01  38544310.234          32.592  
C03  38583755.992          31.209  
C08  36156541.845          41.816  
C10  37438556.264          42.226  
C26  22037899.576          40.510  
C31  22005863.274          42.776  
C35  21998434.858          45.256  
> 2026 05 10 00 39  0.0000000  0  7
C01  38542847.093          29.963  
C03  38583099.784          30.545  
C08  36156623.931          43.861  
C24  22859441.474          40.959  
C26  22044510.263          42.356  
C31  21997456.904          46.248  
C35  22005359.594          45.952  
> 2026 05 10 00 39 30.0000000  0  8
C01  38541378.514          35.955  
C03  38582436.510          33.640  
C07  38141304.130          22.963  
C08  36156707.099          44.104  
C24  22849583.647          41.645  
C26  22051206.071          45.564  
C31  21989113.742          43.853  
C35  22012338.339          43.518  
> 2026 05 10 00 40  0.0000000  0  7
C01  38539952.389          35.012  
C08  36156834.012          42.702  
C10  37461832.396          37.414  
C24  22839837.902          39.150  
C26  22058029.904          42.663  
C31  21980869.980          40.258  
C35  22019415.595          40.553  
> 2026 05 10 00 40 30.0000000  0  6
C01  38538474.457          31.974  
C03  38581121.191          31.475  
C10  37469617.562          37.477  
C24  22830115.701          40.846  
C31  21972641.500          40.662  
C35  22026501.434          43.830  
> 2026 05 10 00 41  0.0000000  0  6
C01  38537006.567          27.379  
C07  38169898.878          23.212  
C08  36157004.803          45.897  
C24  22820473.430          39.480  
C26  22071844.998          42.758  
C31  21964483.072          42.377  
> 2026 05 10 00 41 30.0000000  0  7
C01  38535544.252          30.889  
C03  38579780.849          31.366  
C07  38179473.675          26.890  
C08  36157107.689          44.172  
C10  37485290.140          39.623  
C24  22810916.561          41.991  
C31  21956399.314          41.250  
> 2026 05 10 00 42  0.0000000  0  7
C01  38534065.001          32.904  
C03  38579089.338          23.489  
C07  38189040.624          20.648  
C10  37493150.623          43.274  
C26  22086020.902          44.225  
C31  21948362.984          38.715  
C35  22048125.173          40.162  
> 2026 05 10 00 42 30.0000000  0  8
C01  38532602.404          32.471  
C03  38578412.705          25.055  
C07  38198642.807          19.185  
C10  37501053.416          38.191  
C24  22792012.807          39.226  
C26  22093247.054          41.851  
C31  21940408.509          42.945  
C35  22055456.572          42.660  
> 2026 05 10 00 43  0.0000000  0  8
C03  38577690.388          32.059  
C07  38208219.438          25.193  
C08  36157381.257          49.173  
C10  37508933.928          37.990  
C24  22782630.013          41.576  
C26  22100513.341          43.336  
C31  21932469.893          42.777  
C35  22062796.048          43.970  
> 2026 05 10 00 43 30.0000000  0  7
C03  38577013.332          16.129  
C08  36157515.014          42.072  
C10  37516898.950          43.444  
C24  22773388.178          42.674  
C26  22107929.925          45.075  
C31  21924657.643          41.517  
C35  22070253.067          43.994  
> 2026 05 10 00 44  0.0000000  0  6
C01  38528157.167          31.518  
C07  38227514.838          19.676  
C08  36157618.654          42.338  
C26  22115397.820          45.052  
C31  21916872.346          42.827  
C35  22077735.702          43.751  
> 2026 05 10 00 44 30.0000000  0  7
C01  38526653.967          30.527  
C03  38575588.412          20.912  
C08  36157702.639          45.095  
C10  37532818.379          38.836  
C24  22755037.897          42.889  
C26  22122929.930          44.714  
C31  21909128.440          40.794  
> 2026 05 10 00 45  0.0000000  0  5
C01  38525192.744          31.236  
C08  36157830.578          42.147  
C24  22746008.106          43.829  
C31  21901494.001          42.970  
C35  22092856.949          41.529  
> 2026 05 10 00 45 30.0000000  0  7
C01  38523673.642          31.213  
C07  38256497.019          19.627  
C10  37548848.272          41.170  
C24  22737005.224          43.126  
C26  22138287.871          43.782  
C31  21893871.091          39.705  
C35  22100470.573          43.923  
> 2026 05 10 00 46  0.0000000  0  7
C01  38522211.551          25.610  
C03  38573469.517          28.065  
C07  38266229.320          18.837  
C08  36158046.742          45.357  
C10  37556920.585          37.913  
C26  22146118.618          44.323  
C31  21886358.424          42.572  
> 2026 05 10 00 46 30.0000000  0  8
C01  38520712.956          35.190  
C03  38572741.482          25.853  
C07  38275943.497          16.811  
C08  36158154.496          41.675  
C10  37564990.552          42.460  
C24  22719296.582          38.525  
C26  22154010.587          45.795  
C35  22115934.890          39.593  
> 2026 05 10 00 47  0.0000000  0  8
C01  38519206.423          32.028  
C03  38571999.238          24.940  
C07  38285662.962          16.134  
C08  36158248.703          42.368  
C10  37573069.976          39.985  
C24  22710531.279          40.079  
C26  22161969.880          41.791  
C31  21871458.555          44.158  
> 2026 05 10 00 47 30.0000000  0  7
C01  38517689.898          32.291  
C07  38295401.406          19.829  
C08  36158343.855          46.614  
C10  37581170.227          41.773  
C24  22701836.537          42.475  
C26  22170011.867          43.624  
C31  21864092.437          46.361  
> 2026 05 10 00 48  0.0000000  0  8
C01  38516207.720          26.181  
C03  38570523.984          28.024  
C07  38305180.360          28.900  
C08  36158467.232          42.640  
C10  37589319.212          36.570  
C24  22693248.318          40.678  
C26  22178166.538          40.568  
C35  22139461.034          42.153  
> 2026 05 10 00 48 30.0000000  0  9
C01  38514698.666          28.649  
C03  38569766.361          22.532  
C07  38314942.068          19.471  
C08  36158572.277          44.066  
C10  37597472.990          40.893  
C24  22684718.611          42.409  
C26  22186381.556          41.861  
C31  21849579.590          42.650  
C35  22147407.712          42.681  
> 2026 05 10 00 49  0.0000000  0  5
C03  38569018.052          28.415  
C08  36158685.302          44.901  
C10  37605652.460          38.990  
C26  22194689.899          43.883  
C31  21842411.883          47.951  
> 2026 05 10 00 49 30.0000000  0  6
C03  38568247.046          32.763  
C07  38334521.300          14.504  
C10  37613843.273          42.134  
C26  22203067.310          43.398  
C31  21835291.017          43.819  
C35  22163447.351          44.103  
> 2026 05 10 00 50  0.0000000  0  6
C01  38510157.926          27.882  
C07  38344342.783          14.511  
C08  36158889.888          42.712  
C10  37622061.693          38.666  
C26  22211537.191          43.494  
C31  21828244.655          44.555  
> 2026 05 10 00 50 30.0000000  0  7
C01  38508658.192          31.699  
C07  38354190.080          21.724  
C08  36159014.308          39.507  
C10  37630316.981          37.688  
C24  22651373.803          40.588  
C26  22220104.273          43.274  
C35  22179708.167          40.545  
> 2026 05 10 00 51  0.0000000  0  4
C10  37638554.752          39.179  
C24  22643204.484          39.108  
C26  22228714.416          45.074  
C35  22187881.142          43.713  
> 2026 05 10 00 51 30.0000000  0  6
C08  36159231.457          46.397  
C10  37646863.605          38.701  
C24  22635160.657          42.847  
C26  22237454.956          43.464  
C31  21807479.799          42.477  
C35  22196154.384          40.792  
> 2026 05 10 00 52  0.0000000  0  6
C01  38504064.406          26.569  
C03  38564358.584          32.892  
C10  37655137.860          37.111  
C24  22627139.875          40.248  
C31  21800644.720          41.761  
C35  22204419.519          44.813  
> 2026 05 10 00 52 30.0000000  0  6
C01  38502578.650          22.770  
C03  38563604.856          34.172  
C07  38393660.499          21.568  
C24  22619266.336          40.486  
C26  22255139.836          41.019  
C35  22212800.642          43.532  
> 2026 05 10 00 53  0.0000000  0  7
C03  38562778.510          32.405  
C04  39520276.507          30.021  
C08  36159529.159          44.169  
C10  37671818.019          39.113  
C24  22611403.895          43.213  
C31  21787224.602          42.052  
C35  22221160.834          43.255  
> 2026 05 10 00 53 30.0000000  0  6
C04  39518230.802          27.487  
C07  38413443.752          25.381  
C08  36159634.963          39.747  
C10  37680179.606          39.826  
C24  22603644.002          42.758  
C35  22229598.086          47.600  
> 2026 05 10 00 54  0.0000000  0  7
C03  38561172.687          35.493  
C07  38423387.321          20.427  
C08  36159754.724          43.564  
C10  37688582.908          38.445  
C26  22282245.962          42.590  
C31  21774049.589          40.365  
C35  22238100.707          40.813  
> 2026 05 10 00 54 30.0000000  0  8
C01  38496402.328          24.812  
C03  38560335.600          30.881  
C04  39514148.775          32.049  
C07  38433309.478          29.506  
C08  36159843.360          40.799  
C24  22588370.147          40.990  
C26  22291435.222          41.412  
C35  22246617.307          41.999  
> 2026 05 10 00 55  0.0000000  0  8
C01  38494875.258          28.427  
C04  39512113.960          24.089  
C07  38443282.243          24.280  
C08  36159965.611          43.932  
C10  37705422.217          37.758  
C26  22300739.789          40.762  
C31  21761105.795          38.187  
C35  22255219.451          44.662  
> 2026 05 10 00 55 30.0000000  0  8
C01  38493304.565          31.718  
C03  38558679.184          22.521  
C04  39510030.363          18.971  
C10  37713849.360          36.897  
C24  22573412.402          41.581  
C26  22310081.639          43.122  
C31  21754703.643          44.352  
C35  22263826.593          41.130  
> 2026 05 10 00 56  0.0000000  0  8
C01  38491781.124          23.854  
C03  38557858.825          18.320  
C04  39507998.545          18.497  
C08  36160169.511          45.495  
C10  37722335.443          37.986  
C24  22566074.481          42.567  
C31  21748400.432          40.636  
C35  22272519.223          41.068  
> 2026 05 10 00 56 30.0000000  0  8
C03  38557024.132          19.867  
C04  39505962.198          23.370  
C07  38473216.523          22.828  
C08  36160274.346          44.676  
C10  37730833.424          40.208  
C26  22329077.971          44.471  
C31  21742145.169          43.703  
C35  22281245.018          44.050  
> 2026 05 10 00 57  0.0000000  0  6
C01  38488701.427          30.403  
C08  36160392.745          46.093  
C10  37739357.947          37.534  
C24  22551619.994          43.219  
C31  21735963.687          40.833  
C35  22290030.407          42.138  
> 2026 05 10 00 57 30.0000000  0  8
C01  38487128.512          30.500  
C03  38555338.121          19.868  
C07  38493247.873          25.949  
C08  36160482.009          44.023  
C10  37747875.957          37.967  
C24  22544491.710          40.773  
C26  22348376.334          43.150  
C31  21729810.718          45.708  
> 2026 05 10 00 58  0.0000000  0  8
C01  38485617.884          29.317  
C03  38554529.396          18.081  
C04  39499818.453          25.367  
C07  38503329.030          31.172  
C10  37756470.620          38.604  
C24  22537501.689          40.737  
C26  22358182.333          42.609  
C31  21723773.884          43.124  
> 2026 05 10 00 58 30.0000000  0  7
C01  38484031.185          31.286  
C03  38553653.135          26.971  
C08  36160697.272          46.727  
C10  37765015.749          38.834  
C24  22530522.583          41.575  
C26  22368003.000          42.472  
C35  22316612.059          46.345  
> 2026 05 10 00 59  0.0000000  0  7
C01  38482452.103          30.964  
C03  38552778.219          31.411  
C04  39495650.884          33.148  
C07  38523389.590          35.301  
C08  36160779.344          40.469  
C24  22523637.508          43.913  
C31  21711756.389          41.254  
> 2026 05 10 00 59 30.0000000  0  7
C01  38480932.521          30.198  
C04  39493621.072          29.835  
C07  38533495.731          32.202  
C08  36160921.212          44.622  
C10  37782249.162          38.724  
C24  22516896.598          40.936  
C26  22387961.630          41.809  
> 2026 05 10 01 00  0.0000000  0  6
C03  38551065.405          27.924  
C07  38543563.234          33.863  
C08  36161006.046          44.761  
C10  37790866.939          33.472  
C24  22510173.437          40.798  
C35  22343608.012          42.202  
> 2026 05 10 01 00 30.0000000  0  8
C01  38477783.690          31.285  
C03  38550186.406          23.755  
C04  39489463.331          28.101  
C08  36161107.089          46.194  
C10  37799523.424          35.329  
C24  22503557.601          40.307  
C26  22408202.787          42.829  
C35  22352698.326          44.529  
> 2026 05 10 01 01  0.0000000  0  7
C01  38476217.060          31.648  
C03  38549307.784          21.990  
C07  38563773.723          31.945  
C08  36161208.117          43.663  
C10  37808204.698          38.357  
C24  22497027.582          43.261  
C31  21688573.525          41.523  
> 2026 05 10 01 01 30.0000000  0  8
C01  38474646.360          29.126  
C03  38548417.231          22.565  
C04  39485309.590          29.030  
C07  38573886.278          29.118  
C08  36161302.409          44.982  
C26  22428768.634          45.459  
C31  21682916.374          44.226  
C35  22371005.706          40.394  
> 2026 05 10 01 02  0.0000000  0  9
C01  38473038.204          33.829  
C03  38547494.679          19.980  
C04  39483204.179          31.448  
C07  38583989.654          27.872  
C10  37825581.917          36.442  
C24  22484171.051          39.528  
C26  22439140.034          41.844  
C31  21677294.013          43.615  
C35  22380196.511          43.174  
> 2026 05 10 01 02 30.0000000  0  8
C01  38471502.544          34.067  
C04  39481167.248          27.599  
C07  38594172.262          21.959  
C08  36161500.932          42.827  
C10  37834352.813          39.140  
C24  22477924.091          41.849  
C26  22449656.327          44.296  
C31  21671795.689          44.255  
> 2026 05 10 01 03  0.0000000  0 10
C01  38469910.338          28.920  
C03  38545726.406          22.217  
C04  39479062.092          29.785  
C07  38604312.187          23.536  
C08  36161582.044          45.794  
C10  37843094.308          37.598  
C24  22471708.125          42.470  
C26  22460203.123          41.135  
C31  21666312.584          44.059  
C35  22398787.500          37.665  
> 2026 05 10 01 03 30.0000000  0  6
C04  39476954.632          27.923  
C07  38614468.249          26.147  
C10  37851848.046          36.745  
C24  22465570.790          38.989  
C26  22470818.529          42.522  
C31  21660882.535          43.560  
> 2026 05 10 01 04  0.0000000  0  6
C01  38466739.938          35.715  
C04  39474887.583          31.135  
C07  38624672.632          32.406  
C08  36161766.503          48.033  
C24  22459555.659          42.598  
C31  21655545.210          44.158  
> 2026 05 10 01 04 30.0000000  0  9
C01  38465141.349          34.552  
C03  38542980.282          33.763  
C04  39472774.089          22.580  
C07  38634842.850          31.878  
C10  37869456.553          38.071  
C24  22453592.589          41.986  
C26  22492324.202          44.522  
C31  21650237.554          42.921  
C35  22426940.084          40.314  
> 2026 05 10 01 05  0.0000000  0  9
C01  38463582.259          34.683  
C03  38542091.641          32.838  
C07  38645077.289          29.602  
C08  36161955.645          43.633  
C10  37878314.534          38.158  
C24  22447757.843          40.066  
C26  22503217.335          42.093  
C31  21645029.051          44.343  
C35  22436442.443          43.070  
> 2026 05 10 01 05 30.0000000  0  5
C01  38461978.857          35.655  
C04  39468595.862          25.968  
C10  37887151.650          38.280  
C24  22441962.796          42.282  
C31  21639840.556          41.612  
> 2026 05 10 01 06  0.0000000  0  9
C01  38460382.209          34.715  
C04  39466498.848          30.362  
C07  38665503.361          33.271  
C08  36162109.934          45.111  
C10  37896020.262          34.437  
C24  22436270.565          42.304  
C26  22525163.503          40.625  
C31  21634726.176          45.581  
C35  22455499.895          40.011  
> 2026 05 10 01 06 30.0000000  0  8
C03  38539296.366          30.392  
C04  39464425.876          28.783  
C07  38675763.661          24.615  
C10  37904939.849          40.054  
C24  22430694.027          40.845  
C26  22536286.831          40.851  
C31  21629699.845          48.271  
C35  22465127.620          39.034  
> 2026 05 10 01 07  0.0000000  0  8
C03  38538333.699          35.394  
C04  39462299.485          28.820  
C07  38685984.159          28.823  
C08  36162279.712          42.082  
C24  22425144.728          43.355  
C26  22547436.115          39.957  
C31  21624677.747          42.119  
C35  22474742.345          43.141  
> 2026 05 10 01 07 30.0000000  0  6
C01  38455604.321          33.895  
C03  38537398.797          27.614  
C04  39460194.766          30.835  
C07  38696250.999          26.501  
C31  21619749.179          44.000  
C35  22484429.706          40.586  
> 2026 05 10 01 08  0.0000000  0  8
C01  38453998.067          31.503  
C03  38536438.166          33.689  
C04  39458085.694          26.252  
C08  36162438.012          44.435  
C10  37931695.330          36.529  
C24  22414362.795          37.706  
C26  22570006.853          39.737  
C35  22494143.681          41.244  
> 2026 05 10 01 08 30.0000000  0  8
C01  38452381.044          27.253  
C04  39455972.353          31.878  
C07  38716796.757          30.874  
C08  36162512.063          44.146  
C10  37940653.619          39.833  
C24  22409094.929          45.451  
C26  22581399.391          43.844  
C31  21610045.498          43.261  
> 2026 05 10 01 09  0.0000000  0  5
C08  36162591.339          43.687  
C10  37949643.477          36.904  
C24  22403926.055          41.876  
C26  22592879.957          42.219  
C35  22513703.726          37.699  
> 2026 05 10 01 09 30.0000000  0  7
C03  38533557.695          32.795  
C07  38737406.502          27.797  
C08  36162678.310          46.683  
C10  37958656.497          38.483  
C26  22604438.262          35.861  
C31  21600604.741          41.485  
C35  22523559.713          37.537  
> 2026 05 10 01 10  0.0000000  0  7
C03  38532576.337          34.931  
C04  39449632.030          23.321  
C07  38747715.658          29.262  
C08  36162743.291          46.518  
C10  37967671.233          37.662  
C24  22393842.622          41.889  
C35  22533432.688          43.339  
> 2026 05 10 01 10 30.0000000  0  8
C01  38445944.636          31.843  
C03  38531596.482          27.134  
C04  39447500.765          23.841  
C07  38758037.600          33.486  
C08  36162804.380          44.968  
C24  22388921.019          44.304  
C26  22627742.478          41.725  
C35  22543340.205          42.228  
> 2026 05 10 01 11  0.0000000  0  7
C03  38530633.192          33.874  
C08  36162897.381          43.179  
C10  37985783.062          39.681  
C24  22384122.352          41.496  
C26  22639541.979          42.040  
C31  21586870.868          46.783  
C35  22553324.670          39.310  
> 2026 05 10 01 11 30.0000000  0  8
C01  38442712.757          30.451  
C03  38529611.974          31.848  
C04  39443257.112          23.041  
C07  38778716.487          29.778  
C24  22379361.583          41.944  
C26  22651361.026          43.948  
C31  21582384.036          44.522  
C35  22563296.441          42.174  
> 2026 05 10 01 12  0.0000000  0  7
C03  38528633.985          36.043  
C04  39441141.873          18.320  
C07  38789079.095          30.330  
C10  38003943.026          36.589  
C24  22374725.687          44.050  
C31  21577993.448          44.638  
C35  22573347.888          42.574  
> 2026 05 10 01 12 30.0000000  0  8
C01  38439464.195          32.159  
C03  38527614.206          34.017  
C04  39438995.034          18.569  
C08  36163059.764          46.445  
C10  38013036.213          37.403  
C24  22370144.717          37.619  
C26  22675263.490          39.004  
C31  21573627.002          42.886  
> 2026 05 10 01 13  0.0000000  0  9
C01  38437841.688          26.298  
C04  39436867.576          19.722  
C07  38809798.752          31.725  
C08  36163125.214          44.182  
C10  38022169.720          35.048  
C24  22365675.685          40.344  
C26  22687334.642          42.858  
C31  21569343.962          40.430  
C35  22593511.434          40.600  
> 2026 05 10 01 13 30.0000000  0  8
C01  38436233.161          27.665  
C03  38525629.664          30.489  
C07  38820202.379          37.406  
C08  36163198.510          43.816  
C10  38031334.720          37.218  
C24  22361308.375          41.478  
C26  22699486.740          42.160  
C31  21565130.025          41.544  
> 2026 05 10 01 14  0.0000000  0  8
C01  38434596.884          27.637  
C04  39432613.553          19.346  
C07  38830580.110          26.390  
C08  36163247.279          40.576  
C24  22357008.453          39.964  
C26  22711689.922          37.798  
C31  21560952.911          41.625  
C35  22613859.253          39.476  
> 2026 05 10 01 14 30.0000000  0  9
C01  38432961.971          29.984  
C03  38523579.200          34.436  
C04  39430468.809          15.712  
C08  36163297.224          42.661  
C10  38049673.301          34.605  
C24  22352797.269          41.044  
C26  22723968.153          38.291  
C31  21556836.412          48.710  
C35  22624076.831          42.933  
> 2026 05 10 01 15  0.0000000  0  7
C01  38431375.844          27.928  
C03  38522603.333          30.663  
C08  36163392.167          44.997  
C24  22348726.960          42.173  
C26  22736367.042          40.406  
C31  21552827.088          45.781  
C35  22634382.622          40.236  
> 2026 05 10 01 15 30.0000000  0  6
C03  38521561.720          31.580  
C07  38861833.916          19.800  
C08  36163424.496          44.875  
C26  22748777.305          45.089  
C31  21548816.789          43.412  
C35  22644658.435          40.039  
> 2026 05 10 01 16  0.0000000  0 10
C01  38428074.904          30.412  
C03  38520512.732          31.433  
C04  39424067.884          15.966  
C07  38872257.976          17.912  
C08  36163461.603          45.608  
C10  38077351.348          37.742  
C24  22340738.676          42.258  
C26  22761263.568          39.368  
C31  21544869.338          46.192  
C35  22654983.938          37.559  
> 2026 05 10 01 16 30.0000000  0  6
C03  38519470.123          35.849  
C04  39421935.589          21.666  
C10  38086604.856          38.194  
C26  22773834.432          38.993  
C31  21540989.167          43.748  
C35  22665354.360          42.573  
> 2026 05 10 01 17  0.0000000  0  8
C03  38518426.956          27.838  
C04  39419786.619          23.099  
C07  38893143.900          18.636  
C08  36163551.453          45.873  
C10  38095875.286          38.707  
C24  22333135.967          45.209  
C31  21537168.006          45.108  
C35  22675758.855          44.184  
> 2026 05 10 01 17 30.0000000  0 10
C01  38423165.432          23.850  
C03  38517388.742          35.176  
C04  39417656.402          24.277  
C07  38903623.827          22.338  
C08  36163603.691          37.530  
C10  38105179.514          38.464  
C24  22329482.764          44.060  
C26  22799195.643          42.076  
C31  21533418.383          45.083  
C35  22686214.355          41.767  
> 2026 05 10 01 18  0.0000000  0  7
C01  38421510.612          21.363  
C03  38516327.747          34.190  
C07  38914087.933          28.801  
C08  36163633.843          44.952  
C10  38114478.005          34.843  
C24  22325900.304          40.763  
C26  22811970.861          41.161  
> 2026 05 10 01 18 30.0000000  0  7
C03  38515270.353          31.792  
C04  39413344.080          29.177  
C07  38924564.143          30.622  
C10  38123797.482          36.467  
C24  22322409.931          43.529  
C31  21526051.859          40.518  
C35  22707189.724          39.970  
> 2026 05 10 01 19  0.0000000  0  8
C01  38418208.440          21.990  
C03  38514205.098          26.521  
C04  39411199.913          30.102  
C07  38935043.187          26.560  
C08  36163695.977          44.062  
C10  38133140.572          34.488  
C24  22319017.366          37.299  
C26  22837734.813          39.882  
> 2026 05 10 01 19 30.0000000  0  8
C01  38416569.448          20.152  
C04  39409060.033          26.441  
C07  38945548.790          22.080  
C08  36163735.466          42.690  
C24  22315724.361          44.455  
C26  22850734.319          42.354  
C31  21518939.430          46.366  
C35  22728324.134          43.275  
> 2026 05 10 01 20  0.0000000  0  7
C01  38414933.853          23.807  
C03  38512095.432          26.579  
C07  38956061.372          15.683  
C08  36163783.145          43.630  
C10  38151905.332          31.578  
C31  21515482.025          41.578  
C35  22738958.844          38.344  
> 2026 05 10 01 20 30.0000000  0  7
C01  38413262.352          22.153  
C04  39404747.472          24.683  
C07  38966559.194          18.473  
C08  36163791.381          44.952  
C24  22309392.294          46.008  
C34  24776678.106          31.067  
C35  22749592.644          36.746  
> 2026 05 10 01 21  0.0000000  0  8
C01  38411598.006          27.884  
C04  39402573.083          26.368  
C07  38977066.817          18.688  
C10  38170672.054          34.251  
C24  22306352.596          41.717  
C31  21508676.801          42.775  
C34  24761896.947          28.253  
C35  22760265.080          41.833  
> 2026 05 10 01 21 30.0000000  0 10
C01  38409944.863          22.089  
C03  38508822.287          24.466  
C04  39400423.771          18.838  
C07  38987603.876          18.740  
C08  36163828.152          45.968  
C10  38180104.089          36.399  
C24  22303421.557          42.662  
C26  22903376.431          40.342  
C31  21505377.251          44.194  
C35  22770984.782          38.939  
> 2026 05 10 01 22  0.0000000  0  8
C01  38408292.551          23.616  
C03  38507739.183          25.589  
C04  39398272.763          19.655  
C07  38998149.215          21.832  
C26  22916717.954          39.745  
C31  21502136.991          45.203  
C34  24732451.585          29.821  
C35  22781745.531          41.376  
> 2026 05 10 01 22 30.0000000  0  8
C01  38406636.953          26.790  
C03  38506643.869          28.067  
C04  39396109.695          18.633  
C07  39008704.119          27.654  
C10  38199013.556          32.844  
C24  22297832.559          43.349  
C26  22930121.457          43.695  
C35  22792529.966          38.397  
> 2026 05 10 01 23  0.0000000  0  8
C03  38505535.451          21.899  
C04  39393925.276          26.854  
C07  39019255.500          28.093  
C08  36163874.542          46.046  
C10  38208480.516          32.676  
C24  22295166.392          41.765  
C26  22943582.625          42.929  
C35  22803344.902          41.197  
> 2026 05 10 01 23 30.0000000  0  9
C01  38403309.543          30.548  
C03  38504424.317          35.204  
C04  39391761.718          21.906  
C07  39029820.264          29.762  
C08  36163891.669          43.829  
C26  22957122.186          42.533  
C31  21492740.359          43.995  
C34  24688490.208          29.307  
C35  22814196.426          43.048  
> 2026 05 10 01 24  0.0000000  0  7
C01  38401629.262          25.572  
C03  38503301.517          29.058  
C08  36163884.158          45.870  
C24  22290115.107          44.751  
C26  22970712.276          35.940  
C34  24673884.092          33.591  
C35  22825070.734          39.073  
> 2026 05 10 01 24 30.0000000  0  8
C01  38399967.868          38.343  
C03  38502184.926          34.386  
C04  39387414.535          24.145  
C07  39050952.327          23.287  
C10  38237006.979          35.605  
C24  22287734.018          42.756  
C26  22984383.362          39.972  
C34  24659329.729          30.593  
> 2026 05 10 01 25  0.0000000  0  9
C01  38398316.489          35.844  
C04  39385247.020          36.466  
C07  39061555.609          25.127  
C08  36163909.663          41.648  
C10  38246565.563          29.804  
C24  22285459.370          41.210  
C26  22998134.318          40.262  
C34  24644810.665          24.644  
C35  22846953.776          41.279  
> 2026 05 10 01 25 30.0000000  0  7
C01  38396612.375          32.186  
C03  38499919.379          30.459  
C08  36163875.098          46.050  
C24  22283228.581          44.359  
C31  21480979.108          47.303  
C34  24630268.060          25.937  
C35  22857899.013          43.005  
> 2026 05 10 01 26  0.0000000  0  8
C01  38394974.695          33.029  
C03  38498826.579          37.756  
C07  39082751.711          30.814  
C08  36163911.590          43.370  
C10  38265704.413          29.499  
C24  22281163.659          43.012  
C31  21478227.889          41.437  
C35  22868948.479          41.471  
> 2026 05 10 01 26 30.0000000  0 10
C01  38393268.475          28.659  
C03  38497676.634          31.893  
C04  39378703.091          30.333  
C07  39093344.568          29.074  
C08  36163879.743          41.008  
C10  38275272.965          23.614  
C24  22279127.990          42.052  
C26  23039713.916          43.651  
C31  21475467.876          45.019  
C34  24601364.133          25.133  
> 2026 05 10 01 27  0.0000000  0  7
C03  38496551.842          33.601  
C07  39103978.526          32.695  
C08  36163888.382          43.629  
C10  38284894.412          24.599  
C31  21472805.115          43.371  
C34  24586956.835          30.750  
C35  22891062.255          39.145  
> 2026 05 10 01 27 30.0000000  0 10
C03  38495401.992          31.652  
C04  39374359.811          20.418  
C07  39114592.095          32.728  
C08  36163868.617          42.832  
C10  38294507.056          32.798  
C24  22275395.784          41.145  
C26  23067783.189          41.553  
C31  21470172.292          43.865  
C34  24572549.182          19.586  
C35  22902157.821          39.770  
> 2026 05 10 01 28  0.0000000  0 10
C01  38388252.053          29.409  
C03  38494262.439          30.468  
C04  39372185.906          23.589  
C08  36163860.023          48.350  
C10  38304154.229          26.571  
C24  22273671.491          40.962  
C26  23081916.051          43.741  
C31  21467612.388          40.057  
C34  24558205.400          27.334  
C35  22913302.456          38.397  
> 2026 05 10 01 28 30.0000000  0  6
C01  38386555.290          31.564  
C03  38493085.755          34.322  
C07  39135841.231          32.913  
C26  23096088.086          39.620  
C31  21465083.157          46.358  
C34  24543857.730          22.682  
> 2026 05 10 01 29  0.0000000  0  5
C01  38384879.749          36.324  
C04  39367796.445          28.712  
C07  39146487.777          32.393  
C08  36163804.931          46.286  
C34  24529569.175          26.964  
> 2026 05 10 01 29 30.0000000  0  5
C01  38383190.518          30.181  
C08  36163771.669          42.790  
C10  38333132.274          22.721  
C34  24515289.782          21.487  
C35  22946871.085          40.187  
> 2026 05 10 01 30  0.0000000  0  7
C03  38489595.582          33.855  
C07  39167792.628          30.737  
C08  36163748.869          42.743  
C24  22267668.468          41.677  
C31  21457879.221          45.276  
C34  24501055.834          20.574  
C35  22958131.693          39.217  
> 2026 05 10 01 30 30.0000000  0  6
C01  38555905.618          18.552  
C03  38579452.006          31.485  
C07  39178456.495          24.313  
C10  38352540.755          36.082  
C24  22266404.578          42.894  
C26  23153474.910          37.543  
> 2026 05 10 01 31  0.0000000  0  6
C07  39189112.233          29.769  
C08  36163677.802          45.153  
C10  38362259.758          32.540  
C24  22265229.067          43.033  
C26  23167975.220          36.282  
C31  21453346.172          44.346  
> 2026 05 10 01 31 30.0000000  0  7
C01  38553133.316          21.793  
C07  39199790.570          33.435  
C08  36163643.402          44.918  
C10  38372000.680          35.582  
C24  22264160.913          42.391  
C26  23182547.416          42.706  
C31  21451170.937          46.513  
> 2026 05 10 01 32  0.0000000  0  7
C03  38577391.133          36.682  
C07  39210456.745          29.141  
C08  36163586.190          44.977  
C24  22263164.313          43.135  
C26  23197155.765          36.600  
C31  21449030.949          42.201  
C34  24444401.383          24.709  
> 2026 05 10 01 32 30.0000000  0  8
C01  38550352.973          23.573  
C03  38576709.736          35.219  
C08  36163554.062          45.589  
C10  38391525.158          29.366  
C24  22262293.580          42.512  
C26  23211861.547          36.354  
C31  21446974.507          41.799  
C35  23014850.998          42.274  
> 2026 05 10 01 33  0.0000000  0  6
C03  38575987.695          27.348  
C07  39231850.399          25.208  
C08  36163499.522          45.426  
C10  38401300.655          29.471  
C34  24416279.268          34.162  
C35  23026272.185          42.125  
> 2026 05 10 01 33 30.0000000  0  7
C03  38575283.656          29.131  
C10  38411098.030          29.609  
C24  22260790.839          45.978  
C26  23241404.235          38.292  
C31  21442982.713          41.182  
C34  24402253.067          33.864  
C35  23037726.355          38.003  
> 2026 05 10 01 34  0.0000000  0  8
C01  38546124.958          21.204  
C07  39253222.201          19.703  
C10  38420882.996          20.752  
C24  22260165.409          40.216  
C26  23256252.642          38.958  
C31  21441052.153          43.724  
C34  24388225.468          25.048  
C35  23049188.754          41.552  
> 2026 05 10 01 34 30.0000000  0  7
C01  38544744.388          17.853  
C07  39263950.513          24.229  
C08  36163322.244          42.851  
